     2.00           OBSERVATION DATA    G(GPS)              RINEX VERSION / TYPE
goGPS-java                              17-Apr-24 13:56:36  PGM / RUN BY / DATE
                                                            MARKER NAME
                                                            MARKER NUMBER
                    Lotek Wireless Inc.                     OBSERVER / AGENCY
7                                                           REC # / TYPE / VERS
                                                            ANT # / TYPE
    73993.0000 -5057250.0000  3872763.0000                  APPROX POSITION XYZ
        0.0000        0.0000        0.0000                  ANTENNA: DELTA H / E / N
     2     0                                                WAVELENGTH FACT L1/2
     1    C1                                                # / TYPES OF OBSERV
  2023     2    21    19    17   53.0000000     UTC         TIME OF FIRST OBS
                                                            END OF HEADER
 23  2 21 19 30 13.0000000  0 00 0.41,24.0,3.85
 23  2 21 20  0 22.0000000  0 01G07 +1.400,23.5,3.85
  21105722.750
 23  2 21 20 30 13.0000000  0 00 1.55,25.5,3.85
 23  2 21 21  0 13.0000000  0 00 1.70,26.5,3.85
 23  2 21 21 30 13.0000000  0 00 1.85,27.0,3.85
 23  2 21 22  0 19.0000000  0 01G14 +2.000,26.5,3.85
  21096686.250
 23  2 21 22 30 22.0000000  0 01G17 2.13,26.0,3.85
  20179720.250
 23  2 21 23  0  9.0000000  0 07G03G06G11G12G14G19G24 2.27,24.5,3.85
  20080620.750
  22896036.250
  19482458.250
  21384921.750
  18845800.750
  23036680.250
  19808249.250
 23  2 21 23 30 12.0000000  0 04G03G17G19G20 +2.400,16.5,3.85
  23073039.750
  21049207.750
  19530752.750
  23632752.250
 23  2 22  0  0 14.0000000  0 04G06G11G19G20 +2.000,13.0,3.85
  20704843.250
  21599628.250
  21096254.250
  23757394.750
 23  2 22  0 30 11.0000000  0 05G06G11G17G19G20 +2.200,11.5,3.85
  20670644.750
  20683116.750
  23170509.750
  21027109.750
  22165203.750
 23  2 22  1  0 11.0000000  0 07G05G06G11G12G17G19G20 +1.720,10.5,3.85
  23062276.250
  20704373.750
  19904229.250
  20483345.250
  23345380.250
  21018352.750
  20641439.750
 23  2 22  1 30 10.0000000  0 06G02G06G09G11G19G20 1.84,10.5,3.85
  23107753.750
  20453899.250
  22812949.750
  18954868.750
  20788160.250
  18991168.750
 23  2 22  2  0 10.0000000  0 07G02G05G06G09G11G12G20 1.96,10.0,3.85
  18233856.250
  21654296.750
  23129568.250
  18644735.750
  21059449.250
  21515236.250
  20530886.250
 23  2 22  2 30 40.0000000  0 01G05 2.08,11.0,3.85
  20962860.750
 23  2 22  3  0 11.0000000  0 06G05G11G12G20G25G29 +2.200,10.5,3.85
  20623383.750
  22126128.250
  23299351.750
  21025483.250
  22703125.250
  22347834.250
 23  2 22  3 30 10.0000000  0 06G02G05G11G13G15G20 2.20,11.0,3.85
  22527245.250
  20496472.250
  22693384.750
  22995392.750
  23701091.750
  21541312.750
 23  2 22  4  0  6.0000000  0 06G02G05G11G13G15G20 2.20,11.5,3.85
  18312607.750
  22995832.750
  19667809.750
  18325161.750
  18712343.250
  18541227.750
 23  2 22  4 30  9.0000000  0 06G02G05G13G20G23G29 2.20,13.0,3.85
  21022071.750
  20602020.750
  20798658.250
  22489782.750
  23700739.250
  20196579.250
 23  2 22  5  0 11.0000000  0 06G02G05G13G20G23G29 +2.200,13.5,3.85
  21024212.750
  21558724.750
  20843744.250
  23661184.750
  23042723.250
  20718264.250
 23  2 22  5 30 11.0000000  0 04G05G13G15G29 +2.200,14.0,3.85
  22333272.750
  21024486.250
  19914097.750
  21327470.250
 23  2 22  6  0  5.0000000  0 07G02G05G10G13G15G23G29 2.27,13.5,3.85
  18145154.250
  20331587.750
  21305740.250
  18762544.250
  23121704.250
  18694639.250
  19407055.250
 23  2 22  6 30  8.0000000  0 07G02G10G13G15G18G24G29 2.33,14.5,3.85
  21814472.750
  23777546.750
  22986871.250
  20897633.750
  20567137.250
  22965695.750
  23866218.250
 23  2 22  7  0 11.0000000  0 04G02G15G18G24 +2.400,15.0,3.85
  21793719.250
  21028050.250
  19804497.250
  21424723.250
 23  2 22  7 30 10.0000000  0 06G02G15G18G23G24G27 2.40,15.5,3.85
  18429250.250
  23780357.750
  21808408.250
  21950033.750
  22625707.250
  18676046.750
 23  2 22  8  0  8.0000000  0 06G10G15G23G24G27G32 2.40,16.0,3.85
  20478126.250
  22580168.250
  19560647.750
  20175933.250
  22577326.250
  21396062.250
 23  2 22  8 30  7.0000000  0 06G18G22G23G24G27G32 2.40,16.5,3.85
  19802059.250
  21238575.250
  18438146.250
  19253428.750
  21891712.250
  19473042.250
 23  2 22  9  0 11.0000000  0 06G18G22G23G24G31G32 +2.400,17.0,3.85
  23240710.250
  22695946.750
  21027422.750
  22237052.250
  24630291.750
  21257738.750
 23  2 22  9 30 11.0000000  0 07G10G21G22G23G28G31G32 +2.400,17.5,3.85
  21026830.750
  18755837.750
  22643027.250
  22170521.250
  23049663.250
  23874340.250
  21568493.250
 23  2 22 10  0  6.0000000  0 06G10G12G23G28G31G32 1.95,18.0,3.85
  23205812.250
  20583619.750
  19060831.250
  18160595.750
  18770874.250
  23573380.750
 23  2 22 10 30  9.0000000  0 07G10G12G22G23G25G28G32 1.49,18.0,3.85
  21855400.250
  18692129.250
  22200071.250
  18337415.250
  23505638.250
  21712789.750
  21912050.750
 23  2 22 11  0 10.0000000  0 07G10G12G22G25G28G31G32 1.04,18.5,3.85
  20796854.250
  23177943.750
  20249205.250
  21513109.750
  19585765.250
  19667938.750
  20379454.750
 23  2 22 11 14 18.0000000  0 00 0.00,19.5,3.85,1,67046,-5050887,3881244,4,2.4
 23  2 22 14 30 10.0000000  0 06G03G16G22G26G28G31 -2.15,19.5,3.85
  22834714.250
  21021373.250
  18022714.750
  21596580.750
  18926683.750
  18398946.750
 23  2 22 15  0 11.0000000  0 05G04G16G26G27G31 -2.600,20.0,3.85
  19983455.250
  19486845.250
  21026173.750
  22050768.250
  23974448.750
 23  2 22 15 30 12.0000000  0 05G04G07G16G26G27 +1.600,19.5,3.85
  19634646.250
  23275714.750
  19662751.250
  21954708.750
  21046558.250
 23  2 22 16  0 11.0000000  0 05G04G08G16G26G27 +1.400,20.0,3.85
  20305543.750
  21935923.250
  20841674.250
  23639081.750
  21025209.250
 23  2 22 16 30 11.0000000  0 04G08G09G16G27 +1.400,20.5,3.85
  21245038.750
  20912512.750
  21877275.750
  21025367.250
 23  2 22 17  0 13.0000000  0 04G04G08G09G16 +0.800,22.5,3.85
  21832803.250
  20771147.750
  21050767.250
  22933862.250
 23  2 22 17 30  5.0000000  0 06G04G08G09G14G16G27 1.00,23.5,3.85
  19013441.250
  22756408.750
  23629702.750
  20592654.250
  20102451.750
  18114986.750
 23  2 22 18  0  8.0000000  0 07G04G07G08G09G14G21G27 1.20,22.5,3.85
  18859137.750
  21438009.750
  21661292.750
  23054950.750
  18321390.250
  23771788.750
  23703299.250
 23  2 22 18 30 11.0000000  0 04G07G08G21G27 +1.400,24.0,3.85
  19908044.750
  21025381.250
  21797433.250
  23595252.250
 23  2 22 19  0 11.0000000  0 05G01G08G09G21G30 +1.400,23.5,3.85
  21662049.250
  21530486.250
  23571424.250
  21025195.250
  20115009.750
 23  2 22 19 30 12.0000000  0 06G01G07G08G19G21G30 +1.000,22.0,3.85
  20766746.250
  19946666.750
  22587814.250
  18224967.750
  21036183.250
  19715306.750
 23  2 22 20  0  9.0000000  0 06G01G07G08G17G21G30 1.20,21.5,3.85
  23413642.750
  23843989.750
  20889518.750
  23557064.250
  18623697.750
  22848442.750
 23  2 22 20 30 11.0000000  0 05G01G07G17G19G30 +1.400,22.5,3.85
  21025061.750
  22543309.750
  20797730.250
  22867337.250
  20883820.250
 23  2 22 21  0 11.0000000  0 04G01G14G17G30 +1.400,21.0,3.85
  21024864.250
  20047273.750
  20211391.750
  21205573.250
 23  2 22 21 30  8.0000000  0 07G01G03G06G14G17G19G30 1.10,16.0,3.85
  19812524.750
  21642027.750
  20155391.250
  18126054.250
  18224019.750
  18909524.750
  20199202.750
 23  2 22 22  0 14.0000000  0 04G06G14G19G30 +0.800,14.5,3.85
  21065903.750
  20452438.750
  20400591.250
  23369440.250
 23  2 22 22 30 11.0000000  0 04G03G06G11G19 +1.400,13.5,3.85
  21024334.250
  18411200.750
  21558768.250
  18241823.750
 23  2 22 23  0 12.0000000  0 04G03G06G11G17 +1.600,14.0,3.85
  23007939.250
  19732840.250
  22215229.750
  21046231.250
 23  2 22 23 30 11.0000000  0 06G06G11G12G14G19G20 1.30,13.5,3.85
  20648550.750
  22313668.250
  23940889.750
  23969598.750
  21003663.250
  18925970.250
 23  2 23  0  0 17.0000000  0 05G06G11G17G19G20 +1.000,13.5,3.85
  21125698.250
  21898000.750
  23431113.250
  21516028.250
  23971865.250
 23  2 23  0 30 14.0000000  0 04G06G17G19G20 +1.600,13.0,3.85
  20732486.750
  23252643.750
  21082170.750
  22009516.750
 23  2 23  1  0  7.0000000  0 07G05G06G11G12G17G19G20 1.60,12.5,3.85
  19572001.250
  23480856.250
  22579186.750
  23122457.750
  20138790.750
  23793116.750
  23218507.750
 23  2 23  1 30 10.0000000  0 07G05G06G11G12G19G20G25 1.60,12.5,3.85
  19959197.750
  19847526.750
  18261773.250
  18658645.750
  20192820.250
  18212114.250
  19626296.250
 23  2 23  2  0 10.0000000  0 07G06G09G11G19G20G25G29 1.60,12.0,3.85
  22684865.750
  18107474.250
  20544834.750
  23173044.250
  19953465.250
  21395381.250
  23518910.750
 23  2 23  2 30 11.0000000  0 06G02G06G11G12G20G25 +1.600,12.0,3.85
  22202526.250
  22813894.250
  20240495.250
  21026967.250
  19296342.750
  20834739.750
 23  2 23  3  0 10.0000000  0 07G02G05G11G12G18G20G25 1.60,11.5,3.85
  22451101.250
  20000113.750
  21611012.250
  22852238.750
  19376885.250
  20495821.750
  22200098.250
 23  2 23  3 30  6.0000000  0 07G02G05G11G12G15G20G25 1.60,11.0,3.85
  22330389.250
  20382681.750
  22653324.750
  18395137.250
  23397143.250
  21500847.750
  23415498.250
 23  2 23  4  0 11.0000000  0 05G02G05G11G15G20 +1.600,11.0,3.85
  22199515.750
  21003663.250
  23720317.250
  22497682.250
  22598524.750
 23  2 23  4 30 16.0000000  0 06G02G05G11G18G20G29 +1.800,11.0,3.85
  21407146.750
  21121265.250
  18133483.250
  22925531.250
  23042095.250
  20637960.250
 23  2 23  5  0 11.0000000  0 07G02G05G13G18G20G23G29 +1.200,11.0,3.85
  21171476.250
  21836083.750
  21018377.750
  22069076.250
  23954264.250
  23097209.250
  20956024.250
 23  2 23  5 30  6.0000000  0 07G02G05G13G15G18G23G29 1.50,10.5,3.85
  20013532.250
  21563081.750
  20198363.250
  19015056.250
  20208732.750
  21237164.250
  20554623.250
 23  2 23  6  0 14.0000000  0 04G05G15G18G29 +1.800,10.5,3.85
  24373752.750
  21083139.750
  21520655.750
  23476639.250
 23  2 23  6 30 11.0000000  0 07G02G05G13G15G18G23G29 +1.600,10.5,3.85
  21921375.750
  24703761.250
  23168347.250
  21024827.750
  20569068.250
  21445359.750
  18078110.250
 23  2 23  7  0 12.0000000  0 06G02G10G18G23G24G27 +1.240,10.5,3.85
  23100050.250
  23458631.250
  21018079.250
  21591188.750
  22528358.250
  18241281.250
 23  2 23  7 30 10.0000000  0 06G10G15G18G23G24G27 1.38,10.0,3.85
  22962065.750
  23564412.250
  21508193.250
  21567205.250
  22219048.750
  18321536.250
 23  2 23  8  0  9.0000000  0 06G10G15G18G23G24G32 1.52,10.0,3.85
  18195049.250
  20531337.250
  18008462.250
  23354762.250
  23982980.750
  19085585.250
 23  2 23  8 30  9.0000000  0 07G08G10G18G23G24G27G32 1.66,10.0,3.85
  22156890.750
  18294533.250
  19580214.250
  18100003.750
  18959942.250
  21617647.250
  19026433.250
 23  2 23  9  0 11.0000000  0 04G10G18G23G32 +1.800,10.5,3.85
  21026512.750
  23860968.750
  21538649.250
  21658503.750
 23  2 23  9 30  9.0000000  0 06G10G21G22G28G31G32 1.80,10.5,3.85
  23176233.750
  20821158.750
  18725641.250
  19059119.250
  19859764.250
  23700951.750
 23  2 23 10  0  6.0000000  0 06G10G23G25G28G31G32 1.80,10.5,3.85
  19000075.750
  20943544.750
  21501721.250
  19800873.250
  20379166.250
  19334920.750
 23  2 23 10 30 12.0000000  0 04G12G23G25G32 +1.800,11.0,3.85
  23789984.250
  23580689.250
  22540827.750
  21026217.250
 23  2 23 11  0 14.0000000  0 04G22G25G31G32 +1.800,11.5,3.85
  21079469.750
  22359915.250
  20456072.250
  21269741.250
 23  2 23 11 30  8.0000000  0 07G21G22G25G26G28G31G32 1.80,12.0,3.85
  23088838.250
  20118058.250
  21699100.250
  22458359.250
  19524075.250
  19332187.250
  20748703.250
 23  2 23 12  0  6.0000000  0 06G21G22G26G28G31G32 1.80,12.5,3.85
  20330462.750
  22777626.750
  23936961.750
  22441789.250
  22066059.750
  23873329.250
 23  2 23 12 30  8.0000000  0 06G01G16G22G28G31G32 1.80,13.0,3.85
  22884896.250
  22930710.250
  19778831.750
  19807254.750
  19313032.750
  21356910.750
 23  2 23 13  0 17.0000000  0 06G04G16G22G28G31G32 1.80,13.5,3.85
  23673291.750
  22763583.250
  21270531.750
  21677122.250
  21124883.250
  23329439.250
 23  2 23 13 30 11.0000000  0 06G03G16G22G26G28G31 +1.800,14.0,3.85
  20537844.750
  20847908.750
  21025256.250
  19414739.750
  21734364.750
  21169794.250
 23  2 23 14  0 19.0000000  0 04G03G26G28G31 +1.200,14.0,3.85
  22336753.250
  21159653.250
  18169478.750
  23615451.750
 23  2 23 14 30 10.0000000  0 06G03G16G22G26G28G31 1.50,14.5,3.85
  21594342.250
  19625934.250
  22809287.250
  20346890.250
  23704747.750
  23179562.750
 23  2 23 15  0 18.0000000  0 06G03G04G16G26G27G31 +1.800,16.5,3.85
  21154983.750
  18590176.250
  18164476.750
  19826108.250
  20569139.750
  22777237.250
 23  2 23 15 30 13.0000000  0 04G04G07G09G26 +1.800,20.0,3.85
  21060260.750
  18605331.750
  22446594.750
  23539159.250
 23  2 23 16  0 14.0000000  0 04G08G09G16G26 +2.000,19.0,3.85
  21930619.250
  21108729.750
  21083355.750
  23930345.750
 23  2 23 16 30 31.0000000  0 05G04G08G09G16G27 +1.400,18.0,3.85
  21402544.750
  21484522.750
  21240592.750
  22363665.750
  21377885.250
 23  2 23 17  0 22.0000000  0 00 1.60,17.0,3.85
 23  2 23 17 30  6.0000000  0 06G04G07G08G14G16G27 1.80,21.0,3.85
  22896843.750
  20952789.750
  20499569.750
  18192825.750
  23977830.750
  21956089.250
 23  2 23 18  0 11.0000000  0 04G04G07G08G27 +2.000,24.0,3.85
  24325550.750
  20683879.250
  21027719.250
  23153254.250
 23  2 23 18 30 11.0000000  0 05G01G07G08G09G27 +2.000,24.5,3.85
  22913040.750
  19787953.250
  21027773.250
  22862748.750
  23656048.250
 23  2 23 19  0 11.0000000  0 04G01G09G14G21 +2.000,26.5,3.85
  21026813.250
  23234417.250
  20548153.250
  20506720.750
 23  2 23 19 30 11.0000000  0 05G01G08G17G21G30 +2.000,28.0,3.85
  20628759.750
  22697612.250
  20937738.750
  21027280.250
  19645269.750
 23  2 23 20  0 14.0000000  0 05G01G08G17G21G30 +2.200,26.0,3.85
  21084015.250
  24753572.750
  21189349.250
  22415595.250
  20582983.750
 23  2 23 20 30 11.0000000  0 04G01G07G14G19 +2.000,22.0,3.85
  21530724.250
  23181161.250
  21026781.750
  23213456.750
 23  2 23 21  0  9.0000000  0 07G01G06G13G14G17G21G30 1.60,17.5,3.85
  21957290.250
  18083708.250
  18520502.750
  20890624.250
  21048582.250
  18683941.250
  22173211.250
 23  2 23 21 30 12.0000000  0 04G01G14G17G30 +1.200,15.5,3.85
  21030948.750
  19239072.250
  19322231.750
  21437709.250
 23  2 23 22  0  5.0000000  0 06G03G06G14G17G19G30 1.50,13.5,3.85
  19198872.250
  23102655.250
  22677986.250
  22589460.250
  22509419.250
  19698351.250
 23  2 23 22 30 14.0000000  0 04G03G06G14G17 +1.800,12.0,3.85
  23776742.250
  21075609.750
  22059404.250
  21649290.750
 23  2 23 23  0 12.0000000  0 05G03G06G11G17G19 +2.000,10.5,3.85
  18186341.250
  20813555.750
  23194155.250
  22225273.250
  21026187.250
 23  2 23 23 30 15.0000000  0 04G06G17G19G24 +1.400,9.5,3.85
  19099327.250
  21088504.750
  19466867.750
  22550155.250
 23  2 24  0  0  5.0000000  0 06G06G11G17G19G20G24 1.60,8.5,3.85
  18043086.750
  18699628.750
  20381782.250
  18431066.250
  20691567.250
  21892405.750
 23  2 24  0 30  9.0000000  0 06G06G11G12G17G19G20 1.80,8.0,3.85
  19721102.250
  19503513.750
  20315917.750
  22259321.750
  20064336.750
  20787582.750
 23  2 24  1  0 11.0000000  0 04G06G11G19G20 +2.000,7.5,3.85
  20713458.250
  19708385.250
  21025376.750
  20247102.750
 23  2 24  1 30  6.0000000  0 06G02G05G06G11G12G19 2.00,7.0,3.85
  18056189.250
  21674821.750
  21824058.750
  20154773.750
  20548948.250
  22182396.250
 23  2 24  2  0 11.0000000  0 05G05G06G11G19G20 +2.000,6.0,3.85
  21282689.750
  23232936.750
  21024422.750
  23750745.250
  20373208.750
 23  2 24  2 30 11.0000000  0 05G05G06G11G20G25 +2.000,5.0,3.85
  21158536.750
  18632627.250
  22002004.750
  21024233.750
  22582396.750
 23  2 24  3  0 11.0000000  0 05G05G11G15G20G25 +2.200,3.5,3.85
  20439352.250
  22155184.250
  24585192.750
  21027653.250
  22759880.250
 23  2 24  3 30  8.0000000  0 06G05G11G13G15G20G29 2.13,3.0,3.85
  21486597.250
  23828828.750
  23670732.750
  18304790.750
  22677123.750
  22279333.750
 23  2 24  4  0  5.0000000  0 07G02G05G11G13G15G20G29 2.06,3.0,3.85
  20569288.250
  19488333.250
  22248643.250
  20491589.250
  20772342.250
  21131333.250
  19539137.750
 23  2 24  4 30  5.0000000  0 07G05G11G13G15G20G23G29 1.98,2.5,3.85
  23483166.750
  20522470.250
  23402909.250
  23228008.250
  19436037.250
  20146539.250
  22931751.750
 23  2 24  5  0  7.0000000  0 08G02G05G13G15G18G20G23G29 1.91,2.0,3.85
  20620688.750
  21412983.750
  20499596.750
  19793207.250
  21429406.750
  23544779.750
  22453937.250
  20498945.750
 23  2 24  5 30 11.0000000  0 06G02G05G13G15G20G29 +1.840,1.0,3.85
  21018097.750
  22683144.250
  21266434.750
  20007108.250
  18912216.250
  21676791.750
 23  2 24  6  0  5.0000000  0 06G02G05G13G15G18G29 2.12,0.5,3.85
  19189917.750
  21552177.250
  19958211.250
  18188892.750
  18514652.250
  20683615.750
 23  2 24  6 30 11.0000000  0 04G15G18G24G29 +2.400,0.0,3.85
  21027208.250
  20447201.250
  22639018.250
  24151948.750
 23  2 24  7  0 16.0000000  0 02G02G24 +1.800,-0.5,3.85
  21089443.250
  20313223.750
 23  2 24  7 30  8.0000000  0 06G15G18G23G24G27G32 2.00,-1.0,3.85
  23905294.250
  21769496.750
  21742656.250
  22375642.250
  18529243.750
  18177545.750
 23  2 24  8  0  6.0000000  0 06G10G18G23G24G27G32 2.20,-1.5,3.85
  22392344.750
  22394503.250
  21638239.250
  22284064.250
  18768463.250
  23257340.250
 23  2 24  8 30 10.0000000  0 06G10G18G22G23G24G27 +2.400,-1.5,3.85
  21124850.750
  22621432.250
  23513558.250
  21024475.250
  21932701.250
  18610417.250
 23  2 24  9  0  6.0000000  0 06G10G18G22G23G24G31 2.50,-2.0,3.85
  20382811.750
  23420294.250
  22338726.750
  20992898.250
  22327260.750
  18102447.750
 23  2 24  9 30 10.0000000  0 05G10G12G23G28G31 +2.600,-2.0,3.85
  21026542.250
  24824077.750
  22369781.750
  22757149.750
  23531942.250
 23  2 24 10  0 10.0000000  0 05G10G12G23G28G31 +2.600,-2.5,3.85
  21025429.250
  24244262.750
  23061923.250
  21672802.250
  22217470.250
 23  2 24 10 30 10.0000000  0 06G10G12G22G28G31G32 +2.200,-3.0,3.85
  21074491.750
  23774947.250
  21191167.750
  20634154.250
  20913351.750
  21018291.250
 23  2 24 11  0 10.0000000  0 04G21G25G31G32 +2.800,-3.5,3.85
  23325623.250
  22080246.750
  20118728.250
  21027450.250
 23  2 24 11 30  5.0000000  0 08G10G21G22G25G26G28G31G32 2.80,-4.0,3.85
  20944365.750
  22079266.250
  19033697.750
  20676414.750
  21212062.250
  18465247.250
  18244895.250
  19725620.250
 23  2 24 12  0  5.0000000  0 06G22G25G26G28G31G32 2.80,-3.5,3.85
  22410538.250
  18682112.750
  23410943.750
  22119744.250
  21723690.250
  23570073.750
 23  2 24 12 30 11.0000000  0 04G22G28G31G32 +2.800,-3.5,3.85
  20943475.750
  21024878.750
  20518715.250
  22586716.750
 23  2 24 13  0 12.0000000  0 04G16G22G28G31 +2.800,-3.5,3.85
  22302854.250
  21042069.750
  21494398.750
  20937488.750
 23  2 24 13 30 11.0000000  0 05G16G22G26G28G31 +3.000,-2.5,3.85
  20618158.250
  21026849.750
  19331936.250
  21766944.250
  21202286.250
 23  2 24 14  0 11.0000000  0 05G03G09G16G22G26 +3.000,2.5,3.85
  20030034.750
  23017009.750
  19043802.750
  21026200.750
  18845361.250
 23  2 24 14 30 14.0000000  0 07G03G07G16G22G26G28G31 +3.000,6.0,3.85
  19424542.250
  22453380.250
  23297847.750
  20665490.250
  18165243.250
  21549019.250
  21026468.750
 23  2 24 15  0 13.0000000  0 00 3.00,10.0,3.85
 23  2 24 15 30 13.0000000  0 00 3.01,14.5,3.85
 23  2 24 16  0 13.0000000  0 00 3.01,17.0,3.85
 23  2 24 16 30 13.0000000  0 00 3.02,18.5,3.85
 23  2 24 17  0 22.0000000  0 01G27 3.02,19.5,3.85
  18510737.250
 23  2 24 17 30 13.0000000  0 00 3.03,20.0,3.85
 23  2 24 18  0 22.0000000  0 01G08 3.03,21.0,3.85
  21044844.750
 23  2 24 18 30 13.0000000  0 00 3.04,21.0,3.85
 23  2 24 19  0 13.0000000  0 00 3.04,21.5,3.85
 23  2 24 19 30 22.0000000  0 01G21 3.05,21.5,3.85
  22663358.250
 23  2 24 20  0 13.0000000  0 00 3.05,21.5,3.85
 23  2 24 20 30 13.0000000  0 00 3.06,23.0,3.85
 23  2 24 21  0 13.0000000  0 00 3.06,22.5,3.85
 23  2 24 21 30 13.0000000  0 00 3.07,22.5,3.85
 23  2 24 22  0 13.0000000  0 00 3.07,22.0,3.85
 23  2 24 22 30 13.0000000  0 00 3.08,22.0,3.85
 23  2 24 23  0 13.0000000  0 00 3.08,22.0,3.85
 23  2 24 23 30 13.0000000  0 00 3.09,21.5,3.85
 23  2 25  0  0 13.0000000  0 00 3.09,22.0,3.85
 23  2 25  0 30 13.0000000  0 00 3.10,22.0,3.85
 23  2 25  1  0 13.0000000  0 00 3.10,22.0,3.85
 23  2 25  1 30 13.0000000  0 00 3.11,22.0,3.85
 23  2 25  2  0 13.0000000  0 00 3.11,22.0,3.85
 23  2 25  2 30 22.0000000  0 01G09 3.12,22.0,3.85
  23074801.750
 23  2 25  3  0 13.0000000  0 00 3.12,22.0,3.85
 23  2 25  3 30 13.0000000  0 00 3.13,22.0,3.85
 23  2 25  4  0 13.0000000  0 00 3.13,22.0,3.85
 23  2 25  4 30 13.0000000  0 00 3.14,21.5,3.85
 23  2 25  5  0 13.0000000  0 00 3.14,21.5,3.85
 23  2 25  5 30 13.0000000  0 00 3.15,21.5,3.85
 23  2 25  6  0 13.0000000  0 00 3.15,22.0,3.85
 23  2 25  6 30 13.0000000  0 00 3.16,21.5,3.85
 23  2 25  7  0 13.0000000  0 00 3.16,21.5,3.85
 23  2 25  7 30 13.0000000  0 00 3.17,21.5,3.85
 23  2 25  8  0 13.0000000  0 00 3.17,21.5,3.85
 23  2 25  8 19 19.0000000  0 00 0.00,22.5,3.85,0
 23  2 25  9 20 10.0000000  0 00 0.00,22.5,3.85,0
 23  2 25 10 20 10.0000000  0 00 0.00,22.5,3.85,0
 23  2 25 11 20 10.0000000  0 00 0.00,22.0,3.85,0
 23  2 25 12 20 10.0000000  0 00 0.00,22.5,3.85,0
 23  2 25 13 20 10.0000000  0 00 0.00,22.5,3.85,0
 23  2 25 14 20 10.0000000  0 00 0.00,22.5,3.85,0
 23  2 25 15 20 10.0000000  0 00 0.00,22.0,3.85,0
 23  2 25 16 20 10.0000000  0 00 0.00,22.0,3.85,0
 23  2 25 17 20 10.0000000  0 00 0.00,22.5,3.85,0
 23  2 25 18 20 10.0000000  0 00 0.00,22.0,3.85,0
 23  2 25 19 20 10.0000000  0 00 0.00,22.0,3.85,0
 23  2 25 20 20 10.0000000  0 00 0.00,22.0,3.85,0
 23  2 25 21 20 10.0000000  0 00 0.00,22.0,3.85,0
 23  2 25 22 20 10.0000000  0 00 0.00,22.0,3.85,0
 23  2 25 23 20 10.0000000  0 00 0.00,22.0,3.85,0
 23  2 26  0 20 10.0000000  0 00 0.00,22.0,3.85,0
 23  2 26  1 20 10.0000000  0 00 0.00,22.0,3.85,0
 23  2 26  2 20 10.0000000  0 00 0.00,22.0,3.85,0
 23  2 26  3 20 10.0000000  0 00 0.00,22.0,3.85,0
 23  2 26  4 20 10.0000000  0 00 0.00,22.0,3.85,0
 23  2 26  5 20 10.0000000  0 00 0.00,22.0,3.85,0
 23  2 26  6 20 10.0000000  0 00 0.00,22.0,3.85,0
 23  2 26  7 20 10.0000000  0 00 0.00,22.0,3.85,0
 23  2 26  8 20 10.0000000  0 00 0.00,22.0,3.85,0
 23  2 26  9 20 10.0000000  0 00 0.00,22.0,3.85,0
 23  2 26 10 20 10.0000000  0 00 0.00,22.0,3.85,0
 23  2 26 11 20 10.0000000  0 00 0.00,22.0,3.85,0
 23  2 26 12 20 10.0000000  0 00 0.00,22.0,3.85,0
 23  2 26 13 20 10.0000000  0 00 0.00,22.0,3.85,0
 23  2 26 14 20 10.0000000  0 00 0.00,22.0,3.85,0
 23  2 26 15 20 10.0000000  0 00 0.00,22.0,3.85,0
 23  2 26 16 20 10.0000000  0 00 0.00,22.0,3.85,0
 23  2 26 17 20 10.0000000  0 00 0.00,22.0,3.85,0
 23  2 26 18 20 10.0000000  0 00 0.00,22.0,3.85,0
 23  2 26 19 20 10.0000000  0 00 0.00,22.0,3.85,0
 23  2 26 20 20 10.0000000  0 00 0.00,22.0,3.85,0
 23  2 26 21 20 10.0000000  0 00 0.00,22.0,3.85,0
 23  2 26 22 20 10.0000000  0 00 0.00,22.0,3.85,0
 23  2 26 23 20 10.0000000  0 00 0.00,22.0,3.85,0
 23  2 27  0 20 10.0000000  0 00 0.00,22.0,3.85,0
 23  2 27  1 20 10.0000000  0 00 0.00,22.0,3.85,0
 23  2 27  2 20 10.0000000  0 00 0.00,22.0,3.85,0
 23  2 27  3 20 10.0000000  0 00 0.00,22.0,3.85,0
 23  2 27  4 20 10.0000000  0 00 0.00,22.0,3.85,0
 23  2 27  5 20 10.0000000  0 00 0.00,22.0,3.85,0
 23  2 27  6 20 10.0000000  0 00 0.00,22.0,3.85,0
 23  2 27  7 20 10.0000000  0 00 0.00,22.0,3.85,0
 23  2 27  8 20 10.0000000  0 00 0.00,22.0,3.85,0
 23  2 27  9 20 10.0000000  0 00 0.00,22.5,3.85,0
 23  2 27 10 20 10.0000000  0 00 0.00,22.0,3.85,0
 23  2 27 11 20 10.0000000  0 00 0.00,22.5,3.85,0
 23  2 27 12 20 10.0000000  0 00 0.00,22.5,3.85,0
 23  2 27 13 20 10.0000000  0 00 0.00,22.5,3.85,0
 23  2 27 14 20 10.0000000  0 00 0.00,22.5,3.85,0
 23  2 27 15 20 10.0000000  0 00 0.00,23.0,3.85,0
 23  2 27 16 20 10.0000000  0 00 0.00,23.0,3.85,0
 23  2 27 17 20 10.0000000  0 00 0.00,23.0,3.85,0
 23  2 27 18 20 10.0000000  0 00 0.00,23.0,3.85,0
 23  2 27 19 20 10.0000000  0 00 0.00,23.0,3.85,0
 23  2 27 20 20 10.0000000  0 00 0.00,23.5,3.85,0
 23  2 27 21 20 10.0000000  0 00 0.00,23.5,3.85,0
 23  2 27 22 20 10.0000000  0 00 0.00,23.5,3.85,0
 23  2 27 23 20 10.0000000  0 00 0.00,24.0,3.85,0
 23  2 28  0 20 10.0000000  0 00 0.00,23.5,3.85,0
 23  2 28  1 20 10.0000000  0 00 0.00,23.5,3.85,0
 23  2 28  2 20 10.0000000  0 00 0.00,23.5,3.85,0
 23  2 28  3 20 10.0000000  0 00 0.00,23.5,3.85,0
 23  2 28  4 20 10.0000000  0 00 0.00,23.5,3.85,0
 23  2 28  5 20 10.0000000  0 00 0.00,23.5,3.85,0
 23  2 28  6 20 10.0000000  0 00 0.00,23.5,3.85,0
 23  2 28  7 20 10.0000000  0 00 0.00,23.5,3.85,0
 23  2 28  8 20 10.0000000  0 00 0.00,23.0,3.85,0
 23  2 28  9 20 10.0000000  0 00 0.00,23.0,3.85,0
 23  2 28 10 20 10.0000000  0 00 0.00,23.0,3.85,0
 23  2 28 11 20 10.0000000  0 00 0.00,23.0,3.85,0
 23  2 28 12 20 10.0000000  0 00 0.00,22.5,3.85,0
 23  2 28 13 20 10.0000000  0 00 0.00,23.0,3.85,0
 23  2 28 14 20 10.0000000  0 00 0.00,23.0,3.85,0
 23  2 28 15 20 10.0000000  0 00 0.00,23.0,3.85,0
 23  2 28 16 20 10.0000000  0 00 0.00,23.0,3.85,0
 23  2 28 17 20 10.0000000  0 00 0.00,23.0,3.85,0
 23  2 28 18 20 10.0000000  0 00 0.00,23.0,3.85,0
 23  2 28 19 20 10.0000000  0 00 0.00,23.5,3.85,0
 23  2 28 20 20 10.0000000  0 00 0.00,23.0,3.85,0
 23  2 28 21 20 10.0000000  0 00 0.00,23.5,3.85,0
 23  2 28 22 20 10.0000000  0 00 0.00,23.5,3.85,0
 23  2 28 23 20 10.0000000  0 00 0.00,24.0,3.85,0
 23  3  1  0 20 10.0000000  0 00 0.00,23.5,3.85,0
 23  3  1  1 20 10.0000000  0 00 0.00,23.5,3.85,0
 23  3  1  2 20 10.0000000  0 00 0.00,23.5,3.85,0
 23  3  1  3 20 10.0000000  0 00 0.00,23.5,3.85,0
 23  3  1  4 20 10.0000000  0 00 0.00,23.5,3.85,0
 23  3  1  5 20 10.0000000  0 00 0.00,23.5,3.85,0
 23  3  1  6 20 10.0000000  0 00 0.00,23.5,3.85,0
 23  3  1  7 20 10.0000000  0 00 0.00,23.5,3.85,0
 23  3  1  8 20 10.0000000  0 00 0.00,23.5,3.85,0
 23  3  1  9 20 10.0000000  0 00 0.00,23.5,3.85,0
 23  3  1 10 20 10.0000000  0 00 0.00,23.0,3.85,0
 23  3  1 11 20 10.0000000  0 00 0.00,23.0,3.85,0
 23  3  1 12 20 10.0000000  0 00 0.00,23.0,3.85,0
 23  3  1 13 20 10.0000000  0 00 0.00,23.0,3.85,0
 23  3  1 14 20 10.0000000  0 00 0.00,23.0,3.85,0
 23  3  1 15 20 10.0000000  0 00 0.00,23.5,3.85,0
 23  3  1 16 20 10.0000000  0 00 0.00,23.5,3.85,0
 23  3  1 17 20 10.0000000  0 00 0.00,24.0,3.85,0
 23  3  1 18 20 10.0000000  0 00 0.00,24.0,3.85,0
 23  3  1 19 20 10.0000000  0 00 0.00,24.5,3.85,0
 23  3  1 20 20 10.0000000  0 00 0.00,24.5,3.85,0
 23  3  1 21 20 10.0000000  0 00 0.00,24.5,3.85,0
 23  3  1 22 20 10.0000000  0 00 0.00,24.5,3.85,0
 23  3  1 23 20 10.0000000  0 00 0.00,24.5,3.85,0
 23  3  2  0 20 10.0000000  0 00 0.00,24.5,3.85,0
 23  3  2  1 20 10.0000000  0 00 0.00,24.5,3.85,0
 23  3  2  2 20 10.0000000  0 00 0.00,24.5,3.85,0
 23  3  2  3 20 10.0000000  0 00 0.00,24.5,3.85,0
 23  3  2  4 20 10.0000000  0 00 0.00,24.5,3.85,0
 23  3  2  5 20 10.0000000  0 00 0.00,24.0,3.85,0
 23  3  2  6 20 10.0000000  0 00 0.00,24.5,3.85,0
 23  3  2  7 20 10.0000000  0 00 0.00,24.0,3.85,0
 23  3  2  8 20 10.0000000  0 00 0.00,24.0,3.85,0
 23  3  2  9 20 10.0000000  0 00 0.00,24.0,3.85,0
 23  3  2 10 20 10.0000000  0 00 0.00,24.0,3.85,0
 23  3  2 11 20 10.0000000  0 00 0.00,23.5,3.85,0
 23  3  2 12 20 10.0000000  0 00 0.00,23.5,3.85,0
 23  3  2 13 20 10.0000000  0 00 0.00,23.5,3.85,0
 23  3  2 14 20 10.0000000  0 00 0.00,23.5,3.85,0
 23  3  2 15 20 10.0000000  0 00 0.00,23.5,3.85,0
 23  3  2 16 20 10.0000000  0 00 0.00,23.5,3.85,0
 23  3  2 17 20 10.0000000  0 00 0.00,23.5,3.85,0
 23  3  2 18 20 10.0000000  0 00 0.00,23.5,3.85,0
 23  3  2 19 20 10.0000000  0 00 0.00,23.5,3.85,0
 23  3  2 20 20 10.0000000  0 00 0.00,24.0,3.85,0
 23  3  2 21 20 10.0000000  0 00 0.00,24.0,3.85,0
 23  3  2 22 20 10.0000000  0 00 0.00,23.5,3.85,0
 23  3  2 23 20 10.0000000  0 00 0.00,23.5,3.85,0
 23  3  3  0 20 10.0000000  0 00 0.00,23.5,3.85,0
 23  3  3  1 20 10.0000000  0 00 0.00,23.5,3.85,0
 23  3  3  2 20 10.0000000  0 00 0.00,23.5,3.85,0
 23  3  3  3 20 10.0000000  0 00 0.00,23.5,3.85,0
 23  3  3  4 20 10.0000000  0 00 0.00,23.5,3.85,0
 23  3  3  5 20 10.0000000  0 00 0.00,23.5,3.85,0
 23  3  3  6 20 10.0000000  0 00 0.00,23.5,3.85,0
 23  3  3  7 20 10.0000000  0 00 0.00,23.5,3.85,0
 23  3  3  8 20 10.0000000  0 00 0.00,23.5,3.85,0
 23  3  3  9 20 10.0000000  0 00 0.00,23.5,3.85,0
 23  3  3 10 20 10.0000000  0 00 0.00,23.5,3.85,0
 23  3  3 11 20 10.0000000  0 00 0.00,23.5,3.85,0
 23  3  3 12 20 10.0000000  0 00 0.00,23.5,3.85,0
 23  3  3 13 20 10.0000000  0 00 0.00,23.5,3.85,0
 23  3  3 14 20 10.0000000  0 00 0.00,23.5,3.85,0
 23  3  3 15 20 10.0000000  0 00 0.00,23.5,3.85,0
 23  3  3 16 20 10.0000000  0 00 0.00,23.5,3.85,0
 23  3  3 17 20 10.0000000  0 00 0.00,23.5,3.85,0
 23  3  3 18 20 10.0000000  0 00 0.00,24.0,3.85,0
 23  3  3 19 20 10.0000000  0 00 0.00,24.0,3.85,0
 23  3  3 20 20 10.0000000  0 00 0.00,23.5,3.85,0
 23  3  3 21 20 10.0000000  0 00 0.00,23.5,3.85,0
 23  3  3 22 20 10.0000000  0 00 0.00,24.0,3.85,0
 23  3  3 23 20 10.0000000  0 00 0.00,23.5,3.85,0
 23  3  4  0 20 10.0000000  0 00 0.00,23.0,3.85,0
 23  3  4  1 20 10.0000000  0 00 0.00,23.5,3.85,0
 23  3  4  2 20 10.0000000  0 00 0.00,23.5,3.85,0
 23  3  4  3 20 10.0000000  0 00 0.00,23.0,3.85,0
 23  3  4  4 20 10.0000000  0 00 0.00,23.0,3.85,0
 23  3  4  5 20 10.0000000  0 00 0.00,23.0,3.85,0
 23  3  4  6 20 10.0000000  0 00 0.00,23.0,3.85,0
 23  3  4  7 20 10.0000000  0 00 0.00,23.0,3.85,0
 23  3  4  8 20 10.0000000  0 00 0.00,23.0,3.85,0
 23  3  4  9 20 10.0000000  0 00 0.00,23.0,3.85,0
 23  3  4 10 20 10.0000000  0 00 0.00,23.0,3.85,0
 23  3  4 11 20 10.0000000  0 00 0.00,23.0,3.85,0
 23  3  4 12 20 10.0000000  0 00 0.00,23.0,3.85,0
 23  3  4 13 20 10.0000000  0 00 0.00,23.0,3.85,0
 23  3  4 14 20 10.0000000  0 00 0.00,23.0,3.85,0
 23  3  4 15 20 10.0000000  0 00 0.00,23.0,3.85,0
 23  3  4 16 20 10.0000000  0 00 0.00,23.0,3.85,0
 23  3  4 17 20 10.0000000  0 00 0.00,23.0,3.85,0
 23  3  4 18 20 10.0000000  0 00 0.00,22.5,3.85,0
 23  3  4 19 20 10.0000000  0 00 0.00,23.0,3.85,0
 23  3  4 20 20 10.0000000  0 00 0.00,22.5,3.85,0
 23  3  4 21 20 10.0000000  0 00 0.00,22.5,3.85,0
 23  3  4 22 20 10.0000000  0 00 0.00,23.0,3.85,0
 23  3  4 23 20 10.0000000  0 00 0.00,22.5,3.85,0
 23  3  5  0 20 10.0000000  0 00 0.00,23.0,3.85,0
 23  3  5  1 20 10.0000000  0 00 0.00,22.5,3.85,0
 23  3  5  2 30  5.0000000  0 07G02G11G12G15G20G25G29 4.99,16.5,3.85
  18389092.750
  23947253.250
  19393352.750
  19955747.250
  22799692.250
  18594080.750
  23431989.250
 23  3  5  3  0  7.0000000  0 07G02G11G13G15G20G25G29 4.99,15.0,3.85
  21578244.250
  22318531.750
  21788001.250
  22352062.250
  21162610.250
  23170460.750
  20479735.250
 23  3  5  3 30  5.0000000  0 06G05G13G15G18G25G29 5.00,14.0,3.85
  23554260.750
  18285462.750
  18473937.250
  20318507.250
  21451372.250
  23435011.750
 23  3  5  4  0 10.0000000  0 05G02G05G13G18G20 +5.000,13.0,3.85
  18993469.250
  19067451.750
  18751789.750
  20311332.750
  21025099.250
 23  3  5  4 30  5.0000000  0 06G02G13G15G18G23G29 4.24,12.0,3.85
  22163713.750
  22105008.250
  21274650.250
  22831025.250
  23839118.750
  22219068.250
 23  3  5  5  0  5.0000000  0 07G02G05G13G15G18G20G29 3.48,11.0,3.85
  20055827.750
  21913202.250
  20412226.750
  19032675.750
  19991944.750
  18102590.250
  20924482.750
 23  3  5  5 30  5.0000000  0 07G02G05G10G13G24G27G29 2.72,10.5,3.85
  22287038.750
  18802378.250
  18894022.750
  23184340.250
  18190313.750
  19397125.250
  17997158.250
 23  3  5  6  0  5.0000000  0 08G02G05G13G15G23G24G27G29 1.96,9.5,3.85
  22895428.750
  19829050.750
  18337338.250
  22054916.250
  22064395.750
  23294146.750
  18780079.250
  19324315.250
 23  3  5  6 30 11.0000000  0 04G02G15G24G32 +1.200,8.5,3.85
  21027678.250
  20332017.250
  19930211.750
  22210617.750
 23  3  5  7  0  5.0000000  0 07G10G15G18G23G24G27G32 1.17,8.0,3.85
  18878895.250
  20097109.750
  23839548.750
  23664223.750
  18282415.250
  20516767.750
  19932372.750
 23  3  5  7 30  6.0000000  0 06G10G15G18G23G24G27 1.14,7.5,3.85
  19945232.250
  22884179.250
  20263707.250
  19327383.750
  20016585.250
  22555240.750
 23  3  5  8  0  6.0000000  0 06G10G18G22G23G24G28 1.11,6.5,3.85
  19551937.250
  21387032.750
  21816209.750
  19604844.250
  20603867.250
  23042289.250
 23  3  5  8 30  5.0000000  0 08G10G18G21G23G24G28G31G32 1.08,6.0,3.85
  18933817.750
  22303998.250
  22956247.250
  19709962.250
  21158377.250
  21455543.750
  22508506.750
  19541691.750
 23  3  5  9  0  5.0000000  0 08G12G21G22G23G24G25G28G32 1.04,5.5,3.85
  21852739.750
  21599633.750
  19521284.750
  19695319.750
  21613150.750
  21305893.750
  19663083.750
  18665768.750
 23  3  5  9 30  5.0000000  0 08G01G10G12G21G23G25G31G32 1.01,5.0,3.85
  20459242.250
  23354163.250
  20457970.750
  20157958.250
  19544911.250
  19502274.750
  18349119.750
  23594334.250
 23  3  5 10  0  5.0000000  0 07G01G10G12G22G28G31G32 0.98,4.5,3.85
  18502133.250
  22522110.750
  19131164.750
  22441451.250
  21838443.250
  22138138.750
  22369256.750
 23  3  5 10 30  5.0000000  0 08G03G10G12G21G22G25G28G32 0.95,4.0,3.85
  18595979.750
  21654917.250
  23865528.250
  23256577.250
  20603202.750
  21938019.750
  19935845.750
  20949243.250
 23  3  5 11  0 10.0000000  0 07G10G21G22G25G26G31G32 +0.920,3.5,3.85
  22395229.250
  23409472.250
  20229225.250
  21963684.250
  22122294.250
  19452831.750
  21018315.250
 23  3  5 11 30  5.0000000  0 07G01G22G25G26G28G31G32 0.94,3.0,3.85
  19123939.250
  22395635.250
  18799216.750
  23123950.250
  22183128.250
  21727720.250
  23647837.250
 23  3  5 12  0  5.0000000  0 07G03G16G22G26G28G31G32 0.97,3.0,3.85
  20252457.750
  22015239.750
  19507444.750
  19182449.250
  19672587.250
  19089502.250
  21235181.750
 23  3  5 12 30  5.0000000  0 06G03G16G22G26G31G32 0.99,2.5,3.85
  23088178.750
  18012847.250
  23172138.750
  21981879.750
  23045226.750
  19367083.750
 23  3  5 13  0  5.0000000  0 08G03G04G16G22G26G28G31G32 1.02,2.5,3.85
  20204142.750
  21262353.750
  20080496.750
  20897568.750
  19060714.750
  21677730.250
  21008641.750
  23505556.250
 23  3  5 13 30 11.0000000  0 06G03G16G22G26G27G28 +1.040,3.0,3.85
  22284327.250
  21017924.250
  23368913.250
  21089910.750
  18909159.250
  18268781.250
 23  3  5 14  0 11.0000000  0 05G03G04G22G26G31 +1.600,8.0,3.85
  22644037.750
  21027197.250
  23947812.250
  21386593.750
  18164283.750
 23  3  5 14 30  5.0000000  0 07G03G07G08G09G27G28G31 1.60,11.0,3.85
  20072716.750
  20939439.750
  20369858.750
  18853112.250
  18770414.250
  22184470.750
  21553628.250
 23  3  5 15  0  6.0000000  0 06G07G08G09G16G26G27 1.60,14.0,3.85
  23169037.750
  22187836.250
  21063223.250
  20256450.750
  22818731.250
  20999419.750
 23  3  5 15 30 11.0000000  0 05G04G07G08G09G16 +1.600,17.0,3.85
  20228775.250
  22414364.250
  21193652.250
  20582851.750
  21027477.750
 23  3  5 16  0 11.0000000  0 05G04G07G09G16G27 +1.600,18.5,3.85
  20231205.750
  21026369.750
  19819135.250
  21331346.250
  20018409.250
 23  3  5 16 30 12.0000000  0 06G04G08G09G16G27G30 +1.600,17.5,3.85
  22695343.750
  21026401.250
  21613085.750
  23888884.750
  22005218.250
  18467418.250
 23  3  5 17  0  7.0000000  0 06G04G08G09G14G21G30 1.44,20.0,3.85
  21459780.250
  18713704.250
  19863195.750
  21994917.250
  21442474.750
  21056945.250
 23  3  5 17 30  5.0000000  0 07G01G04G07G09G13G14G30 1.28,24.0,3.85
  20765601.750
  21171601.750
  22973658.750
  19253993.250
  21821119.250
  19605979.250
  18579267.750
 23  3  5 18  0 11.0000000  0 07G01G07G08G09G13G17G27 +1.120,28.0,3.85
  20227760.250
  23524812.250
  19080266.750
  21018317.250
  21465957.250
  20642610.750
  21848693.750
 23  3  5 18 30 11.0000000  0 04G01G13G17G21 +1.600,31.5,3.85
  20638046.750
  22181826.250
  21025660.250
  20440517.750
 23  3  5 19  0 11.0000000  0 07G01G08G14G15G17G19G30 +1.160,34.5,3.85
  21820162.750
  18523271.250
  21640502.250
  19636663.750
  22094519.250
  24967621.250
  21018067.250
 23  3  5 19 30 11.0000000  0 07G08G13G14G17G19G21G30 +1.600,40.0,3.85
  19168802.250
  23279301.750
  20744477.250
  21025381.250
  23369531.250
  22673814.750
  20690420.250
 23  3  5 20  0  5.0000000  0 07G01G06G07G13G17G19G30 1.55,45.5,3.85
  23287879.750
  20576671.250
  19291450.250
  19781823.250
  22801809.250
  18515178.250
  23328926.750
 23  3  5 20 30  9.0000000  0 06G01G06G13G17G19G30 1.50,44.0,3.85
  19550740.250
  20920181.250
  22115641.250
  18368152.250
  19386045.250
  19859250.750
 23  3  5 21  0  5.0000000  0 06G06G14G17G19G24G30 1.45,42.5,3.85
  20257508.250
  18942335.750
  18976837.750
  19309275.250
  22322799.750
  21472192.750
 23  3  5 21 30 25.0000000  0 05G06G11G14G24G30 +1.400,39.5,3.85
  21264357.750
  24703306.750
  21380707.750
  23656259.750
  24672284.250
 23  3  5 22  0 22.0000000  0 02G17G19 +1.200,26.5,3.85
  22015344.750
  21141343.250
 23  3  5 22 30 11.0000000  0 05G03G11G14G17G19 +1.800,23.0,3.85
  21027060.750
  19523415.250
  20149564.750
  19052902.250
  23705387.750
 23  3  5 23  0 34.0000000  0 04G03G06G12G17 +1.600,23.5,3.85
  23611994.750
  19287344.250
  21948386.750
  21407327.750
 23  3  5 23 30 15.0000000  0 04G06G11G17G19 +1.800,23.0,3.85
  21026605.750
  21358287.250
  23418166.750
  21401834.750
 23  3  6  0  0 20.0000000  0 02G06G19 +1.600,23.0,3.85
  20754100.750
  21077938.750
 23  3  6  0 30 24.0000000  0 04G06G12G19G25 +1.400,22.0,3.85
  20708036.750
  19869060.750
  21021907.750
  21159844.750
 23  3  6  1  0 34.0000000  0 05G02G06G09G11G12 +1.600,21.5,3.85
  23077981.750
  21446876.750
  23199549.250
  19544858.750
  19954557.250
 23  3  6  1 30  6.0000000  0 08G02G05G11G12G19G20G25G29 1.30,16.0,3.85
  23562467.250
  20866381.250
  21042280.250
  21654891.250
  18037525.250
  20249439.250
  21747850.250
  23266151.250
 23  3  6  2  0 15.0000000  0 07G02G05G06G12G20G25G29 +1.000,14.0,3.85
  23697261.250
  21082403.750
  19053167.250
  23285292.250
  21219851.750
  22846222.750
  23009624.250
 23  3  6  2 30  6.0000000  0 06G02G05G11G20G25G29 1.10,14.0,3.85
  22339360.250
  20094875.750
  22052043.250
  20899697.250
  22714636.750
  21351537.750
 23  3  6  3  0  7.0000000  0 07G02G11G13G15G20G25G29 1.20,13.5,3.85
  19023136.250
  19915473.750
  19158816.750
  19677630.250
  18766770.750
  20796933.750
  23914670.250
 23  3  6  3 30  6.0000000  0 07G05G11G13G15G20G23G29 1.30,12.5,3.85
  20745774.750
  23584884.250
  21310298.250
  21437607.250
  22474698.250
  18397912.750
  20535504.250
 23  3  6  4  0 11.0000000  0 07G02G05G13G15G18G23G29 +1.400,12.5,3.85
  21018180.250
  21224114.250
  20779324.750
  20415294.750
  22258159.250
  23267119.250
  20493695.250
 23  3  6  4 30  6.0000000  0 06G02G05G13G15G18G29 1.47,13.0,3.85
  20168660.250
  21312075.250
  20154264.250
  19244414.250
  20746829.750
  20324304.250
 23  3  6  5  0  5.0000000  0 06G02G05G15G18G23G29 1.53,12.5,3.85
  23339986.250
  19309344.750
  22315256.250
  23179771.750
  18190676.750
  18325812.250
 23  3  6  5 30 13.0000000  0 07G02G10G13G15G18G24G29 +1.600,12.5,3.85
  22014459.250
  18460060.750
  23000095.750
  21057710.250
  21069468.750
  23701852.250
  23830605.750
 23  3  6  6  0  6.0000000  0 06G02G05G15G18G23G27 1.64,12.0,3.85
  23664401.750
  20644209.750
  22855334.750
  21956094.750
  22705542.750
  19404341.250
 23  3  6  6 30  9.0000000  0 07G10G13G15G18G23G24G32 1.68,12.5,3.85
  20754999.750
  23075680.250
  20475967.750
  18752472.250
  19101585.750
  19857137.250
  22069595.750
 23  3  6  7  0  5.0000000  0 07G02G10G18G23G24G27G32 1.72,12.5,3.85
  18846200.750
  22801439.750
  21924413.250
  21663386.750
  22266034.250
  18560670.750
  23811574.250
 23  3  6  7 30  7.0000000  0 07G10G18G22G23G24G27G32 1.76,11.5,3.85
  18803863.250
  19308838.250
  21422476.250
  18269247.750
  18987895.750
  21560367.250
  19611128.250
 23  3  6  8  0 14.0000000  0 07G10G22G23G24G28G31G32 +1.800,11.5,3.85
  21094834.250
  23291363.250
  21242341.750
  22303387.750
  18442805.750
  19623596.750
  21781899.250
 23  3  6  8 30  6.0000000  0 06G10G12G22G24G28G32 1.66,10.0,3.85
  22522407.750
  20689417.750
  18290559.750
  18921562.750
  18895875.750
  23118369.250
 23  3  6  9  0 11.0000000  0 07G10G22G23G25G28G31G32 +1.520,10.5,3.85
  21018294.250
  22275313.750
  22620574.250
  18001823.750
  22335556.750
  23180841.250
  21476356.250
 23  3  6  9 30  6.0000000  0 07G10G12G22G25G28G31G32 1.64,11.0,3.85
  20551821.750
  23583676.250
  21172149.250
  22558264.250
  20794248.750
  21368433.250
  20756201.250
 23  3  6 10  0  5.0000000  0 06G10G12G22G25G31G32 1.76,11.0,3.85
  23130157.750
  19690110.250
  22937701.250
  18176127.250
  22574481.250
  22920819.750
 23  3  6 10 30  5.0000000  0 06G01G21G22G28G31G32 1.88,11.0,3.85
  21158573.750
  21854880.750
  19138928.750
  18475807.750
  18444148.750
  19541085.750
 23  3  6 11  0 11.0000000  0 05G22G26G28G31G32 +2.000,11.0,3.85
  20179024.250
  21892902.750
  19694143.750
  19402819.750
  21025998.250
 23  3  6 11 30 14.0000000  0 07G03G21G22G26G28G31G32 +1.400,10.5,3.85
  23285566.750
  19522076.750
  21677712.750
  22235676.750
  21517880.750
  21032823.750
  22990756.750
 23  3  6 12  0  8.0000000  0 06G03G04G22G28G31G32 1.50,10.5,3.85
  20288005.750
  22758445.250
  19663139.750
  19884686.250
  19277054.750
  21449222.750
 23  3  6 12 30 12.0000000  0 07G03G04G16G22G26G29G32 +1.600,11.0,3.85
  22136889.750
  18018427.250
  22903730.750
  22314633.250
  21017910.250
  19903436.750
  18564471.250
 23  3  6 13  0 10.0000000  0 07G03G04G16G22G26G28G31 1.80,12.0,3.85
  18299981.250
  19210081.250
  18009545.750
  19056167.750
  23144989.250
  19868135.750
  19180164.750
 23  3  6 13 30 11.0000000  0 04G03G04G22G26 +2.000,13.0,3.85
  22223373.750
  21853279.750
  23346391.250
  21024846.750
 23  3  6 14  0 11.0000000  0 05G03G04G09G16G22 +2.000,14.5,3.85
  21024961.750
  19210408.750
  21526255.750
  18529078.250
  22351817.750
 23  3  6 14 30 11.0000000  0 06G03G04G09G16G27G31 +2.000,16.0,3.85
  24251220.750
  21024083.250
  22755917.250
  20867297.250
  22668585.750
  19696472.750
 23  3  6 15  0  9.0000000  0 06G04G07G08G09G16G27 2.10,18.0,3.85
  18415233.250
  21523690.250
  20499134.750
  19439091.250
  18812388.250
  19384346.750
 23  3  6 15 30 11.0000000  0 04G04G09G16G27 +2.200,19.0,3.85
  20779528.250
  21027435.250
  21636112.750
  21081288.750
 23  3  6 16  0 12.0000000  0 06G04G07G08G09G16G27 +1.400,21.5,3.85
  21315845.750
  21900985.250
  20744449.750
  20807460.250
  22448119.250
  21031328.750
 23  3  6 16 30 15.0000000  0 06G04G07G08G09G16G27 +1.800,23.0,3.85
  22921487.750
  21848248.250
  21091953.250
  21760180.750
  18124530.250
  22180007.250
 23  3  6 17  0 11.0000000  0 04G04G07G09G30 +2.200,24.0,3.85
  23817945.250
  21027028.250
  22171501.750
  23125835.250
 23  3  6 17 30 11.0000000  0 04G07G08G21G27 +2.200,25.5,3.85
  20236235.750
  21027700.750
  22271250.250
  23431950.250
 23  3  6 18  0 17.0000000  0 05G01G07G08G14G21 +1.600,27.0,3.85
  21976393.750
  19453444.250
  21127658.750
  21320381.250
  21047944.750
 23  3  6 18 30  5.0000000  0 06G01G07G08G14G21G30 1.90,26.0,3.85
  20584765.750
  19315457.250
  21728673.750
  20275999.250
  20514763.750
  19355679.250
 23  3  6 19  0 11.0000000  0 05G07G13G17G21G30 +2.200,26.0,3.85
  20793434.750
  22746173.750
  21026548.750
  21653390.250
  20043961.250
 23  3  6 19 30 12.0000000  0 04G07G14G17G19 +1.600,26.0,3.85
  22267151.250
  20771580.750
  21033662.750
  23289752.250
 23  3  6 20  0 11.0000000  0 05G01G13G14G21G30 +2.200,25.5,3.85
  20948885.250
  23460731.750
  20187686.750
  23418388.250
  21027187.750
 23  3  6 20 30 11.0000000  0 06G01G06G14G17G19G30 +2.200,24.0,3.85
  22455225.750
  23523946.750
  21026680.250
  21161331.750
  22079443.750
  22779690.750
 23  3  6 21  0 11.0000000  0 05G01G17G19G24G30 +2.200,24.5,3.85
  22957872.250
  20789326.250
  21026634.750
  18011697.250
  23413647.750
 23  3  6 21 30 11.0000000  0 04G06G11G14G19 +2.200,24.0,3.85
  21346701.750
  18729373.750
  21645600.750
  21026284.250
 23  3  6 22  0 11.0000000  0 05G03G06G11G17G19 +2.200,24.0,3.85
  21026659.250
  18000372.750
  20777562.250
  19024301.250
  18084354.250
 23  3  6 22 30  9.0000000  0 07G03G06G12G14G17G19G24 2.20,23.5,3.85
  22020284.250
  18313449.750
  22028752.750
  21209351.250
  20029908.750
  18631473.750
  21564548.250
 23  3  6 23  0 13.0000000  0 05G06G11G12G17G20 +2.200,21.5,3.85
  21062513.250
  22175448.250
  23562472.750
  23223963.250
  18479124.750
 23  3  6 23 30 11.0000000  0 05G06G11G12G19G20 +2.200,19.5,3.85
  20657319.250
  20870342.250
  21862639.750
  21026310.750
  22524381.250
 23  3  7  0  0  8.0000000  0 07G05G06G11G12G17G19G20 2.20,19.0,3.85
  18072197.250
  21309341.750
  20681112.250
  21315640.250
  23868915.250
  21628448.250
  21595659.250
 23  3  7  0 30  9.0000000  0 08G05G06G11G12G17G19G20G25 2.20,18.5,3.85
  20227408.750
  19458003.750
  18094043.250
  18513617.750
  22131867.750
  19777069.250
  18285128.250
  19732666.250
 23  3  7  1  0  5.0000000  0 08G02G05G06G12G19G20G25G29 2.20,16.0,3.85
  19682569.250
  23117776.750
  18238976.250
  22687570.750
  18658400.750
  21851918.250
  23300766.750
  19715455.250
 23  3  7  1 30  8.0000000  0 06G05G09G11G12G20G25 2.20,15.0,3.85
  20123074.750
  23965360.250
  20452444.250
  21110506.750
  19612467.750
  21124989.250
 23  3  7  2  0 11.0000000  0 07G02G05G06G11G12G15G29 +2.200,16.5,3.85
  21223083.250
  18640453.250
  22771517.750
  19950516.250
  21026143.250
  23323503.250
  20484020.250
 23  3  7  2 30  5.0000000  0 06G05G11G15G20G25G29 2.20,16.0,3.85
  21081161.750
  23123105.250
  18592761.250
  21965840.750
  23810215.750
  22233648.750
 23  3  7  3  0  5.0000000  0 06G02G05G11G15G18G29 2.20,13.5,3.85
  19832467.250
  18339424.250
  20885132.250
  20383602.750
  22088095.250
  18729545.250
 23  3  7  3 30 11.0000000  0 07G02G05G11G13G15G20G29 +2.200,15.5,3.85
  21024776.250
  20406221.750
  23280239.250
  20815215.750
  20879692.250
  22173327.250
  20108133.250
 23  3  7  4  0 11.0000000  0 07G05G11G13G18G20G23G29 +2.200,15.0,3.85
  21588312.250
  18687798.750
  21024766.250
  22404431.750
  23586395.250
  23407231.750
  20805426.750
 23  3  7  4 30  8.0000000  0 08G02G05G13G15G18G20G23G29 2.20,15.0,3.85
  23695494.250
  18967479.250
  23731368.750
  22744993.750
  18181429.250
  21092636.250
  19182783.750
  23961023.750
 23  3  7  5  0 11.0000000  0 04G02G15G23G29 +2.200,14.5,3.85
  22048381.250
  21024772.750
  22784038.750
  23152251.250
 23  3  7  5 30 11.0000000  0 07G02G10G13G15G18G24G27 +2.200,13.0,3.85
  22074542.250
  18353933.750
  23136418.250
  21135078.250
  21024187.750
  23562196.250
  18855528.250
 23  3  7  6  0 17.0000000  0 06G02G10G13G15G18G23 +1.800,13.5,3.85
  22230901.250
  23153958.250
  23817482.250
  21443833.250
  20419081.750
  21123751.250
 23  3  7  6 30  9.0000000  0 07G02G10G15G18G23G24G27 1.84,12.0,3.85
  19622133.250
  19015486.250
  18970057.750
  23145647.250
  23422815.750
  18146785.250
  20118635.750
 23  3  7  7  0  6.0000000  0 06G02G10G18G23G24G27 1.88,12.5,3.85
  23300165.250
  21025839.250
  20324869.750
  19965196.750
  20568702.750
  22904283.250
 23  3  7  7 30 10.0000000  0 07G10G18G22G23G24G27G32 1.92,12.0,3.85
  23373639.750
  18088327.250
  19934594.750
  22928995.750
  23683760.750
  20287032.750
  18166087.750
 23  3  7  8  0 10.0000000  0 06G10G18G23G24G28G32 1.96,11.0,3.85
  19093235.750
  21341472.250
  19336962.750
  20456156.250
  22309863.250
  19769198.250
 23  3  7  8 30 12.0000000  0 05G10G18G22G23G32 +2.000,10.5,3.85
  21037311.250
  18805224.250
  22734047.750
  22013249.250
  21619513.250
 23  3  7  9  0  5.0000000  0 06G10G12G22G23G28G32 2.03,10.5,3.85
  22839397.250
  20349966.750
  18022607.250
  18540787.250
  18016825.750
  23272223.250
 23  3  7  9 30 10.0000000  0 08G10G12G21G22G23G28G31G32 2.07,11.0,3.85
  19209124.250
  22170242.750
  21850061.750
  19726362.750
  21563447.750
  19301100.250
  19851306.750
  19366380.750
 23  3  7 10  0  5.0000000  0 07G01G10G21G22G25G28G32 2.10,10.5,3.85
  23551035.750
  21854020.750
  23896852.250
  21535587.250
  22769409.750
  20886076.750
  21575233.750
 23  3  7 10 30  5.0000000  0 07G10G21G22G25G28G31G32 2.13,9.5,3.85
  18866590.750
  20319186.250
  23531909.750
  18942447.250
  22881739.750
  22817070.750
  17996977.750
 23  3  7 11  0  7.0000000  0 06G01G21G22G25G31G32 2.17,9.0,3.85
  21063807.750
  22042394.250
  18708143.750
  20595150.250
  23933409.250
  19615318.250
 23  3  7 11 30 12.0000000  0 04G03G22G26G32 +2.200,9.0,3.85
  22505473.750
  21039794.250
  21447560.750
  22415138.750
 23  3  7 12  0 14.0000000  0 04G03G22G26G31 +2.600,9.0,3.85
  21582752.250
  21083338.750
  20487574.250
  20725263.750
 23  3  7 12 30 11.0000000  0 07G04G16G22G26G28G31G32 +2.400,8.5,3.85
  21024066.250
  19883263.250
  19527122.250
  18132683.250
  20138115.750
  19447231.250
  21828669.750
 23  3  7 13  0 11.0000000  0 05G03G16G22G26G31 +2.400,8.5,3.85
  21471168.250
  21023674.250
  22291526.750
  20315441.750
  22416975.750
 23  3  7 13 30 10.0000000  0 05G03G04G16G22G26 +2.400,10.0,3.85
  19863032.750
  19303456.750
  18285223.250
  21024620.250
  18657835.750
 23  3  7 14  0 10.0000000  0 06G03G04G09G16G26G31 +2.600,10.0,3.85
  23656765.750
  21644607.750
  23888380.250
  21027591.750
  22384222.250
  19143744.250
 23  3  7 14 30 13.0000000  0 07G03G04G08G09G16G26G27 +2.600,9.5,3.85
  22810775.250
  19404083.250
  22463863.750
  21044019.750
  19326391.750
  21469515.750
  20957744.750
 23  3  7 15  0 13.0000000  0 06G04G07G08G09G16G27 +2.200,11.5,3.85
  20162369.250
  23138334.250
  22074336.250
  21080712.750
  20634796.250
  21037241.250
 23  3  7 15 30 10.0000000  0 04G04G08G16G27 +2.600,12.0,3.85
  20809955.250
  21407680.750
  21720817.750
  21026908.750
 23  3  7 16  0  6.0000000  0 06G04G07G08G09G16G27 2.50,12.5,3.85
  23257693.750
  23631116.750
  22511195.750
  22655601.250
  18420941.750
  22905460.750
 23  3  7 16 30 18.0000000  0 05G04G08G09G27G30 +2.400,14.5,3.85
  21906241.750
  19919674.750
  20668326.750
  21115283.750
  23091387.750
 23  3  7 17  0  9.0000000  0 08G04G07G08G09G14G16G27G30 2.50,17.0,3.85
  20361197.750
  23339496.750
  23379129.250
  18665155.750
  20329692.750
  21431553.250
  19289529.750
  19370359.750
 23  3  7 17 30 11.0000000  0 04G08G09G21G30 +2.600,15.0,3.85
  21026517.250
  22732386.750
  22085456.750
  21538088.750
 23  3  7 18  0 10.0000000  0 06G08G09G14G17G21G30 2.60,16.0,3.85
  21472335.250
  23458588.250
  21447167.750
  22469022.750
  21226798.750
  20401080.250
 23  3  7 18 30  5.0000000  0 06G01G07G13G14G17G30 2.60,14.5,3.85
  23235587.750
  22145408.250
  18895213.250
  22960416.750
  23611377.750
  22074481.250
 23  3  7 19  0 10.0000000  0 04G07G14G17G21 +2.600,14.0,3.85
  21026052.250
  20667932.750
  21060048.250
  21842252.750
 23  3  7 19 30 21.0000000  0 04G01G07G14G30 +2.600,15.0,3.85
  21133849.250
  22464767.250
  20771871.750
  20910604.750
 23  3  7 20  0 15.0000000  0 04G01G14G17G30 +2.600,15.5,3.85
  21868799.750
  21025172.250
  21209126.750
  21988899.750
 23  3  7 20 30 11.0000000  0 05G01G14G17G19G21 +2.600,14.5,3.85
  21609582.250
  20079140.250
  20203112.750
  21024867.750
  24575887.750
 23  3  7 21  0 11.0000000  0 06G01G06G14G17G19G30 +2.200,14.5,3.85
  23314750.750
  21943272.250
  21026852.750
  21018219.250
  21165293.250
  23780775.250
 23  3  7 21 30 12.0000000  0 06G01G03G06G14G17G19 +2.800,15.0,3.85
  18024039.250
  23035195.250
  20556111.750
  21047265.750
  20771667.750
  20300646.750
 23  3  7 22  0 13.0000000  0 05G06G14G17G19G24 +2.600,14.5,3.85
  21024683.250
  22860779.750
  22159271.250
  21151646.250
  23918201.750
 23  3  7 22 30 11.0000000  0 05G03G06G11G17G19 +2.600,14.5,3.85
  23036941.250
  19234668.750
  21117725.750
  21024891.750
  19572183.250
 23  3  7 23  0 15.0000000  0 04G06G12G19G20 +2.600,14.0,3.85
  21024570.250
  23345589.750
  21420549.750
  18239478.750
 23  3  7 23 30 13.0000000  0 05G06G11G12G17G20 +2.600,13.0,3.85
  21024487.750
  21117090.250
  22053257.750
  23460861.750
  22673704.250
 23  3  8  0  0 11.0000000  0 07G05G06G11G17G19G20G25 +2.240,13.0,3.85
  23183644.250
  20703025.250
  19965597.750
  23275389.750
  21018315.250
  20777934.250
  22254557.750
 23  3  8  0 30  6.0000000  0 07G05G06G11G12G19G20G25 2.52,12.0,3.85
  21802783.750
  21300614.750
  19846080.250
  20252074.750
  21627457.250
  19947862.750
  21393715.750
 23  3  8  1  0 11.0000000  0 06G02G05G11G12G20G25 +2.800,12.0,3.85
  23622592.750
  21026698.750
  20349613.250
  20792370.750
  19865848.250
  21320342.750
 23  3  8  1 30 10.0000000  0 08G05G06G09G11G12G19G20G25 2.64,11.5,3.85
  19115830.250
  22104994.250
  23108951.250
  19593968.250
  20301977.250
  22781971.250
  18710694.750
  20238854.750
 23  3  8  2  0  9.0000000  0 06G02G05G12G13G20G29 2.48,10.5,3.85
  23369840.250
  20825373.250
  23391867.250
  18438053.750
  21153031.250
  22580945.250
 23  3  8  2 30 11.0000000  0 07G02G05G11G13G15G20G29 +2.320,10.5,3.85
  22065500.250
  19974050.750
  22097980.750
  22556624.750
  23290152.750
  20937511.750
  21017900.750
 23  3  8  3  0  7.0000000  0 07G02G05G11G13G15G20G29 2.33,11.5,3.85
  20536841.250
  19155285.250
  21752706.250
  20561418.250
  20985037.250
  20611373.250
  19440908.750
 23  3  8  3 30  8.0000000  0 06G05G11G13G15G20G29 2.34,12.0,3.85
  23417368.250
  20327037.250
  23679683.750
  23681874.750
  19222533.250
  23038647.750
 23  3  8  4  0 10.0000000  0 06G02G05G13G15G20G29 2.34,12.0,3.85
  20247490.750
  20719216.250
  20043447.250
  19534103.750
  22734821.750
  19889778.250
 23  3  8  4 30  5.0000000  0 06G02G05G13G15G23G29 2.35,11.5,3.85
  21596439.750
  22983867.750
  21685467.250
  20624371.250
  22983450.750
  21972773.750
 23  3  8  5  0 11.0000000  0 07G02G10G13G15G18G23G29 +2.360,11.0,3.85
  20440730.750
  23717097.750
  21018478.750
  19421194.250
  20068920.250
  21066457.250
  21663818.750
 23  3  8  5 30  8.0000000  0 07G02G10G13G15G18G24G29 2.57,10.5,3.85
  20574400.250
  22680554.250
  21711437.750
  19653380.750
  19419667.250
  21861823.250
  22603642.750
 23  3  8  6  0  9.0000000  0 08G02G10G13G15G18G23G24G27 2.79,11.5,3.85
  18238525.250
  18969084.750
  19886124.250
  23467469.250
  22328483.750
  22988002.750
  18015061.750
  19657451.750
 23  3  8  6 30 13.0000000  0 07G02G10G18G23G24G27G32 +3.000,11.5,3.85
  23617898.250
  22785729.250
  21065104.250
  21265174.750
  21953272.250
  23978299.750
  18014162.250
 23  3  8  7  0 10.0000000  0 07G10G15G18G23G24G27G32 2.92,12.5,3.85
  22499068.750
  18432320.250
  21980743.250
  21518550.250
  22127940.750
  18511572.750
  23446541.250
 23  3  8  7 30  8.0000000  0 06G10G15G18G23G27G32 2.84,12.5,3.85
  18341464.250
  21954492.750
  19255345.250
  23982122.750
  21402810.250
  19112404.250
 23  3  8  8  0  6.0000000  0 07G10G22G23G24G27G28G32 2.76,11.5,3.85
  20227763.750
  22305594.750
  20568589.750
  21747934.750
  18444150.750
  23314766.250
  20892742.750
 23  3  8  8 30 10.0000000  0 07G10G21G22G23G24G31G32 2.68,11.5,3.85
  22550915.750
  20330395.750
  18185270.750
  23627358.750
  19288162.750
  19688646.750
  23118707.750
 23  3  8  9  0 14.0000000  0 07G10G21G22G23G28G31G32 +2.600,12.5,3.85
  19279305.750
  22442763.250
  20372929.250
  21076075.250
  20299106.750
  21116482.250
  19682744.250
 23  3  8  9 30  5.0000000  0 07G10G21G22G23G28G31G32 2.80,11.0,3.85
  22042382.250
  18605787.250
  22456963.750
  18481246.750
  21989573.250
  22515461.750
  22151079.250
 23  3  8 10  0 11.0000000  0 06G10G21G22G25G28G31 +3.000,10.0,3.85
  21027497.250
  22986479.250
  20576297.250
  21815278.750
  19913381.250
  20118856.250
 23  3  8 10 30  7.0000000  0 07G10G21G22G25G28G31G32 3.00,10.0,3.85
  21070611.750
  22442206.750
  19589189.250
  21042444.250
  18956040.750
  18857163.750
  20109805.750
 23  3  8 11  0  7.0000000  0 08G01G03G21G22G25G26G28G31 3.00,9.5,3.85
  23644217.750
  23634799.750
  18645543.250
  21227344.250
  23198206.250
  22618206.250
  20819176.250
  20464621.750
 23  3  8 11 30 11.0000000  0 07G21G22G25G26G28G31G32 +3.000,9.5,3.85
  19020727.750
  21026358.250
  23748230.250
  21285726.250
  20968325.750
  20427140.250
  22464334.750
 23  3  8 12  0 11.0000000  0 05G03G22G26G28G31 +3.000,9.0,3.85
  21025755.750
  20643838.250
  19925580.750
  20967393.750
  20311173.250
 23  3  8 12 30 11.0000000  0 04G04G22G28G31 +3.000,9.0,3.85
  22379423.250
  21089576.750
  21738221.250
  21025978.750
 23  3  8 13  0  5.0000000  0 07G03G04G16G22G26G28G31 2.70,9.0,3.85
  21091571.250
  21683901.750
  20491227.250
  21970834.750
  19930989.250
  22821288.750
  22093609.250
 23  3  8 13 30 18.0000000  0 06G03G16G22G26G27G31 +2.400,10.5,3.85
  21143109.250
  19408331.750
  22341346.250
  19930349.750
  23007050.750
  22518637.750
 23  3  8 14  0 10.0000000  0 07G03G04G16G22G26G27G31 2.53,9.5,3.85
  19648809.750
  23435328.750
  22885916.250
  21018245.750
  18367968.750
  19539134.750
  21107984.750
 23  3  8 14 30  6.0000000  0 07G03G04G08G09G16G26G27 2.67,9.5,3.85
  22052279.750
  18477422.250
  21398510.750
  20026962.750
  18476464.750
  20705365.750
  19942652.750
 23  3  8 15  0 12.0000000  0 05G07G09G16G26G27 +2.800,9.5,3.85
  23095281.250
  21069627.250
  20799996.250
  23540946.750
  21038324.750
 23  3  8 15 30  6.0000000  0 06G04G07G08G09G16G27 2.93,10.0,3.85
  21934407.750
  23588262.250
  22350494.250
  21973454.750
  22895479.250
  22069263.750
 23  3  8 16  0 18.0000000  0 06G04G07G08G09G16G27 3.07,11.5,3.85
  22044400.250
  22186922.750
  21112097.750
  21344156.750
  23227540.750
  21621976.750
 23  3  8 16 30 11.0000000  0 05G04G07G08G09G27 +3.200,12.0,3.85
