     2.00           OBSERVATION DATA    G(GPS)              RINEX VERSION / TYPE
goGPS-java                              17-Apr-24 13:54:22  PGM / RUN BY / DATE
                                                            MARKER NAME
                                                            MARKER NUMBER
                    Lotek Wireless Inc.                     OBSERVER / AGENCY
7                                                           REC # / TYPE / VERS
                                                            ANT # / TYPE
    73993.0000 -5057250.0000  3872763.0000                  APPROX POSITION XYZ
        0.0000        0.0000        0.0000                  ANTENNA: DELTA H / E / N
     2     0                                                WAVELENGTH FACT L1/2
     1    C1                                                # / TYPES OF OBSERV
  2023     3     6     3    21   33.0000000     UTC         TIME OF FIRST OBS
                                                            END OF HEADER
 23  3  6  3 30 13.0000000  0 00 0.13,24.0,3.90
 23  3  6  4  0 11.0000000  0 07G02G05G13G15G18G20G29 +0.600,15.0,3.90
  21543842.250
  21748916.750
  21310929.250
  20950138.250
  22780008.750
  23728368.250
  21024889.250
 23  3  6  4 30 11.0000000  0 05G05G15G18G20G29 +0.600,13.5,3.90
  22004570.750
  19940595.250
  21431945.250
  18129085.250
  21025023.250
 23  3  6  5  0  5.0000000  0 06G02G05G13G15G18G23 0.57,13.0,3.90
  20450297.250
  22411414.750
  20875685.250
  19424286.750
  20283353.750
  21291876.750
 23  3  6  5 30  5.0000000  0 07G02G05G13G18G23G27G29 0.54,13.0,3.90
  19543458.250
  22128381.750
  20517075.250
  18594745.250
  19542141.250
  22479693.250
  21360309.250
 23  3  6  6  0  5.0000000  0 08G02G05G10G13G18G24G27G32 0.51,13.0,3.90
  18854383.250
  21824350.750
  19970479.750
  20359329.750
  23135201.250
  19046613.250
  20574703.750
  21687001.750
 23  3  6  6 30  5.0000000  0 08G08G10G15G18G23G24G27G32 0.49,12.5,3.90
  20917654.250
  17994398.250
  23708999.750
  21994242.750
  22336919.750
  23103766.250
  19013017.750
  19320838.750
 23  3  6  7  0  6.0000000  0 07G10G15G18G23G24G27G32 0.46,12.5,3.90
  21773003.750
  23227987.750
  20908360.250
  20637881.250
  21246785.750
  23528954.250
  22792243.750
 23  3  6  7 30  9.0000000  0 07G08G10G18G22G23G27G32 0.43,13.0,3.90
  23476817.250
  19926019.250
  20446017.750
  22553186.250
  19396098.750
  22685632.250
  20739538.250
 23  3  6  8  0  7.0000000  0 06G10G21G22G24G27G32 0.40,12.5,3.90
  18057443.750
  22591491.250
  20261200.750
  19262412.250
  21958073.750
  18747778.750
 23  3  6  8 30  5.0000000  0 07G10G12G22G24G25G28G32 0.37,12.0,3.90
  22187749.250
  20362053.250
  23953391.750
  18583089.250
  20074306.250
  18573061.750
  22782880.750
 23  3  6  9  0  6.0000000  0 07G10G12G21G22G24G28G32 0.34,11.0,3.90
  20380531.750
  23966135.750
  23707426.250
  21636010.250
  23963644.750
  21707646.750
  20834600.250
 23  3  6  9 30  6.0000000  0 06G10G21G23G28G31G32 0.31,10.5,3.90
  18507714.250
  21223666.250
  20780653.750
  18751794.250
  19327764.250
  18704582.250
 23  3  6 10  0  5.0000000  0 06G10G22G23G28G31G32 0.29,10.0,3.90
  22637865.250
  22434861.250
  19460933.750
  21809683.250
  22080518.250
  22419047.750
 23  3  6 10 30  8.0000000  0 07G01G10G21G22G28G31G32 0.26,9.0,3.90
  21688959.250
  20868623.250
  22389597.750
  19670982.750
  19012153.250
  18981910.250
  20076193.750
 23  3  6 11  0  8.0000000  0 08G01G03G21G22G25G28G31G32 0.23,9.0,3.90
  20197230.750
  20607262.750
  21157608.250
  23895454.250
  19707426.750
  23411211.250
  23121785.750
  18749040.750
 23  3  6 11 30 13.0000000  0 05G10G22G25G26G32 +0.200,8.5,3.90
  23229086.750
  19736209.750
  22241237.250
  20305775.250
  21052917.750
 23  3  6 12  0  7.0000000  0 06G04G16G26G28G31G32 0.40,8.0,3.90
  20769708.250
  19956844.750
  23219433.750
  23894233.750
  23286905.250
  19471266.750
 23  3  6 12 30 14.0000000  0 06G04G22G26G28G29G31 +0.600,8.0,3.90
  22765165.750
  21077636.250
  19781022.750
  21642878.250
  18660487.250
  20972807.750
 23  3  6 13  0  8.0000000  0 07G03G16G22G26G28G29G31 0.50,7.5,3.90
  22775314.250
  22494509.750
  23536935.250
  21626271.750
  18345432.250
  20468849.750
  23652566.250
 23  3  6 13 30 13.0000000  0 05G03G04G16G22G31 +0.400,8.5,3.90
  19927150.750
  19548266.750
  18504880.750
  21055921.750
  21269205.750
 23  3  6 14  0 13.0000000  0 05G03G04G09G16G31 +0.800,11.0,3.90
  19524825.750
  23703889.250
  20022691.250
  23024026.750
  21026456.750
 23  3  6 14 30  9.0000000  0 08G04G07G08G09G16G26G27G31 0.80,13.5,3.90
  20870088.750
  18707198.250
  18075105.250
  22603149.750
  20712437.250
  22760257.250
  22516139.250
  19540862.750
 23  3  6 15  0 11.0000000  0 05G07G08G09G16G27 +0.800,15.0,3.90
  23735884.250
  22711387.750
  21651590.250
  21026226.750
  21597339.250
 23  3  6 15 30 10.0000000  0 07G04G07G08G09G16G26G27 0.80,17.5,3.90
  18412825.750
  20426075.750
  19196737.750
  18660813.250
  19267953.750
  22239381.250
  18715669.750
 23  3  6 16  0 11.0000000  0 06G04G07G08G09G16G27 +0.800,22.0,3.90
  21534626.750
  22119574.750
  20964384.250
  21026015.250
  22665873.750
  21250097.250
 23  3  6 16 30  7.0000000  0 07G04G07G08G09G16G27G30 0.80,23.0,3.90
  23010594.250
  21945075.750
  21186773.250
  21851691.250
  18213059.250
  22270408.250
  18503522.750
 23  3  6 17  0 12.0000000  0 07G04G07G08G09G14G27G30 +0.800,24.0,3.90
  23888261.250
  21096572.750
  21026184.250
  22241377.750
  18145128.250
  22842775.250
  23194907.250
 23  3  6 17 30 10.0000000  0 07G07G08G09G14G21G27G30 0.80,24.0,3.90
  22584650.250
  23374659.250
  19034963.750
  19139725.250
  18625419.250
  19782046.750
  18105671.750
 23  3  6 18  0 11.0000000  0 07G01G07G08G09G14G21G30 +0.800,25.5,3.90
  21884216.250
  19355958.250
  21026664.750
  22984742.750
  21224964.750
  20952499.750
  20171767.750
 23  3  6 18 30  6.0000000  0 07G01G07G08G14G17G21G30 0.85,26.0,3.90
  19314922.750
  18045069.250
  20457468.750
  19004622.250
  19698398.750
  19244333.750
  18084660.250
 23  3  6 19  0  8.0000000  0 06G01G07G13G14G21G30 0.90,26.0,3.90
  19174740.750
  19189725.750
  21143209.250
  19007154.250
  20049910.750
  18441584.250
 23  3  6 19 30 12.0000000  0 06G01G07G13G17G21G30 0.95,25.5,3.90
  19656013.250
  20836022.750
  21953419.750
  19602491.750
  21419598.250
  19374726.250
 23  3  6 20  0 11.0000000  0 06G01G13G14G19G21G30 +1.000,25.5,3.90
  21790644.750
  18305898.250
  21029558.750
  22829348.750
  18263652.250
  21869129.750
 23  3  6 20 30 11.0000000  0 04G01G14G17G19 +0.800,24.5,3.90
  21400807.750
  19973050.750
  20107351.250
  21025993.750
 23  3  6 21  0 11.0000000  0 04G06G14G17G19 +0.800,24.5,3.90
  21025924.750
  19914213.750
  19930499.750
  20168202.750
 23  3  6 21 30 11.0000000  0 05G06G11G14G17G19 +0.800,24.5,3.90
  20957509.250
  18340630.750
  21255603.250
  21026464.250
  20635931.750
 23  3  6 22  0 11.0000000  0 06G03G06G11G14G17G19 +0.800,23.5,3.90
  18055918.250
  21026225.250
  23804212.250
  22681881.750
  22049165.750
  21109318.750
 23  3  6 22 30 18.0000000  0 04G11G14G17G19 +0.400,25.0,3.90
  22768563.250
  23675300.750
  22492280.250
  21091718.750
 23  3  6 23  0 18.0000000  0 04G06G11G19G24 +0.400,24.0,3.90
  21146501.750
  22258063.250
  21541218.750
  18814253.250
 23  3  6 23 30 13.0000000  0 06G06G11G12G17G19G20 +0.800,21.0,3.90
  20657124.250
  20870041.750
  21861547.750
  23072622.250
  21026486.750
  22524865.750
 23  3  7  0  0 10.0000000  0 04G06G11G19G20 +0.800,17.5,3.90
  21655215.250
  21026574.750
  21974990.750
  21941698.250
 23  3  7  0 30  8.0000000  0 06G06G11G12G17G19G20 0.80,16.0,3.90
  20397675.250
  19034526.750
  19454331.250
  23072636.750
  20717630.250
  19227438.250
 23  3  7  1  0 11.0000000  0 05G06G11G12G19G20 +0.800,15.0,3.90
  22998029.750
  21026384.250
  21449807.750
  23418977.750
  20612564.750
 23  3  7  1 30  9.0000000  0 07G02G05G11G12G19G20G25 0.80,13.0,3.90
  20767896.250
  18065911.250
  18394265.250
  19052920.250
  21484815.750
  23550557.750
  19066796.750
 23  3  7  2  0  7.0000000  0 06G02G05G11G12G25G29 0.80,14.5,3.90
  19126605.750
  22539941.750
  23846901.250
  18925876.250
  18424154.750
  18388530.750
 23  3  7  2 30  5.0000000  0 07G02G05G11G13G20G25G29 0.80,13.0,3.90
  21994018.750
  19822491.250
  21864148.750
  22564360.750
  20706555.750
  22551093.750
  20974963.250
 23  3  7  3  0  8.0000000  0 07G02G05G11G13G20G25G29 0.80,12.5,3.90
  21866072.750
  20374171.750
  22920777.250
  21945974.250
  21774945.250
  23835575.750
  20763516.250
 23  3  7  3 30  5.0000000  0 07G02G05G11G13G15G20G29 0.80,13.0,3.90
  20061006.250
  19438566.750
  22312350.750
  19853366.750
  19920076.250
  21204489.750
  19143438.750
 23  3  7  4  0  5.0000000  0 08G02G05G11G15G18G20G23G29 0.80,13.5,3.90
  18740252.750
  19075521.750
  22171188.750
  18082447.250
  19898008.750
  21073074.750
  20901717.750
  18294860.750
 23  3  7  4 30 10.0000000  0 06G02G05G13G15G23G29 0.80,13.0,3.90
  23740170.750
  19012222.750
  23776247.750
  22790023.750
  19226872.250
  18010762.250
 23  3  7  5  0 11.0000000  0 06G02G10G13G15G23G29 0.80,12.0,3.90
  20313345.250
  23733690.750
  20816374.750
  19289474.250
  21048772.750
  21416862.250
 23  3  7  5 30 10.0000000  0 07G02G10G13G15G18G23G29 0.80,11.5,3.90
  21081038.250
  23356877.250
  22141035.750
  20140626.750
  20030933.750
  20960924.750
  23004530.250
 23  3  7  6  0 11.0000000  0 07G02G10G15G18G23G24G27 0.80,11.0,3.90
  19780991.250
  20708296.750
  18992138.750
  23967114.250
  18676571.250
  19762019.750
  21353659.250
 23  3  7  6 30  9.0000000  0 07G02G10G15G18G23G24G32 0.80,10.5,3.90
  22401465.250
  21794083.750
  21748002.750
  19928849.250
  20205543.750
  20926866.250
  23064598.750
 23  3  7  7  0 11.0000000  0 05G02G15G23G24G27 +0.800,11.0,3.90
  18368377.250
  23778251.250
  21025486.750
  21629655.250
  23964932.750
 23  3  7  7 30 11.0000000  0 06G10G18G22G23G24G32 +0.360,10.0,3.90
  21018047.250
  21729381.250
  23575583.250
  20573674.250
  21328467.750
  21806811.250
 23  3  7  8  0  6.0000000  0 06G10G18G23G27G28G32 0.43,9.5,3.90
  21489570.750
  23734277.250
  21731662.750
  19548118.250
  18714300.750
  22165901.750
 23  3  7  8 30 10.0000000  0 08G10G18G22G23G24G28G31G32 0.51,10.5,3.90
  18755168.750
  22517121.250
  20452771.250
  19730170.250
  21319573.250
  20982352.250
  22035633.250
  19337420.250
 23  3  7  9  0  5.0000000  0 08G10G21G22G23G25G28G31G32 0.58,9.0,3.90
  22338717.750
  19593619.750
  23517793.750
  18040031.250
  19197237.250
  23513256.750
  18351129.750
  22771232.750
 23  3  7  9 30  5.0000000  0 07G01G10G21G22G23G31G32 0.65,9.5,3.90
  22484591.750
  19684570.250
  22326567.750
  20203623.750
  22037118.250
  20331665.750
  19842335.750
 23  3  7 10  0  9.0000000  0 07G01G10G12G21G25G28G31 0.73,9.0,3.90
  23078628.750
  21384653.750
  23882772.250
  23425380.750
  22298494.750
  20414663.250
  20652780.750
 23  3  7 10 30 11.0000000  0 05G10G22G28G31G32 +0.800,9.5,3.90
  23073850.750
  21739133.750
  21089597.750
  21024236.750
  22201643.750
 23  3  7 11  0  8.0000000  0 07G10G21G22G25G28G31G32 0.87,8.0,3.90
  23727385.750
  18597581.250
  21259534.750
  23146559.250
  20811356.250
  20489000.750
  22167046.750
 23  3  7 11 30  6.0000000  0 06G03G22G26G28G31G32 0.93,8.5,3.90
  21543545.250
  20074355.750
  20487498.250
  19963110.750
  19450766.750
  21448185.750
 23  3  7 12  0 11.0000000  0 06G01G03G16G26G28G32 +1.000,8.5,3.90
  18244208.750
  21255561.250
  22785342.750
  20161789.750
  21027611.250
  22603539.250
 23  3  7 12 30 10.0000000  0 06G03G22G26G28G31G32 1.00,8.0,3.90
  17988203.250
  18259451.250
  22861749.750
  18869406.750
  18178495.250
  20560728.750
 23  3  7 13  0 19.0000000  0 04G03G16G28G31 +1.000,8.5,3.90
  21477351.250
  21026545.750
  23133292.750
  22425476.250
 23  3  7 13 30  8.0000000  0 07G03G09G16G22G26G27G31 0.87,8.0,3.90
  20088198.750
  22230128.750
  18513082.250
  21250044.750
  18883060.250
  22218971.750
  21450827.750
 23  3  7 14  0  9.0000000  0 06G03G04G16G26G27G31 0.73,8.5,3.90
  21690716.750
  19680372.250
  19063080.250
  20417925.250
  21862207.750
  23173588.250
 23  3  7 14 30 13.0000000  0 07G03G04G07G09G16G26G27 +0.600,9.0,3.90
  18464886.250
  21054910.250
  18809562.250
  22695036.250
  20976681.250
  23118951.750
  22610222.250
 23  3  7 15  0 11.0000000  0 05G04G07G16G26G27 +1.000,11.5,3.90
  20149530.250
  23126382.750
  20620768.250
  23307003.750
  21026046.250
 23  3  7 15 30  8.0000000  0 06G04G07G08G09G16G27 0.85,12.0,3.90
  20689583.750
  22526428.750
  21290661.250
  20833036.250
  21599094.250
  20907896.250
 23  3  7 16  0  8.0000000  0 06G04G07G08G09G16G27 0.70,13.5,3.90
  20192522.750
  20564382.750
  19445605.750
  19589645.250
  21350897.750
  19839664.750
 23  3  7 16 30 18.0000000  0 07G04G07G08G09G16G27G30 0.55,15.0,3.90
  22381561.750
  21070803.750
  20395791.250
  21143717.250
  23580452.750
  21590205.750
  23567575.250
 23  3  7 17  0 13.0000000  0 07G04G07G08G09G21G27G30 +0.400,14.5,3.90
  24071055.250
  21050314.250
  21091319.250
  22374100.750
  23472164.250
  22998077.750
  23075831.250
 23  3  7 17 30 12.0000000  0 05G07G14G21G27G30 +1.200,14.5,3.90
  19621227.250
  22089669.750
  21595401.750
  23006445.250
  21046603.250
 23  3  7 18  0  6.0000000  0 07G01G08G09G14G17G21G30 1.16,14.0,3.90
  22514844.750
  21929948.250
  23916336.250
  21909349.750
  22933422.250
  21688966.750
  20863235.250
 23  3  7 18 30  8.0000000  0 06G07G08G14G17G21G30 1.12,14.5,3.90
  21953555.250
  18453399.250
  22766591.250
  23418059.250
  23100429.750
  21881266.750
 23  3  7 19  0  6.0000000  0 06G01G13G14G19G21G30 1.08,15.5,3.90
  21882410.750
  23899373.250
  21712306.750
  18843380.750
  22884127.250
  21214181.750
 23  3  7 19 30  8.0000000  0 07G01G07G13G17G19G21G30 1.04,16.5,3.90
  21551926.750
  22874906.750
  23886071.250
  21442504.250
  23613523.750
  23423049.250
  21325308.250
 23  3  7 20  0 11.0000000  0 05G01G14G17G21G30 +1.000,15.5,3.90
  21683894.750
  20841866.750
  21025775.250
  18234713.750
  21803574.750
 23  3  7 20 30 11.0000000  0 04G14G17G19G30 +1.000,15.0,3.90
  20079429.750
  20202923.750
  21025221.750
  21959536.250
 23  3  7 21  0 20.0000000  0 05G01G06G14G17G19 +0.400,15.0,3.90
  23469904.250
  22090510.250
  21179699.750
  21169444.750
  21313721.250
 23  3  7 21 30 19.0000000  0 06G03G06G14G17G19G24 +0.400,15.5,3.90
  23148244.250
  20667455.750
  21162619.750
  20885145.250
  20412291.250
  23170613.750
 23  3  7 22  0  9.0000000  0 06G06G11G14G17G19G24 0.60,15.5,3.90
  18555565.750
  21240019.250
  20388244.750
  19687380.250
  18680961.750
  21446614.750
 23  3  7 22 30 15.0000000  0 04G06G11G12G17 +0.800,15.0,3.90
  23479429.250
  19365731.250
  21039206.250
  19274741.750
 23  3  7 23  0  9.0000000  0 06G06G11G12G17G19G20 0.83,14.5,3.90
  21512486.250
  22505899.250
  23838334.250
  23715550.750
  21908658.250
  18735062.750
 23  3  7 23 30 12.0000000  0 06G06G11G12G17G19G20 0.86,12.0,3.90
  20811275.250
  20905257.250
  21841462.750
  23248280.250
  21174108.250
  22464033.250
 23  3  8  0  0  9.0000000  0 08G05G06G11G12G17G19G20G25 0.89,11.5,3.90
  22127324.250
  19641479.250
  18905616.250
  19498693.750
  22214777.750
  19957590.250
  19720481.750
  21195333.750
 23  3  8  0 30  8.0000000  0 07G02G06G11G12G17G20G25 0.91,10.5,3.90
  21356661.250
  18567660.250
  23108654.750
  23514744.250
  21255381.750
  23211169.250
  18659789.250
 23  3  8  1  0 11.0000000  0 08G02G05G06G09G11G12G20G29 0.94,10.0,3.90
  20396861.750
  23798207.750
  19168928.750
  20721711.750
  23118689.750
  23561637.250
  22636111.750
  20373425.750
 23  3  8  1 30  7.0000000  0 08G02G05G09G11G12G19G20G29 0.97,10.0,3.90
  23227155.750
  20523491.250
  18517188.250
  20998272.750
  21705862.750
  18189988.250
  20116029.250
  22812958.250
 23  3  8  2  0 11.0000000  0 07G02G05G06G11G12G20G29 +1.000,11.0,3.90
  23240893.250
  20697469.250
  18991397.250
  22120964.250
  23264915.250
  21025149.750
  22451798.250
 23  3  8  2 30  6.0000000  0 06G05G11G15G20G25G29 1.00,10.0,3.90
  21850407.250
  23972489.750
  19177050.750
  22811637.750
  18691368.250
  22896508.750
 23  3  8  3  0  5.0000000  0 06G05G11G12G15G18G29 1.00,10.5,3.90
  19796259.250
  22393615.750
  18495826.750
  21630501.750
  23371260.250
  20083206.750
 23  3  8  3 30 12.0000000  0 05G02G05G15G25G29 +1.000,10.5,3.90
  21024442.750
  20535432.750
  20798873.250
  18601463.750
  20156120.250
 23  3  8  4  0 12.0000000  0 06G02G13G15G18G20G29 +1.000,11.5,3.90
  21024069.750
  20820808.750
  20311454.250
  22093264.250
  23512187.250
  20667122.750
 23  3  8  4 30  6.0000000  0 07G02G05G13G15G18G23G29 0.97,11.5,3.90
  20422344.750
  21809356.250
  20511317.750
  19450637.250
  20807552.250
  21809018.750
  20798861.750
 23  3  8  5  0  7.0000000  0 06G02G13G15G18G23G29 0.94,10.0,3.90
  18452627.250
  19028180.750
  23428537.750
  18082317.750
  19079873.250
  19673428.750
 23  3  8  5 30  5.0000000  0 07G02G10G15G18G23G24G29 0.90,10.0,3.90
  22393840.250
  18506239.250
  21471729.750
  21240282.750
  22149457.750
  23685619.250
  18425573.250
 23  3  8  6  0  5.0000000  0 07G02G10G15G18G23G24G27 0.87,10.0,3.90
  18824035.750
  19557689.250
  18055567.250
  22915477.750
  23575446.250
  18605319.750
  20244651.750
 23  3  8  6 30  6.0000000  0 07G02G10G15G18G23G24G27 0.84,10.5,3.90
  19244448.750
  18418829.250
  18604467.250
  22689730.750
  22891833.250
  23582137.250
  19607807.750
 23  3  8  7  0  8.0000000  0 07G10G18G22G23G24G27G32 0.81,11.5,3.90
  21866265.750
  21346429.250
  18800193.750
  20884901.250
  21494716.250
  23872678.250
  22814896.250
 23  3  8  7 30  5.0000000  0 06G10G18G22G24G27G32 0.78,13.5,3.90
  19887036.250
  20798181.750
  22385043.750
  20323876.750
  22945491.250
  20658706.250
 23  3  8  8  0  8.0000000  0 07G08G10G18G23G24G28G32 0.74,12.0,3.90
  22642135.250
  18224282.250
  20681958.250
  18565745.250
  19744737.750
  21312179.750
  18889314.750
 23  3  8  8 30  5.0000000  0 06G10G12G22G23G31G32 0.71,12.0,3.90
  22545345.250
  20556717.750
  18181360.250
  23619546.750
  19688455.250
  23113355.750
 23  3  8  9  0 13.0000000  0 07G10G22G23G25G28G31G32 +0.680,10.5,3.90
  19222102.250
  20316212.750
  21018312.750
  21940929.250
  20243963.750
  21061883.750
  19625374.250
 23  3  8  9 30  6.0000000  0 06G10G21G22G23G28G31 0.78,11.0,3.90
  22904930.750
  19467537.750
  23318998.250
  19343951.250
  22852454.250
  23378612.750
 23  3  8 10  0  6.0000000  0 07G01G10G22G25G28G31G32 0.89,11.0,3.90
  23044328.750
  21491991.250
  21043527.250
  22282960.250
  20381484.250
  20588372.250
  21140100.750
 23  3  8 10 30  7.0000000  0 06G01G10G21G28G31G32 0.99,10.0,3.90
  23024020.750
  22438272.250
  23809328.750
  20323753.250
  20225265.750
  21477276.750
 23  3  8 11  0  5.0000000  0 07G01G10G22G26G28G31G32 1.10,8.5,3.90
  18390558.250
  18600149.750
  21970824.750
  23365211.750
  21562049.750
  21208041.250
  22939022.250
 23  3  8 11 30 11.0000000  0 07G10G16G21G22G28G31G32 +1.200,8.0,3.90
  19420124.750
  19057806.250
  19619916.250
  21626006.250
  21567385.750
  21026370.250
  23063938.750
 23  3  8 12  0 11.0000000  0 07G03G16G22G26G28G31G32 1.20,8.0,3.90
  21897144.250
  23312602.250
  21515016.750
  20798109.750
  21837671.750
  21181558.750
  23424375.250
 23  3  8 12 30 12.0000000  0 06G03G16G22G26G31G32 1.20,8.0,3.90
  18086976.250
  18573140.250
  18448759.250
  22956290.250
  18384317.250
  20805335.250
 23  3  8 13  0 14.0000000  0 05G03G16G22G26G31 +1.200,8.0,3.90
  21025489.750
  20421045.250
  21907349.250
  19864986.250
  22030003.250
 23  3  8 13 30 12.0000000  0 06G03G04G16G22G26G31 +1.200,8.0,3.90
  22237842.250
  21484152.750
  20507779.750
  23436088.750
  21025368.750
  23612788.750
 23  3  8 14  0 14.0000000  0 06G03G09G16G22G26G27 +1.000,9.5,3.90
  22339989.750
  22295911.750
  19579943.250
  23710441.750
  21058801.750
  22228402.250
 23  3  8 14 30 12.0000000  0 05G09G16G26G27G31 +1.200,10.5,3.90
  21107237.750
  19560639.250
  21791100.250
  21024565.750
  18501473.250
 23  3  8 15  0 12.0000000  0 06G04G07G08G09G16G27 +0.800,11.0,3.90
  20233963.750
  23073780.250
  21976210.250
  21048170.250
  20777583.750
  21017947.250
 23  3  8 15 30 12.0000000  0 06G04G07G08G09G16G27 1.00,12.0,3.90
  21017846.750
  22667392.750
  21431100.250
  21054391.250
  21979151.750
  21151281.250
 23  3  8 16  0 12.0000000  0 06G04G07G08G09G16G27 +1.200,13.0,3.90
  20876886.250
  21024750.750
  19949733.250
  20178764.750
  22058917.250
  20456008.250
 23  3  8 16 30  8.0000000  0 07G04G07G08G09G16G27G30 1.20,11.0,3.90
  19731449.750
  18194504.250
  23596904.750
  18424217.750
  20928191.250
  18895867.750
  20636090.250
 23  3  8 17  0 16.0000000  0 07G04G07G08G09G14G27G30 +1.200,11.5,3.90
  22324312.750
  19074520.250
  19231087.250
  20580297.250
  21997448.250
  21226278.250
  21023766.750
 23  3  8 17 30  6.0000000  0 07G07G08G09G14G17G21G30 1.23,11.5,3.90
  19713272.750
  20746403.250
  22498850.250
  22098671.250
  23507152.250
  21627285.750
  21048329.250
 23  3  8 18  0 12.0000000  0 07G01G08G09G14G17G21G30 1.27,14.5,3.90
  18515436.750
  18215723.750
  20229080.750
  23960241.750
  18933788.750
  23799821.250
  22924790.250
 23  3  8 18 30  6.0000000  0 06G01G07G14G17G21G30 1.30,13.0,3.90
  22941783.250
  22030219.250
  22694710.750
  23306653.750
  23126410.750
  21847863.250
 23  3  8 19  0  9.0000000  0 07G01G07G13G14G17G19G30 1.33,13.0,3.90
  22868668.750
  23224751.750
  18938489.750
  22690410.750
  23059599.750
  19723236.250
  22265947.750
 23  3  8 19 30 11.0000000  0 06G01G14G17G19G21G30 1.37,14.0,3.90
  22008733.250
  21598236.750
  21837734.250
  23919155.250
  17990938.750
  21836918.750
 23  3  8 20  0 12.0000000  0 05G07G13G17G19G30 +1.400,13.0,3.90
  18092064.250
  18321996.750
  21027170.250
  22444847.750
  21935915.750
 23  3  8 20 30  8.0000000  0 06G01G06G14G17G19G30 1.20,13.0,3.90
  21097977.750
  21593376.250
  19466745.250
  19577994.250
  20305697.250
  21471561.250
 23  3  8 21  0 15.0000000  0 06G01G06G14G17G19G30 +1.000,11.5,3.90
  23444693.250
  21775095.750
  21055246.250
  21017141.250
  21073828.750
  23919979.750
 23  3  8 21 30 14.0000000  0 06G03G06G14G17G19G24 +0.600,12.0,3.90
  23275802.750
  20712655.250
  21394162.750
  21067585.750
  20518017.250
  23266393.250
 23  3  8 22  0 10.0000000  0 07G03G06G11G12G14G17G19 1.00,10.5,3.90
  23523309.250
  20316494.250
  22902669.750
  18770545.250
  22326412.250
  21553625.250
  20481504.750
 23  3  8 22 30 15.0000000  0 05G06G11G17G19G24 +1.400,9.0,3.90
  19167525.750
  20933223.750
  21027243.250
  19521504.750
  22534541.750
 23  3  8 23  0  8.0000000  0 06G06G11G12G17G19G24 1.40,8.0,3.90
  18490937.750
  19362088.750
  20638838.250
  20732570.750
  18886886.250
  22258789.750
 23  3  8 23 30 11.0000000  0 05G06G11G12G19G20 +1.400,8.5,3.90
  20168558.750
  20144547.750
  21026267.750
  20524741.250
  21605628.250
 23  3  9  0  0  8.0000000  0 06G05G06G11G12G17G25 1.20,9.5,3.90
  21504220.250
  19292693.250
  18451348.250
  19006637.750
  21878181.250
  20636709.250
 23  3  9  0 30 13.0000000  0 06G05G09G11G12G19G20 +1.000,10.0,3.90
  20929037.250
  22986989.750
  19153866.250
  19550580.250
  21037960.750
  19166540.750
 23  3  9  1  0  6.0000000  0 08G02G05G09G11G12G19G20G25 1.04,9.5,3.90
  18993224.750
  22364606.750
  19430180.250
  21850462.250
  22317020.250
  18441931.750
  21303688.750
  22763838.250
 23  3  9  1 30  6.0000000  0 08G02G05G06G09G11G20G25G29 1.08,9.5,3.90
  21798922.750
  19098822.250
  22283529.250
  23237472.750
  19716449.250
  18794772.750
  20338970.750
  21326449.750
 23  3  9  2  0  8.0000000  0 06G02G11G12G20G25G29 1.12,10.0,3.90
  18783261.750
  23810882.750
  19027401.750
  22698520.750
  18403039.250
  23942739.750
 23  3  9  2 30  7.0000000  0 08G02G05G11G12G13G15G20G29 1.16,10.5,3.90
  21941270.750
  19932131.750
  22130170.750
  23846432.750
  22363101.250
  23061959.250
  20967590.250
  20870911.750
 23  3  9  3  0  9.0000000  0 08G05G11G12G13G18G20G26G29 1.20,10.5,3.90
  22232047.250
  18882437.750
  21035519.250
  23475883.250
  19629181.250
  23740300.750
  20857752.750
  22415693.250
 23  3  9  3 30  8.0000000  0 08G02G05G11G15G18G20G26G29 1.24,9.5,3.90
  22512927.750
  22152793.750
  19093506.750
  22210268.750
  18113817.250
  17989730.250
  20191661.750
  21697382.250
 23  3  9  4  0  6.0000000  0 07G02G13G15G18G20G23G29 1.28,9.5,3.90
  19647569.750
  19468911.750
  18887441.750
  20631463.250
  22279683.750
  21626646.750
  19379124.250
 23  3  9  4 30  8.0000000  0 07G02G05G10G13G15G20G29 1.32,9.5,3.90
  22900959.250
  18411425.750
  21043942.750
  23047775.750
  21911243.750
  20546807.750
  23392947.750
 23  3  9  5  0  6.0000000  0 06G02G10G15G18G23G29 1.36,8.5,3.90
  20244671.250
  23376448.750
  19231299.250
  19769162.250
  20760124.250
  21584091.250
 23  3  9  5 30  8.0000000  0 07G02G05G10G15G18G24G29 1.40,10.0,3.90
  23872507.750
  20662120.750
  19807635.750
  22970055.250
  22612355.250
  18961737.750
  20008934.250
 23  3  9  6  0  6.0000000  0 08G02G10G13G15G18G23G24G27 1.44,10.0,3.90
  22356234.750
  22886803.750
  18065503.750
  21607824.250
  20356067.250
  20965439.750
  21933248.250
  23622486.750
 23  3  9  6 30  6.0000000  0 08G02G10G15G18G23G24G27G32 1.48,10.0,3.90
  18664126.750
  23610736.250
  18036226.750
  22033534.250
  22156174.250
  22820067.250
  18897458.250
  18799734.750
 23  3  9  7  0  8.0000000  0 07G02G10G18G23G24G27G32 1.52,10.5,3.90
  19291381.250
  22544396.250
  22208343.750
  21643417.750
  22263863.250
  18687241.750
  23464646.750
 23  3  9  7 30 10.0000000  0 07G10G18G22G23G24G27G32 1.56,11.0,3.90
  20067949.250
  21190215.250
  22504171.250
  19804917.750
  20642235.250
  23284739.250
  20822937.750
 23  3  9  8  0 12.0000000  0 05G10G18G22G24G32 +1.600,11.5,3.90
  20373814.750
  23045778.750
  22389830.750
  22059279.250
  21027523.250
 23  3  9  8 30 11.0000000  0 06G10G21G22G23G28G32 +1.400,12.0,3.90
  20472654.750
  18166963.250
  22034171.250
  21650509.750
  22412667.750
  21024213.750
 23  3  9  9  0 11.0000000  0 04G10G22G28G31 1.30,11.0,3.90
  25345510.750
  20359197.750
  20224353.750
  21025826.250
 23  3  9  9 30 10.0000000  0 06G01G10G21G22G31G32 1.20,10.5,3.90
  18958379.750
  22467382.750
  18945807.250
  22771769.250
  22764057.750
  22521859.250
 23  3  9 10  0 12.0000000  0 07G01G10G21G22G28G31G32 1.10,11.5,3.90
  22581283.250
  21173216.750
  23050474.250
  20589275.750
  19918212.250
  20091052.750
  20744055.250
 23  3  9 10 30 12.0000000  0 07G10G21G25G26G28G31G32 +1.000,11.0,3.90
  22089508.250
  23379404.250
  21959382.750
  22868832.750
  19841527.750
  19707750.750
  21034474.750
 23  3  9 11  0  6.0000000  0 08G10G21G22G25G26G28G31G32 1.20,8.5,3.90
  18782242.250
  19490549.250
  21992818.750
  18054408.750
  23225168.250
  21626478.250
  21240033.750
  23022916.250
 23  3  9 11 30  6.0000000  0 06G01G03G22G26G28G32 1.40,8.5,3.90
  18085818.750
  22229705.250
  21039981.250
  21158528.750
  21032248.250
  22539037.250
 23  3  9 12  0 11.0000000  0 05G03G22G26G31G32 +1.600,9.5,3.90
  21026582.750
  20759608.250
  19922541.250
  20450939.250
  22729477.750
 23  3  9 12 30 11.0000000  0 06G03G16G22G26G28G31 +1.600,10.5,3.90
  22157083.250
  22498003.250
  22604312.750
  21026405.750
  23287125.250
  22553455.750
 23  3  9 13  0 14.0000000  0 04G03G16G22G31 +1.600,10.0,3.90
  21788079.750
  21026473.750
  22726474.750
  22843612.750
 23  3  9 13 30 16.0000000  0 06G03G04G16G26G27G31 +1.600,10.5,3.90
  22943759.750
  21991509.750
  21061504.250
  21723986.750
  18557067.750
  18329415.250
 23  3  9 14  0 11.0000000  0 06G03G04G09G16G26G27 1.60,10.5,3.90
  22726434.750
  20321494.250
  22412516.750
  19843030.750
  21437557.250
  22340922.250
 23  3  9 14 30 15.0000000  0 04G04G09G16G27 +1.600,11.5,3.90
  21018421.750
  22469130.250
  21099533.250
  22390058.250
 23  3  9 15  0 16.0000000  0 06G04G07G08G09G26G27 +1.600,12.5,3.90
  20318776.250
  23012569.250
  21882703.250
  21025568.750
  23725169.250
  21009581.250
 23  3  9 15 30 11.0000000  0 06G04G07G08G09G16G27 +1.600,13.0,3.90
  20796762.750
  22256775.750
  21025468.250
  20729189.250
  21805749.750
  20849019.250
 23  3  9 16  0 29.0000000  0 01G04 1.60,15.0,3.90
  21849764.250
 23  3  9 16 30 11.0000000  0 06G04G07G08G09G27G30 +1.600,13.5,3.90
  20421179.250
  18645022.750
  18142632.250
  19043751.250
  19541821.750
  21025818.250
 23  3  9 17  0 11.0000000  0 06G04G07G08G09G27G30 +1.160,13.5,3.90
  18219447.750
  20747851.750
  21018383.750
  22429267.250
  23096075.250
  22620884.250
 23  3  9 17 30  7.0000000  0 06G01G07G08G14G21G30 1.23,15.5,3.90
  20863771.750
  23648077.750
  18807672.750
  19947886.250
  19504420.750
  18891856.250
 23  3  9 18  0  7.0000000  0 07G01G07G08G13G14G17G30 1.31,14.0,3.90
  19013154.250
  22986701.750
  18985343.250
  20421976.750
  18511906.250
  19430250.750
  23485870.750
 23  3  9 18 30 10.0000000  0 06G01G07G08G13G14G21 1.38,14.5,3.90
  23579399.250
  22849634.750
  19500188.250
  19336718.250
  23357467.250
  23895381.750
 23  3  9 19  0  7.0000000  0 06G01G07G14G17G21G30 1.45,14.0,3.90
  20523201.250
  21043869.750
  20331087.750
  20678327.750
  21776025.250
  19983349.750
 23  3  9 19 30  6.0000000  0 06G01G07G13G14G17G30 1.53,15.5,3.90
  21662577.250
  23260718.750
  18067959.250
  21197574.250
  21427256.750
  21541568.250
 23  3  9 20  0 14.0000000  0 05G01G07G19G21G30 +1.600,17.0,3.90
  20550581.750
  22956680.250
  21025545.750
  23239448.750
  20746677.250
 23  3  9 20 30 12.0000000  0 07G01G03G14G19G21G24G30 +1.000,17.5,3.90
  22769879.750
  18504876.750
  21033018.250
  21761179.250
  19809362.250
  18935965.750
  23164773.750
 23  3  9 21  0 11.0000000  0 04G06G14G19G30 +1.800,14.5,3.90
  21655450.750
  21127075.250
  21028759.750
  24095991.750
 23  3  9 21 30 11.0000000  0 05G06G11G14G17G19 +1.600,12.5,3.90
  21161632.750
  18334064.750
  22029829.750
  21650786.750
  21025534.750
 23  3  9 22  0 14.0000000  0 05G03G06G14G19G24 +1.200,10.5,3.90
  18375638.250
  21071657.250
  23257984.750
  21273261.250
  18082280.250
 23  3  9 22 30 11.0000000  0 06G06G11G12G17G19G24 +1.200,9.5,3.90
  19367344.750
  21017726.250
  22601981.750
  21289343.250
  19734667.250
  22790996.750
 23  3  9 23  0 11.0000000  0 04G11G12G17G19 +1.600,9.5,3.90
  19804697.250
  21024337.750
  21335438.250
  19452169.250
 23  3  9 23 30 12.0000000  0 07G06G11G12G17G19G20G25 1.62,10.0,3.90
  22705775.250
  22564426.750
  23393065.250
  19185008.250
  23055346.250
  23926061.250
  19436605.250
 23  3 10  0  0  8.0000000  0 06G06G11G12G19G20G25 1.64,9.5,3.90
  20761377.750
  19816157.250
  20336960.250
  21074193.250
  20431872.250
  21897833.750
 23  3 10  0 30  5.0000000  0 06G02G11G12G20G25G29 1.66,10.5,3.90
  21453219.250
  23457340.250
  23849688.750
  23387579.250
  18835106.750
  21668272.250
 23  3 10  1  0  5.0000000  0 08G02G05G06G11G12G19G20G25 1.68,9.5,3.90
  22171827.750
  19521064.250
  21359085.750
  19172008.250
  19667134.750
  21857850.750
  18563525.250
  20031621.250
 23  3 10  1 30  5.0000000  0 06G02G05G11G12G25G29 1.70,9.0,3.90
  18391326.750
  21696117.750
  22451977.750
  23267999.750
  23056671.750
  23856972.250
 23  3 10  2  0  6.0000000  0 07G02G05G11G12G20G25G29 1.72,10.0,3.90
  23312267.250
  20861991.250
  22497285.250
  23779810.750
  21370838.750
  23098125.250
  22430881.250
 23  3 10  2 30  6.0000000  0 06G02G05G11G18G20G29 1.74,8.5,3.90
  19904618.750
  23979426.750
  20252505.750
  22429940.750
  19089521.250
  18815292.750
 23  3 10  3  0  6.0000000  0 07G02G05G11G13G15G25G29 1.76,8.0,3.90
  22406396.250
  21255858.250
  23946374.750
  22339122.250
  22659564.250
  18963335.250
  21341252.250
 23  3 10  3 30  7.0000000  0 08G02G05G11G13G15G18G20G29 1.78,9.0,3.90
  22645390.750
  22417225.250
  19386073.750
  22396498.250
  22267852.250
  18169117.750
  18283345.250
  21888798.750
 23  3 10  4  0 11.0000000  0 07G02G05G13G15G20G23G29 +1.800,9.0,3.90
  21026788.250
  21762277.750
  20879184.750
  20220966.250
  23807594.750
  22911462.250
  20855279.750
 23  3 10  4 30  9.0000000  0 07G02G13G15G18G20G23G29 1.80,9.0,3.90
  19017117.250
  19225302.250
  18013363.750
  19202743.750
  22778275.250
  20203328.250
  19625693.250
 23  3 10  5  0 22.0000000  0 01G29 1.80,8.5,3.90
  21218907.250
 23  3 10  5 30  6.0000000  0 06G02G13G18G23G24G29 1.80,8.0,3.90
  19432817.250
  20717104.250
  18069261.750
  18927044.250
  20314269.750
  21664033.250
 23  3 10  6  0  6.0000000  0 08G02G10G15G18G23G24G27G32 1.80,7.5,3.90
  22679936.750
  23005307.750
  21951640.250
  20586801.250
  21142205.750
  22055516.250
  23795829.250
  18502085.750
 23  3 10  6 30  6.0000000  0 06G15G18G23G24G27G32 1.80,8.0,3.90
  19643756.750
  23557434.750
  23597276.750
  18243565.250
  20368027.250
  20130060.750
 23  3 10  7  0  5.0000000  0 06G10G15G18G23G24G32 1.80,8.0,3.90
  20901556.250
  23292507.250
  20751138.250
  20081702.250
  20717455.250
  21795611.250
 23  3 10  7 30  7.0000000  0 08G10G15G18G22G23G24G27G32 1.80,7.5,3.90
  20913508.250
  18965020.250
  22242068.250
  23290193.250
  20742355.250
  21625727.250
  18289340.250
  21653516.750
 23  3 10  8  0  6.0000000  0 08G08G10G21G22G23G24G28G32 1.80,7.0,3.90
  23601137.750
  18973979.250
  23185768.250
  20930180.250
  19514091.250
  20818936.250
  21794599.250
  19616718.750
 23  3 10  8 30 11.0000000  0 07G10G12G22G23G24G31G32 +1.800,7.0,3.90
  21025142.750
  18875699.750
  22516283.750
  22303723.750
  18093229.750
  23861335.250
  21559100.250
 23  3 10  9  0  6.0000000  0 07G10G12G21G22G25G28G32 1.77,7.0,3.90
  21213392.250
  18495160.750
  18215015.750
  22136981.250
  23669474.250
  21943250.250
  21552762.250
 23  3 10  9 30 15.0000000  0 07G10G12G22G25G28G31G32 1.73,6.5,3.90
  23748454.750
  20513517.250
  23939198.750
  19218400.250
  23397189.250
  23866348.250
  23745663.750
 23  3 10 10  0  6.0000000  0 07G01G10G12G22G25G26G28 1.70,7.5,3.90
  23313336.250
  22040060.750
  18386224.750
  21324139.750
  22588822.750
  18747517.250
  20648751.750
 23  3 10 10 30  8.0000000  0 07G03G21G22G26G28G31G32 1.66,7.5,3.90
  20646590.750
  20411861.250
  23409140.750
  19667835.750
  22820949.250
  22652628.750
  18052902.750
 23  3 10 11  0  9.0000000  0 07G01G03G21G22G26G28G31 1.63,8.0,3.90
  20363723.750
  19917606.250
  21388143.750
  23809246.250
  18883922.750
  23487789.750
  23068426.750
 23  3 10 11 30  6.0000000  0 07G03G16G22G26G28G31G32 1.59,6.5,3.90
  23358467.250
  19294990.750
  22304724.250
  22280517.750
  22349271.250
  21752124.250
  23866299.750
 23  3 10 12  0  8.0000000  0 07G03G04G16G26G28G31G32 1.56,6.0,3.90
  22379642.750
  18581487.750
  23554796.250
  21271120.250
  22641069.250
  21936588.750
  18255438.750
 23  3 10 12 30 12.0000000  0 06G03G04G16G22G26G31 +1.520,5.5,3.90
  22152817.250
  23549605.750
  22345390.250
  22681985.750
  21018098.250
  22642248.750
 23  3 10 13  0 13.0000000  0 04G03G16G22G26 +1.600,6.5,3.90
  21972176.250
  21054485.250
  22963455.750
  20801022.250
 23  3 10 13 30 25.0000000  0 04G03G04G09G16 +2.200,7.0,3.90
  23314579.250
  22157548.250
  24680313.250
  21279804.750
 23  3 10 14  0 10.0000000  0 07G03G04G08G09G16G27G31 2.15,7.5,3.90
  18549656.750
  21947592.250
  19570901.250
  23958599.250
  21542142.750
  23883610.250
  19951824.750
 23  3 10 14 30 10.0000000  0 06G04G09G16G26G27G31 2.10,6.5,3.90
  19761095.250
  21116671.750
  19920231.250
  22312061.250
  21042564.750
  18943908.750
 23  3 10 15  0 10.0000000  0 07G04G07G08G09G16G26G27 2.05,7.5,3.90
  21901718.250
  18457909.750
  23292645.750
  22505180.250
  22583473.750
  19422738.250
  22504325.250
 23  3 10 15 30 13.0000000  0 05G04G07G08G16G27 +2.000,8.5,3.90
  21044179.250
  22311781.250
  21086642.250
  22097641.250
  21016579.750
 23  3 10 16  0  8.0000000  0 07G04G07G08G09G16G27G30 2.00,9.5,3.90
  22831382.750
  22538130.750
  21561314.250
  21954839.250
  18053224.750
  22286674.250
  19258109.750
 23  3 10 16 30  6.0000000  0 07G04G07G08G09G14G21G27 2.00,11.0,3.90
  21598457.250
  19596919.750
  19182126.250
  20156767.750
  22819115.750
  22268219.750
  20680352.250
 23  3 10 17  0 12.0000000  0 06G01G07G08G16G21G30 +2.000,11.0,3.90
  18708552.250
  20639771.750
  21025257.750
  19331495.250
  22875746.250
  22427812.750
 23  3 10 17 30 14.0000000  0 04G07G08G09G14 +1.400,12.0,3.90
  18870589.750
  20146941.250
  21986555.750
  21066917.750
 23  3 10 18  0  8.0000000  0 07G01G07G08G09G17G21G30 1.40,13.5,3.90
  22159858.250
  20314869.250
  22409500.250
  18469442.750
  22574663.250
  21679722.750
  20702999.250
 23  3 10 18 30 19.0000000  0 05G07G08G13G17G21 +1.400,13.5,3.90
  21161349.750
  23876899.750
  23510517.750
  22040450.250
  22156274.750
 23  3 10 19  0 11.0000000  0 07G01G07G13G14G17G21G30 +2.000,15.5,3.90
  19647692.750
  20332974.750
  21805420.750
  19435716.250
  19762294.750
  21025140.750
  19171330.750
 23  3 10 19 30 10.0000000  0 06G01G07G13G14G17G30 1.70,19.0,3.90
  19135263.750
  20863461.750
  21566589.250
  18608581.250
  18829065.250
  19065224.750
 23  3 10 20  0 21.0000000  0 05G01G14G17G19G30 +1.400,15.5,3.90
  22287263.250
  21176492.250
  21340389.250
  22561633.250
  22518844.750
 23  3 10 20 30 11.0000000  0 06G03G06G14G17G19G30 +1.640,16.0,3.90
  18368615.250
  22761925.750
  21018256.750
  21099641.750
  21636474.250
  23273181.250
 23  3 10 21  0  6.0000000  0 06G01G03G06G14G17G19 1.82,15.0,3.90
  20623016.250
  20511726.250
  18379032.750
  18040372.750
  23934696.250
  23820423.250
 23  3 10 21 30 18.0000000  0 06G03G06G11G17G19G24 +2.000,15.0,3.90
  23264250.250
  20528894.750
  23616173.750
  21152721.250
  20450576.750
  23189842.750
 23  3 10 22  0 11.0000000  0 05G03G06G17G19G24 +2.000,13.0,3.90
  18420099.750
  21024446.250
  22456163.250
  21258779.750
  18092207.750
 23  3 10 22 30 11.0000000  0 04G06G11G17G19 +2.200,10.5,3.90
  21027830.250
  22558326.750
  23009450.750
  21406454.250
 23  3 10 23  0 15.0000000  0 06G06G11G12G17G19G20 +1.400,9.5,3.90
  20462503.250
  21084407.250
  22246991.750
  22772884.750
  20853767.750
  23056021.250
 23  3 10 23 30 10.0000000  0 06G06G11G12G17G19G20 1.48,9.0,3.90
  22228174.250
  21971736.250
  22749741.750
  18723979.750
  22571427.250
  23233730.750
 23  3 11  0  0  9.0000000  0 07G05G06G11G12G17G19G20 1.56,7.5,3.90
  19019605.750
  23356611.250
  22308961.750
  22798804.250
  19970556.250
  23669949.250
  22825863.750
 23  3 11  0 30  8.0000000  0 06G05G11G12G19G20G25 1.64,7.5,3.90
  21696028.750
  20273205.750
  20665515.750
  22354194.750
  20119604.750
  21563975.250
 23  3 11  1  0  5.0000000  0 07G02G05G06G11G20G25G29 1.72,8.0,3.90
  20386467.250
  23709228.750
  19782633.250
  23523226.750
  22856070.750
  18337751.750
  20193202.250
 23  3 11  1 30  7.0000000  0 07G02G05G12G13G20G25G29 1.80,8.0,3.90
  22443378.750
  19766765.250
  21533332.250
  23843276.750
  19667453.750
  21249400.250
  21855868.750
 23  3 11  2  0  5.0000000  0 08G02G05G11G12G15G20G25G29 1.88,8.0,3.90
  18473063.250
  22073798.750
  23808558.250
  19165934.250
  20168506.750
  22670327.750
  18429357.750
  23545238.750
 23  3 11  2 30  5.0000000  0 07G02G05G12G13G20G25G29 1.96,7.5,3.90
  20579754.250
  18751440.750
  22938728.250
  20863128.250
  19924931.750
  21893401.750
  19476077.750
 23  3 11  3  0  7.0000000  0 07G02G05G11G15G20G25G29 2.04,7.0,3.90
  22247867.750
  21218329.250
  23950764.750
  22404808.250
  22821249.750
  18998735.750
  21206636.250
 23  3 11  3 30  9.0000000  0 07G02G05G11G13G15G23G29 2.12,8.0,3.90
  18170906.750
  18077089.750
  21068497.250
  23914682.250
  23717215.250
  20622977.750
  23475583.750
 23  3 11  4  0 11.0000000  0 05G02G13G15G18G29 +2.200,8.0,3.90
  20223486.250
  20111054.750
  19377404.250
  21025387.750
  20151279.250
 23  3 11  4 30 11.0000000  0 06G02G13G15G18G23G29 +2.200,6.0,3.90
  21025658.750
  21298654.750
  20011660.750
  21109450.750
  22109239.750
  21753521.750
 23  3 11  5  0  5.0000000  0 07G02G05G13G15G18G23G24 2.23,4.5,3.90
  18032459.750
  20461099.750
  18835871.750
  23035983.250
  23341202.750
  18317784.250
  20190412.250
 23  3 11  5 30  7.0000000  0 06G02G10G15G18G23G29 2.27,3.0,3.90
  18638538.250
  20209276.750
  23773937.750
  23167061.250
  17998663.750
  20966589.750
 23  3 11  6  0 10.0000000  0 07G02G10G15G18G23G24G27 2.30,2.5,3.90
  18421121.250
  18535323.750
  23708541.750
  22231897.750
  22728706.750
  23589891.750
  19387917.250
 23  3 11  6 30  5.0000000  0 07G08G10G15G18G23G24G32 2.33,2.5,3.90
  19818873.250
  22794645.750
  23688205.750
  21527335.250
  21481315.250
  22106504.250
  23899564.750
 23  3 11  7  0  5.0000000  0 07G02G10G15G18G22G23G24 2.37,3.0,3.90
  22603544.750
  19397110.750
  22019936.750
  19437896.250
  22136612.750
  18660837.750
  19316684.250
 23  3 11  7 30 11.0000000  0 05G08G10G23G27G32 +2.400,3.0,3.90
  19016730.250
  21026326.750
  20950963.250
  18562732.250
  21751525.750
 23  3 11  8  0  6.0000000  0 06G10G18G22G23G24G32 2.35,2.5,3.90
  19617804.250
  22700320.750
  21511489.250
  20258404.250
  21628433.750
  20248799.250
 23  3 11  8 30  8.0000000  0 07G10G21G22G23G28G31G32 2.31,2.5,3.90
  22566226.250
  20092533.250
  17989845.750
  23943436.750
  18222001.750
  19254842.750
  23080967.250
 23  3 11  9  0  5.0000000  0 06G10G12G22G23G28G32 2.26,1.5,3.90
  23664094.750
  20872023.250
  18501206.250
  19740097.250
  18250077.750
  23967014.750
 23  3 11  9 30  7.0000000  0 07G01G10G21G22G28G31G32 2.22,2.0,3.90
  18897836.250
  22709976.250
  19024527.750
  22789606.250
  22217474.750
  22657794.250
  22649881.250
 23  3 11 10  0  6.0000000  0 06G01G10G12G21G22G31 2.17,2.5,3.90
  21132521.750
  19995284.750
  22288887.250
  21713021.750
  19140769.250
  18569453.250
 23  3 11 10 30  9.0000000  0 08G01G03G12G22G25G28G31G32 2.13,3.5,3.90
  22631012.750
  23529937.250
  18389894.250
  20451472.750
  22075701.250
  19890931.250
  19686678.250
  21151393.250
 23  3 11 11  0 11.0000000  0 07G03G22G25G26G28G31G32 +2.080,5.0,3.90
  23246484.750
  21293242.750
  23538899.750
  22204295.750
  21018300.750
  20565950.750
  22448743.750
 23  3 11 11 30  9.0000000  0 06G03G22G26G28G31G32 2.34,4.0,3.90
  22582045.750
  21663513.250
  21498070.250
  21760912.750
  21135180.250
  23288348.250
 23  3 11 12  0 12.0000000  0 05G03G16G22G26G32 +2.600,4.0,3.90
  21044426.250
  22090631.250
  20997224.750
  19931736.750
  23086181.250
 23  3 11 12 30 10.0000000  0 05G03G16G26G31G32 +2.600,4.5,3.90
  23902919.250
  23946639.250
  22764163.250
  18481599.750
  21027025.750
 23  3 11 13  0 11.0000000  0 06G03G04G16G22G26G31 +2.600,10.0,3.90
  22099038.750
  22166122.750
  21025785.750
  23139783.250
  20921939.250
  23235305.250
 23  3 11 13 30 12.0000000  0 07G03G04G16G22G26G28G31 +2.000,6.0,3.90
  18874399.250
  25918106.750
  22699283.250
  20166272.250
  26027783.250
  21034047.250
  20250719.250
 23  3 11 14  0  6.0000000  0 06G04G09G16G26G27G31 2.30,5.5,3.90
  18993343.750
  20922597.250
  18662331.250
  20475056.250
  20845583.250
  23148301.750
 23  3 11 14 30 11.0000000  0 05G04G08G09G16G26 +2.600,8.5,3.90
  20787382.750
  23250968.250
  22043144.750
  21025965.250
  23491508.750
 23  3 11 15  0 11.0000000  0 05G04G08G09G16G27 +2.600,8.5,3.90
  20529130.250
  21739127.250
  21025320.750
  21276222.750
  21041199.750
 23  3 11 15 30  7.0000000  0 06G04G07G08G09G16G27 2.60,9.0,3.90
  21026369.250
  22103514.250
  20889080.750
  20755108.250
  22118589.750
  20923070.250
 23  3 11 16  0  7.0000000  0 06G04G07G08G09G16G27 2.60,11.0,3.90
  21707904.250
  21190342.250
  20269645.250
  20745577.750
  22936932.250
  21104317.250
 23  3 11 16 30 22.0000000  0 06G07G08G09G21G27G30 2.60,11.0,3.90
  21509109.250
  21196373.250
  22250031.750
  18122126.750
  22799587.750
  23752227.750
 23  3 11 17  0 12.0000000  0 06G04G07G08G09G21G30 +2.600,10.5,3.90
  18421072.750
  20520694.750
  21024884.750
  22555550.750
  22693482.750
  22224431.750
 23  3 11 17 30  7.0000000  0 07G01G07G08G09G14G17G21 2.53,10.5,3.90
  20788856.750
  23884903.750
  19281835.250
  21159878.750
  19991297.250
  21222337.250
  19615977.250
 23  3 11 18  0 10.0000000  0 07G01G07G08G13G14G17G21 2.47,11.5,3.90
  18111845.250
  22437867.250
  18637474.250
  19608557.750
  23701777.250
  18523258.750
  23749331.750
 23  3 11 18 30 13.0000000  0 07G01G07G13G14G17G21G30 +2.400,11.5,3.90
  21038205.250
  20663124.250
  22891953.750
  20852552.750
  21354991.250
  21615892.250
  20150570.250
 23  3 11 19  0 12.0000000  0 05G01G14G17G21G30 +2.600,16.5,3.90
  21042474.250
  20805217.750
  21113344.750
  22540418.250
  20627612.750
 23  3 11 19 30 12.0000000  0 05G01G06G14G17G30 +2.600,15.0,3.90
  21617294.250
  19186557.250
  21024286.250
  21236592.250
  21596210.250
 23  3 11 20  0 14.0000000  0 07G01G06G14G17G19G21G30 +2.400,16.0,3.90
  22278118.750
  23988688.250
  21075125.750
  21231740.250
  22358855.250
  19092980.750
  22541667.750
 23  3 11 20 30 11.0000000  0 06G01G06G14G17G19G30 +2.600,14.5,3.90
  22970724.250
  22576219.750
  21024605.750
  21088279.250
  21531476.250
  23401748.750
 23  3 11 21  0 11.0000000  0 04G06G14G17G19 +2.600,13.5,3.90
  21504888.250
  21363913.250
  21225123.250
  21024216.250
 23  3 11 21 30 11.0000000  0 06G03G06G14G17G19G24 +2.600,11.5,3.90
  23870356.750
  21050852.250
  22290870.750
  21797019.250
  21024212.750
  23764623.250
 23  3 11 22  0 11.0000000  0 05G03G11G14G17G19 +2.600,10.5,3.90
  18248482.750
  23033860.750
  23283201.250
  22281013.250
  21024110.250
 23  3 11 22 30 10.0000000  0 07G06G11G12G17G19G20G24 2.30,9.0,3.90
  23747857.750
  19162685.750
  20650192.750
  19788276.750
  18139325.250
  21639314.250
  21288679.250
 23  3 11 23  0 12.0000000  0 06G06G11G12G17G19G20 +2.000,9.0,3.90
  21031144.750
  21532326.250
  22638780.250
  23370553.750
  21418348.750
  23415732.250
 23  3 11 23 30  9.0000000  0 07G06G11G12G17G19G20G25 2.20,8.0,3.90
  20745281.250
  20375221.250
  21104350.750
  23252438.750
  21082686.250
  21536982.750
  23034393.250
 23  3 12  0  0 18.0000000  0 07G05G06G09G11G12G17G20 +2.400,6.5,3.90
  23251271.250
  21877510.750
  18784939.750
  20726520.250
  21188659.250
  18504132.250
  21142937.750
 23  3 12  0 30 11.0000000  0 06G05G11G12G19G20G25 2.48,7.0,3.90
  23674970.750
  22430894.250
  22828040.750
  18616670.750
  22196456.250
  23642868.250
 23  3 12  1  0  8.0000000  0 07G02G05G06G11G12G19G20 2.56,7.5,3.90
  21740217.250
  19049322.750
  21347046.750
  19024895.250
  19590295.750
  21909689.750
  18301920.750
 23  3 12  1 30  6.0000000  0 06G02G05G11G12G20G29 2.64,7.0,3.90
  19268859.250
  22608096.750
  23628858.750
  18569246.250
  22608457.250
  18625749.750
 23  3 12  2  0  5.0000000  0 08G02G05G11G12G15G20G25G29 2.72,8.0,3.90
  20973628.750
  18639589.250
  20469323.250
  21894156.750
  22562190.750
  19321442.750
  21104973.250
  20010607.250
 23  3 12  2 30 11.0000000  0 07G02G05G11G13G15G20G29 +2.800,6.5,3.90
  20808975.750
  19080969.250
  21481181.250
  21025164.750
  21604094.250
  20320832.750
  19695623.750
 23  3 12  3  0  6.0000000  0 07G02G05G11G13G18G20G29 2.60,6.5,3.90
  18227590.250
  23316747.250
  20092205.250
  18083554.750
  20151143.750
  18966686.250
  23211697.750
 23  3 12  3 30  5.0000000  0 06G02G05G11G13G15G29 2.40,8.0,3.90
  20132950.750
  20170929.250
  23187051.750
  19883214.750
  19616982.250
  19511012.750
 23  3 12  4  0 13.0000000  0 05G02G05G13G18G29 +2.200,8.0,3.90
  21019701.250
  22014615.750
  20947622.750
  21728603.250
  21051152.750
 23  3 12  4 30  5.0000000  0 07G02G05G13G15G18G24G29 2.25,7.5,3.90
  18769891.750
  20612988.750
  19108380.750
  23745406.250
  18754149.250
  22088273.750
  19614057.750
 23  3 12  5  0  7.0000000  0 07G02G10G13G15G18G23G29 2.30,7.5,3.90
  21519540.250
  18190285.750
  22401386.750
  20541220.250
  20724935.250
  21685003.750
  23209614.250
 23  3 12  5 30  6.0000000  0 06G02G10G15G18G23G24 2.35,8.0,3.90
  18608291.250
  19993191.250
  23765287.250
  23034669.750
  23828490.750
  19076921.750
 23  3 12  6  0  7.0000000  0 08G02G10G15G18G23G24G27G32 2.40,7.5,3.90
  21914722.250
  21819015.750
  21223887.250
  19642022.750
  20077311.750
  20892966.750
  22737928.250
  23210469.250
 23  3 12  6 30  5.0000000  0 07G08G10G15G18G23G27G32 2.45,7.5,3.90
  20594893.750
  23537550.750
  18672664.250
  22433944.250
  22297647.250
  19139414.250
  18609735.750
 23  3 12  7  0  7.0000000  0 08G08G10G15G18G23G24G27G32 2.50,6.0,3.90
  22342302.750
  18890446.750
  21745603.250
  19128571.250
  18240294.750
  18921326.250
  21450058.250
  19735997.750
 23  3 12  7 30  6.0000000  0 08G08G10G21G22G23G24G27G32 2.55,7.0,3.90
  22564410.250
  18484146.750
  23117768.250
  20740468.250
  18502273.250
  19488255.250
  22171629.250
  19196349.250
 23  3 12  8  0  5.0000000  0 07G08G21G22G23G24G28G32 2.60,7.5,3.90
  19382837.750
  18588863.750
  22370324.750
  21280843.250
  22716048.750
  23085185.250
  21158388.250
 23  3 12  8 30 10.0000000  0 07G10G18G22G23G25G28G31 2.65,7.0,3.90
  18222999.750
  22916623.750
  19567513.250
  19700772.750
  21377266.250
  19727595.250
  20749890.750
 23  3 12  9  0  6.0000000  0 07G10G21G23G25G28G31G32 2.70,7.5,3.90
  18431468.750
  21261054.250
  20593207.250
  20617760.250
  18864481.250
  19604911.250
  18694499.750
 23  3 12  9 30  5.0000000  0 07G01G10G21G25G28G31G32 2.75,7.5,3.90
  23309829.250
  21275413.750
  23504274.750
  22483085.750
  20638814.250
  21047688.750
  21153260.750
 23  3 12 10  0  6.0000000  0 07G01G12G22G25G28G31G32 2.80,6.0,3.90
  19212564.750
  20455706.250
  23208508.250
  18524996.250
  22536430.250
  22604336.750
  23534323.250
 23  3 12 10 30  7.0000000  0 07G01G10G21G22G28G31G32 2.85,7.0,3.90
  22034377.750
  21905916.250
  22959034.250
  19808349.750
  19278062.250
  19037789.750
  20568109.250
 23  3 12 11  0  6.0000000  0 06G01G21G22G26G28G31 2.90,6.5,3.90
  23636338.750
  18678238.250
  20941727.750
  21699455.250
  20713357.750
  20228641.750
 23  3 12 11 30  8.0000000  0 08G01G03G22G25G26G28G31G32 2.95,6.0,3.90
  19814812.250
  23310713.250
  22522240.250
  19688855.250
  22221072.250
  22671314.250
  22017290.750
  18213025.750
 23  3 12 12  0 11.0000000  0 06G03G04G22G26G28G31 +3.000,6.0,3.90
  21213151.750
  23229693.250
  21269609.250
  20096643.250
  21778452.250
  21025170.250
 23  3 12 12 30 10.0000000  0 06G03G04G16G22G28G31 2.80,7.0,3.90
  20481788.750
  21597763.750
  20374326.750
  21162476.250
  21933807.750
  21135249.750
 23  3 12 13  0 11.0000000  0 06G03G04G16G22G28G31 +2.600,6.5,3.90
  22263194.250
  22147802.750
  21034676.750
  23350515.750
  18244249.250
  23430341.750
 23  3 12 13 30 12.0000000  0 06G03G09G16G26G28G31 +3.200,7.5,3.90
  23357727.750
  18214203.750
  21045573.750
  22114438.750
  19532941.750
  24724172.750
 23  3 12 14  0 10.0000000  0 04G04G09G16G31 +3.200,8.0,3.90
  21279851.750
  23122087.250
  21027638.250
  19594065.250
 23  3 12 14 30 10.0000000  0 05G04G07G08G09G16 +3.200,8.0,3.90
  20711161.750
  23979274.750
  23014594.750
  21866619.250
  21027864.250
 23  3 12 15  0 10.0000000  0 06G03G04G07G09G16G27 3.20,11.0,3.90
  20625467.750
  21545883.250
  23789690.750
  21936019.750
  22355056.250
  21969830.750
 23  3 12 15 30 10.0000000  0 06G04G07G08G09G16G27 +3.200,11.0,3.90
  21400685.250
  22273881.750
  21077348.250
  21027441.250
  22529208.250
  21220954.250
 23  3 12 16  0 11.0000000  0 06G04G07G08G09G14G27 +2.680,9.5,3.90
  22624285.750
  21875120.250
  21018169.250
  21577386.750
  19349321.250
  21963683.250
 23  3 12 16 30  5.0000000  0 06G04G07G08G09G21G30 2.94,9.5,3.90
  23143556.250
  20679076.750
  20459670.750
  21580862.750
  23232416.750
  22856604.750
 23  3 12 17  0 11.0000000  0 06G07G08G14G21G27G30 +3.200,10.5,3.90
  18915952.250
  19540068.250
  21558873.250
  21026334.250
  21852440.250
  20533477.250
 23  3 12 17 30  8.0000000  0 06G01G07G08G09G21G30 3.20,10.5,3.90
  22604342.250
  19864007.250
  21375539.250
  23290469.750
  21531368.250
  20803630.750
 23  3 12 18  0  5.0000000  0 06G01G07G08G13G14G30 3.20,12.0,3.90
  21632946.250
  20134036.250
  22423564.750
  23173979.750
  21268711.250
  20308850.250
 23  3 12 18 30  6.0000000  0 06G01G07G13G14G17G30 3.20,12.5,3.90
  19297511.250
  19088901.750
  21199240.250
  19121804.250
  19593419.250
  18475181.750
 23  3 12 19  0  5.0000000  0 06G01G07G13G14G19G30 3.20,12.0,3.90
  23565259.250
  18553626.250
  19811892.250
  23297783.750
  19938046.750
  23208353.750
 23  3 12 19 30 11.0000000  0 05G01G14G17G19G21 +3.200,13.5,3.90
  18666467.250
  18003013.750
  18207853.250
  19921767.750
  21027039.250
 23  3 12 20  0 10.0000000  0 06G01G14G17G19G21G30 +3.200,13.0,3.90
  20732646.750
  19433835.750
  19582170.250
  20614302.250
  23596168.250
  21026731.250
 23  3 12 20 30 11.0000000  0 05G01G03G06G17G19 +3.200,14.5,3.90
  22682329.250
  23733753.250
  21990650.750
  20675240.250
  21026041.750
 23  3 12 21  0 13.0000000  0 06G03G06G14G17G19G30 +3.200,14.0,3.90
  23764284.250
  21472004.750
  21525328.250
  21346503.250
  21061799.750
  18792175.750
 23  3 12 21 30 11.0000000  0 05G06G14G17G19G24 +3.200,12.5,3.90
  21002381.750
  22425263.250
  21869447.250
  21025750.250
  23770878.250
 23  3 12 22  0 11.0000000  0 05G03G06G17G19G24 +3.400,11.5,3.90
  24606774.250
  21029513.750
  22634490.750
  21319974.250
  18213124.250
 23  3 12 22 30  5.0000000  0 06G06G11G12G14G17G19 3.30,10.5,3.90
  20255752.250
  21547498.750
  22984762.750
  18055908.750
  22341675.750
  20649261.250
 23  3 12 23  0 11.0000000  0 04G06G17G19G20 +3.200,10.5,3.90
  20643404.250
  23009610.250
  21025698.750
  22814595.250
 23  3 12 23 30 11.0000000  0 07G04G06G11G12G17G19G25 +3.200,9.5,3.90
  19583210.250
  21025501.250
  20541574.750
  21223662.750
  23547370.750
  21357608.250
  23093973.750
 23  3 13  0  0  9.0000000  0 07G06G11G12G17G19G20G25 3.07,8.5,3.90
  18237012.250
  22987973.250
  23428284.750
  20871132.250
  18556609.250
  23312819.250
  18773018.750
 23  3 13  0 30  5.0000000  0 08G02G05G06G11G12G20G25G29 2.93,9.0,3.90
  23538071.750
  21013879.750
  21818856.750
  19940294.250
  20346757.750
  19631092.750
  21080426.250
  23604244.250
 23  3 13  1  0 11.0000000  0 07G05G06G11G12G20G25G29 +2.800,8.5,3.90
  20885171.750
  23405207.750
  21018292.250
  21625390.250
  20243180.750
  21744093.250
  23276967.750
 23  3 13  1 30  8.0000000  0 07G05G11G12G13G20G25G29 2.81,8.5,3.90
  21188067.750
  22334633.250
  23335200.250
  19069284.250
  21287416.250
  22912608.750
  23120899.250
 23  3 13  2  0  5.0000000  0 07G02G05G11G12G20G25G29 2.82,6.0,3.90
  19409014.250
  23137483.750
  19061492.750
  20558078.750
  23901732.250
  19718837.750
  18410164.750
 23  3 13  2 30  5.0000000  0 07G02G05G13G15G18G25G29 2.83,6.0,3.90
  18899550.750
  23266858.750
  19055555.750
  19591607.750
  21247010.250
  20600498.750
  23777779.750
 23  3 13  3  0 11.0000000  0 07G02G05G11G13G18G20G29 +2.840,5.0,3.90
  21993619.750
  21215185.250
  18028252.750
  21818327.250
  23844788.750
  22902053.750
  21018213.250
 23  3 13  3 30  8.0000000  0 06G02G11G13G18G20G29 2.98,5.0,3.90
  22157217.750
  19375827.750
  21915666.750
  23434301.750
  18270242.250
  21611889.750
 23  3 13  4  0  5.0000000  0 06G02G05G15G18G23G29 3.12,5.0,3.90
  22829753.750
  23947438.250
  21916964.250
  23447452.250
  18439929.750
  22964357.250
 23  3 13  4 30  9.0000000  0 06G02G13G15G18G23G29 3.26,4.0,3.90
  23528291.750
  23937743.750
  22504862.250
  23407425.750
  18407825.250
  18498490.250
 23  3 13  5  0 11.0000000  0 06G02G10G13G15G24G29 +3.400,4.5,3.90
  21988682.750
  18493772.750
  22949864.750
  21026367.750
  23747352.750
  23793878.750
 23  3 13  5 30  5.0000000  0 06G10G13G15G18G23G24 3.40,7.0,3.90
  20974228.250
  21276414.750
  18961891.250
  18108568.250
  18865206.250
  20041999.250
 23  3 13  6  0  5.0000000  0 07G02G10G15G18G23G27G32 3.40,7.0,3.90
  22830232.250
  22521202.750
  22156486.750
  20472289.250
  20842110.250
  23512801.250
  23864598.250
 23  3 13  6 30  8.0000000  0 07G02G10G15G18G23G24G32 3.40,6.0,3.90
  19584133.750
  23616490.750
  18992147.750
  22683429.750
  22452689.250
  23060038.750
  18652771.750
 23  3 13  7  0  8.0000000  0 06G10G18G22G23G27G32 3.40,3.5,3.90
  22296514.250
  22733934.250
  18914381.250
  21733751.750
  19007981.750
  23120032.250
 23  3 13  7 30  6.0000000  0 07G08G10G22G23G24G27G32 3.40,3.0,3.90
  21197824.250
  23014945.250
  19214809.750
  23129725.750
  18175746.750
  20864883.750
  23714140.750
 23  3 13  8  0  5.0000000  0 07G10G21G22G23G24G28G32 3.40,5.0,3.90
  22652183.750
  20617617.750
  18422704.250
  23495025.750
  19000738.250
  19061933.250
  23258174.750
 23  3 13  8 30  5.0000000  0 07G10G21G22G23G25G31G32 3.40,3.5,3.90
  23040596.750
  20398558.250
  18313906.750
  18619262.750
  20073987.750
  19415826.250
  23510990.250
 23  3 13  9  0  5.0000000  0 08G01G10G21G23G25G28G31G32 3.40,3.0,3.90
  19842354.750
  22836084.250
  19586740.250
  19088935.750
  18891695.750
  23121386.250
  23837341.250
  23056859.750
 23  3 13  9 30  5.0000000  0 08G01G10G12G22G23G28G31G32 3.40,3.0,3.90
  18690885.250
  22800534.750
  19385784.750
  22641636.750
  19608912.250
  22019602.750
  22395025.250
  22613027.750
 23  3 13 10  0  5.0000000  0 07G01G10G12G25G28G31G32 3.40,3.0,3.90
  23867585.750
  22992297.250
  19200275.750
  23198141.250
  21189428.250
  21220054.750
  22237602.750
 23  3 13 10 30  5.0000000  0 07G01G03G22G25G26G28G31 3.40,3.0,3.90
  21246833.750
  21741890.250
