     2.00           OBSERVATION DATA    G(GPS)              RINEX VERSION / TYPE
goGPS-java                              17-Apr-24 13:51:53  PGM / RUN BY / DATE
                                                            MARKER NAME
                                                            MARKER NUMBER
                    Lotek Wireless Inc.                     OBSERVER / AGENCY
7                                                           REC # / TYPE / VERS
                                                            ANT # / TYPE
    73993.0000 -5057250.0000  3872763.0000                  APPROX POSITION XYZ
        0.0000        0.0000        0.0000                  ANTENNA: DELTA H / E / N
     2     0                                                WAVELENGTH FACT L1/2
     1    C1                                                # / TYPES OF OBSERV
  2023     2    21    19    22   29.0000000     UTC         TIME OF FIRST OBS
                                                            END OF HEADER
 23  2 21 20  0 13.0000000  0 00 -0.03,23.0,3.80
 23  2 21 20 30 13.0000000  0 00 -0.06,25.5,3.80
 23  2 21 21  0 13.0000000  0 00 -0.09,26.5,3.80
 23  2 21 21 30 13.0000000  0 00 -0.12,26.5,3.80
 23  2 21 22  0 22.0000000  0 00 -0.15,26.0,3.80
 23  2 21 22 30 22.0000000  0 01G17 -0.17,25.5,3.80
  22326397.250
 23  2 21 23  0 14.0000000  0 07G03G06G11G12G14G17G24 -0.200,24.0,3.80
  22303842.750
  19122238.250
  21703246.250
  23605448.750
  21070079.750
  20331958.250
  22031014.750
 23  2 21 23 30 11.0000000  0 04G14G17G19G20 +0.400,17.0,3.80
  23851323.250
  22543261.750
  21025479.250
  19133927.750
 23  2 22  0  0  5.0000000  0 06G06G11G12G17G19G20 0.40,13.0,3.80
  19695092.750
  20595363.750
  21915075.750
  21960158.250
  20086538.250
  22756822.250
 23  2 22  0 30 11.0000000  0 04G06G17G19G20 +0.400,11.5,3.80
  20669511.750
  23169198.750
  21026025.250
  22165653.250
 23  2 22  1  0  9.0000000  0 08G05G06G09G11G17G19G20G25 0.42,10.5,3.80
  21823721.250
  19461658.250
  22929468.750
  18663103.750
  22102411.750
  19775674.750
  19401868.250
  20838383.250
 23  2 22  1 30  6.0000000  0 07G02G05G06G09G11G19G20 0.44,10.0,3.80
  23590808.750
  21316707.250
  20931922.250
  23294154.250
  19434924.250
  21265950.750
  19473308.250
 23  2 22  2  0  5.0000000  0 08G02G05G06G09G11G12G20G25 0.45,10.0,3.80
  23553976.250
  20979356.250
  22448029.250
  23961660.750
  20379837.750
  20834977.750
  19853072.750
  21286125.250
 23  2 22  2 30  8.0000000  0 07G05G06G11G12G20G25G29 0.47,11.0,3.80
  21157504.750
  18237961.750
  21716268.750
  22448454.250
  20809772.250
  22329404.250
  23432845.250
 23  2 22  3  0  5.0000000  0 07G02G05G06G11G12G20G29 0.49,10.5,3.80
  18206151.750
  21704096.750
  20064874.750
  23203104.750
  18378232.750
  22102972.250
  23431521.250
 23  2 22  3 30 10.0000000  0 06G05G11G15G20G25G29 0.51,11.0,3.80
  22839537.250
  19040009.750
  20049755.250
  23883792.250
  19772334.750
  23846519.750
 23  2 22  4  0  6.0000000  0 07G02G05G11G13G15G20G29 0.53,12.0,3.80
  19752516.750
  18439066.250
  21106501.250
  19765459.250
  20153021.750
  19979871.250
  18689194.250
 23  2 22  4 30  5.0000000  0 06G02G05G13G15G23G29 0.55,13.0,3.80
  21300509.750
  20877384.750
  21077425.250
  21036704.750
  23981317.750
  20473767.250
 23  2 22  5  0  8.0000000  0 06G02G13G15G18G23G29 0.56,13.5,3.80
  23417990.250
  23236990.250
  22680444.250
  18409824.750
  19442614.250
  23110159.750
 23  2 22  5 30  8.0000000  0 06G02G05G13G15G18G29 0.58,14.0,3.80
  19865953.750
  21299851.750
  19992309.250
  18883529.750
  20159813.250
  20294149.250
 23  2 22  6  0 11.0000000  0 07G02G05G13G15G18G23G29 +0.600,14.0,3.80
  19767086.750
  21955242.750
  20385922.250
  18747915.250
  19300528.250
  20314377.250
  21031199.750
 23  2 22  6 30  5.0000000  0 07G02G05G15G18G23G24G29 0.53,15.0,3.80
  19444981.750
  22167865.250
  18527762.250
  18199786.250
  19104677.750
  20600366.250
  21494743.750
 23  2 22  7  0 10.0000000  0 06G02G13G15G18G23G24 0.47,15.0,3.80
  23020484.250
  18692897.250
  22254570.250
  21032640.750
  21660749.750
  22654428.250
 23  2 22  7 30  9.0000000  0 06G02G18G23G24G27G32 0.40,15.5,3.80
  20886307.750
  18270523.750
  18413125.250
  19089125.250
  21134658.750
  21065404.250
 23  2 22  8  0  8.0000000  0 07G02G08G10G18G23G24G32 0.33,16.5,3.80
  19127713.250
  19675219.750
  22426822.750
  22051681.250
  21508695.750
  22123897.750
  23345010.750
 23  2 22  8 30 10.0000000  0 07G10G18G22G23G24G28G32 0.27,17.0,3.80
  19307748.750
  20385365.250
  21820827.750
  19020990.250
  19836440.750
  23267282.250
  20055471.250
 23  2 22  9  0 11.0000000  0 05G10G18G22G28G32 +0.200,17.5,3.80
  21023953.750
  23648403.250
  23106062.750
  24066015.750
  21667426.750
 23  2 22  9 30 11.0000000  0 07G10G12G21G23G28G31G32 +0.200,18.0,3.80
  21024357.250
  18987638.250
  18754122.750
  22167156.750
  23048470.250
  23873371.750
  21566167.750
 23  2 22 10  0  5.0000000  0 07G10G12G23G25G28G31G32 0.20,18.5,3.80
  23557088.250
  20935874.750
  19410953.250
  20197178.750
  18513717.250
  19124409.750
  23925043.750
 23  2 22 10 30  5.0000000  0 07G10G12G23G25G28G31G32 0.20,18.5,3.80
  21775453.250
  18613880.750
  18255558.750
  23428994.750
  21636529.250
  21989028.250
  21833431.750
 23  2 22 11  0 11.0000000  0 07G10G21G22G25G28G31G32 +0.200,18.5,3.80
  21442446.750
  23330309.750
  20895170.250
  22159050.750
  20231775.250
  20314051.250
  21025267.750
 23  2 22 11 10 54.0000000  0 00 +3.000,19.0,3.80,1,67065,-5050923,3881261,6,1.4
 23  2 22 19 30  5.0000000  0 06G01G07G14G17G21G30 -2.66,22.5,3.80
  19446195.250
  18617919.750
  19206512.250
  19769668.250
  19709635.250
  18391573.750
 23  2 22 20  0 11.0000000  0 05G01G07G17G21G30 -3.000,22.0,3.80
  20597628.750
  21026641.250
  20741347.250
  21802523.250
  20031904.750
 23  2 22 20 30  5.0000000  0 06G01G07G13G14G19G30 -2.00,22.5,3.80
  21676430.250
  23190998.750
  18066786.250
  21232247.750
  23522992.750
  21533753.750
 23  2 22 21  0 10.0000000  0 06G01G07G14G17G19G30 -1.00,21.5,3.80
  20586266.750
  22922926.750
  19609344.250
  19773518.750
  21163354.250
  20766700.750
 23  2 22 21 30 36.0000000  0 02G01G30 0.01,16.5,3.80
  21152670.250
  21541647.750
 23  2 22 22  0 11.0000000  0 04G14G17G19G24 +1.000,14.5,3.80
  21084016.750
  21026865.750
  21033534.750
  23902119.250
 23  2 22 22 30 16.0000000  0 01G17 1.00,14.0,3.80
  21105069.250
 23  2 22 23  0 27.0000000  0 04G06G14G17G19 +1.000,14.0,3.80
  20000860.750
  22135802.750
  21320203.750
  20181229.750
 23  2 22 23 30 12.0000000  0 04G06G11G14G19 +0.600,13.5,3.80
  20682764.250
  22347872.250
  24003814.750
  21037866.250
 23  2 23  0  0  8.0000000  0 06G06G11G12G17G19G20 0.70,13.5,3.80
  23738571.750
  18519747.250
  19782530.750
  20046648.750
  18133126.750
  20596925.250
 23  2 23  0 30  5.0000000  0 06G06G12G17G19G20G25 0.80,13.5,3.80
  20371746.250
  21137248.750
  22890995.250
  20721725.250
  21657678.750
  23128700.750
 23  2 23  1  0  9.0000000  0 07G05G06G11G12G19G20G25 0.90,13.0,3.80
  18726008.750
  22636383.750
  21734140.250
  22277217.250
  22948630.250
  22372892.250
  23806422.750
 23  2 23  1 30 11.0000000  0 06G05G06G09G11G19G20 +1.000,12.5,3.80
  22724449.750
  22613715.250
  18841969.250
  21027651.750
  22959040.750
  20977681.750
 23  2 23  2  0 17.0000000  0 07G05G06G11G12G19G20G29 +1.000,12.0,3.80
  22150063.750
  23870773.750
  21728866.750
  22210978.750
  18363860.250
  21135784.750
  18701650.750
 23  2 23  2 30  5.0000000  0 06G02G05G06G11G20G29 0.98,12.0,3.80
  23125031.250
  20458062.750
  23730546.250
  21158654.250
  20215517.250
  22670264.250
 23  2 23  3  0  5.0000000  0 08G02G05G11G12G15G20G25G29 0.95,11.5,3.80
  18037181.750
  21580890.250
  23189315.250
  18433124.750
  19892772.750
  22074416.750
  23778071.250
  23215029.250
 23  2 23  3 30  9.0000000  0 07G02G05G11G13G15G20G29 0.93,11.0,3.80
  18347030.250
  22395984.750
  18671469.750
  18743743.250
  19412793.750
  23514854.750
  23296157.750
 23  2 23  4  0  5.0000000  0 07G02G05G11G13G15G20G29 0.90,11.5,3.80
  19113038.250
  23909685.250
  20629082.250
  19078639.250
  19414065.750
  19507111.750
  18063432.250
 23  2 23  4 30  7.0000000  0 06G02G05G13G15G20G29 0.88,11.0,3.80
  20071467.250
  19780126.250
  19836933.250
  19729541.250
  21699472.250
  19299838.250
 23  2 23  5  0  5.0000000  0 07G02G13G15G18G20G23G29 0.85,11.0,3.80
  23151284.750
  22997359.750
  22367149.250
  18055538.750
  19934144.250
  19083721.250
  22933280.750
 23  2 23  5 30  5.0000000  0 07G02G05G13G15G18G23G29 0.83,11.0,3.80
  22194831.750
  23743580.750
  22379229.250
  21196458.250
  22390751.250
  23419193.250
  22735107.750
 23  2 23  6  0 11.0000000  0 07G05G10G15G18G23G24G29 +0.800,11.0,3.80
  24314619.250
  19047333.750
  21025244.750
  21464632.250
  22468932.750
  18454395.750
  23417039.750
 23  2 23  6 30  5.0000000  0 07G02G05G15G18G23G24G29 0.80,10.5,3.80
  19041880.250
  21822735.250
  18144734.250
  23688469.250
  18569718.750
  19991258.250
  21191692.750
 23  2 23  7  0  5.0000000  0 06G02G10G18G23G24G29 0.80,10.5,3.80
  22853947.250
  23219128.250
  20774956.750
  21349843.750
  22288740.750
  19586248.750
 23  2 23  7 30  9.0000000  0 06G02G10G18G23G27G32 0.80,10.5,3.80
  22705190.750
  21471591.250
  20016537.250
  20076207.750
  22826150.750
  22617761.250
 23  2 23  8  0  6.0000000  0 06G02G10G18G23G24G32 0.80,10.5,3.80
  18668607.750
  21736196.750
  21546630.250
  20898778.750
  21526756.250
  22627177.250
 23  2 23  8 30  7.0000000  0 07G10G18G21G23G24G27G32 0.80,10.0,3.80
  22097270.250
  23380498.750
  20937539.750
  21901662.750
  22761060.250
  19422732.750
  22829368.750
 23  2 23  9  0 11.0000000  0 05G10G18G22G23G28 +0.800,10.5,3.80
  21024968.750
  23858572.250
  23043871.250
  21536701.750
  23930973.750
 23  2 23  9 30  5.0000000  0 06G10G12G21G23G31G32 0.80,11.0,3.80
  23628124.250
  21512783.750
  21274740.750
  18872940.250
  20315081.250
  18157366.750
 23  2 23 10  0  5.0000000  0 07G10G12G21G23G25G28G32 0.80,11.0,3.80
  18925929.750
  22223160.250
  21950190.250
  20868682.750
  21428627.250
  19727894.250
  19261041.750
 23  2 23 10 30  6.0000000  0 07G10G12G21G22G23G25G32 0.80,11.0,3.80
  20487762.750
  23254788.750
  22898365.750
  20722442.750
  23041251.250
  22007592.750
  20490714.250
 23  2 23 11  0  5.0000000  0 08G10G12G22G25G26G28G31G32 0.80,11.5,3.80
  22518504.250
  18852690.750
  21838564.750
  23118185.250
  19339347.250
  21168814.750
  21216853.750
  22026358.750
 23  2 23 11 30  5.0000000  0 08G03G10G22G25G26G28G31G32 0.80,12.0,3.80
  20658705.750
  19157646.750
  23399424.750
  18983603.250
  19746507.250
  22805052.750
  22613643.750
  18033219.750
 23  2 23 12  0 11.0000000  0 07G01G03G22G26G28G31G32 +0.800,13.0,3.80
  24268231.750
  23868256.750
  21736868.250
  22893362.250
  21401829.750
  21025730.250
  22833734.250
 23  2 23 12 30  5.0000000  0 06G03G22G26G28G31G32 0.80,13.0,3.80
  22659943.750
  21570897.750
  21628197.750
  21598454.250
  21104426.250
  23147892.750
 23  2 23 13  0  6.0000000  0 07G04G16G22G26G28G31G32 0.80,13.5,3.80
  20538272.750
  19630463.750
  18126372.750
  23240310.250
  18530653.750
  23974457.250
  20182215.250
 23  2 23 13 30  5.0000000  0 07G03G04G16G22G26G28G31 0.80,14.0,3.80
  20548092.750
  21975505.250
  20862634.750
  21033148.750
  19425181.750
  21741262.750
  21176662.250
 23  2 23 14  0  5.0000000  0 07G03G04G16G22G26G28G31 0.80,14.5,3.80
  23372371.750
  23658757.250
  22552441.250
  18321475.750
  22195802.750
  19201405.250
  18651341.250
 23  2 23 14 30  5.0000000  0 08G03G04G09G16G26G27G28G31 0.80,15.0,3.80
  20701761.250
  19602332.750
  22166170.750
  18737075.250
  19454574.750
  22149463.250
  22811722.750
  22286450.750
 23  2 23 15  0 10.0000000  0 06G04G09G16G27G28G31 0.80,16.5,3.80
  18323116.750
  20369528.750
  23890610.750
  20305377.750
  23005868.750
  22503050.250
 23  2 23 15 30  6.0000000  0 06G04G07G08G09G16G27 0.80,18.0,3.80
  21555538.250
  19104048.250
  18248380.750
  22945244.250
  21656760.250
  22876579.250
 23  2 23 16  0  7.0000000  0 06G04G07G08G09G16G27 0.80,17.5,3.80
  23125277.750
  19753566.250
  18585356.750
  23756749.250
  23725474.750
  23754210.250
 23  2 23 16 30  9.0000000  0 06G04G07G08G09G16G27 0.80,19.0,3.80
  23579175.750
  18925751.750
  23678730.250
  23427065.250
  18541127.250
  23562215.250
 23  2 23 17  0 10.0000000  0 05G04G07G08G09G27 +0.800,21.5,3.80
  21580472.750
  21353010.250
  20347381.750
  20709728.250
  21027738.250
 23  2 23 17 30  9.0000000  0 07G04G07G08G09G16G27G30 0.77,23.0,3.80
  22100265.750
  20154481.250
  19701947.750
  20652855.250
  23181141.250
  21159213.750
  22497514.250
 23  2 23 18  0 10.0000000  0 07G01G07G08G09G21G27G30 0.73,24.5,3.80
  22312513.750
  18193719.250
  18536220.750
  19992260.750
  20467348.250
  20660874.250
  20023091.250
 23  2 23 18 30  5.0000000  0 07G01G07G08G09G14G21G30 0.70,24.5,3.80
  19506246.250
  22372208.750
  23608172.250
  19445966.750
  18617447.250
  18207095.750
  23564329.750
 23  2 23 19  0  5.0000000  0 06G01G07G13G17G21G30 0.67,25.5,3.80
  22858251.750
  20923614.750
  18279446.250
  23235079.750
  22334411.750
  21374436.750
 23  2 23 19 30  7.0000000  0 06G01G07G14G17G21G30 0.63,25.0,3.80
  20505027.250
  19858382.250
  20288495.250
  20814407.750
  20900484.750
  19519921.750
 23  2 23 20  0 11.0000000  0 04G07G14G17G30 +0.600,23.5,3.80
  22122538.750
  21319550.750
  21634092.250
  21025787.250
 23  2 23 20 30 11.0000000  0 04G01G07G14G30 +0.600,21.0,3.80
  21026052.250
  22675770.250
  20522459.250
  20935388.250
 23  2 23 21  0  5.0000000  0 07G01G07G14G17G19G21G30 0.40,17.0,3.80
  21284685.750
  23710274.250
  20220009.250
  20378114.750
  21671803.250
  18009967.250
  21499854.250
 23  2 23 21 30 13.0000000  0 04G03G06G14G30 +0.200,15.0,3.80
  22250599.750
  20693202.750
  18858517.250
  21057161.250
 23  2 23 22  0 11.0000000  0 05G03G14G17G19G30 +0.600,13.0,3.80
  23630010.750
  21115681.750
  21026471.750
  20944625.250
  24133953.750
 23  2 23 22 30 14.0000000  0 04G03G14G17G19 +0.600,12.0,3.80
  23209219.250
  21491397.250
  21081544.750
  20397051.750
 23  2 23 23  0 14.0000000  0 06G03G06G11G14G17G19 +0.600,11.0,3.80
  18186681.250
  20813661.750
  23194002.750
  23112091.750
  22225609.250
  21026367.250
 23  2 23 23 30 17.0000000  0 04G06G12G17G19 +0.000,10.0,3.80
  19136903.750
  22262067.250
  21126231.250
  19504472.250
 23  2 24  0  0 11.0000000  0 05G06G11G12G17G19 +0.600,9.0,3.80
  20638788.250
  21292826.250
  22498383.250
  22978212.250
  21026694.250
 23  2 24  0 30  5.0000000  0 06G06G11G12G17G19G20 0.61,7.5,3.80
  22494497.250
  22279442.250
  23092952.750
  19036403.250
  22837881.250
  23565776.250
 23  2 24  1  0 16.0000000  0 06G05G06G09G11G19G20 0.63,7.5,3.80
  23888759.250
  22087058.250
  19230271.250
  21080560.250
  22398974.250
  21617890.250
 23  2 24  1 30  9.0000000  0 08G05G06G09G11G19G20G25G29 0.64,7.0,3.80
  22230028.250
  22380849.250
  18481016.250
  20711071.750
  22739262.750
  20578671.750
  21994686.750
  18857470.750
 23  2 24  2  0  5.0000000  0 06G05G06G11G12G20G25 0.66,6.0,3.80
  19874573.750
  21817520.750
  19611092.750
  20121688.750
  18961723.250
  20413383.750
 23  2 24  2 30  5.0000000  0 07G05G06G09G11G20G25G29 0.67,5.0,3.80
  23239756.750
  20707930.250
  21608818.250
  18083038.750
  23102121.750
  18663839.250
  19387706.750
 23  2 24  3  0  5.0000000  0 08G02G05G11G12G13G15G20G29 0.69,4.0,3.80
  18263432.750
  21858452.750
  23570940.750
  18884089.750
  19143486.250
  20013713.750
  22443755.750
  23396572.750
 23  2 24  3 30  5.0000000  0 07G02G05G11G13G15G20G29 0.70,3.5,3.80
  20419621.250
  18560604.750
  20901532.250
  20747695.250
  21378355.750
  19749789.250
  19355272.250
 23  2 24  4  0  5.0000000  0 07G02G05G11G13G15G20G29 0.71,3.0,3.80
  20540826.750
  19459137.250
  22219160.250
  20463401.750
  20744496.250
  21101810.250
  19510545.250
 23  2 24  4 30  5.0000000  0 06G02G05G13G15G18G29 0.73,2.5,3.80
  22240257.750
  22079208.750
  21999810.250
  21825346.750
  23684233.750
  21528232.250
 23  2 24  5  0  5.0000000  0 07G02G05G13G15G18G23G29 0.74,2.0,3.80
  23783812.750
  18578400.250
  23662213.750
  22956927.750
  18598022.250
  19622570.250
  23660663.250
 23  2 24  5 30  5.0000000  0 06G02G05G13G15G18G29 0.76,1.5,3.80
  19064658.250
  20726324.750
  19311024.750
  18053992.250
  19160457.250
  19719820.750
 23  2 24  6  0  6.0000000  0 07G02G05G13G15G18G23G29 0.77,0.5,3.80
  19705865.750
  22067931.750
  20473988.250
  18704814.750
  19030873.250
  20024118.250
  21199279.750
 23  2 24  6 30  6.0000000  0 06G02G05G15G18G27G29 0.79,0.0,3.80
  21868406.250
  18706823.250
  20992182.750
  20415791.750
  18018121.250
  18119032.750
 23  2 24  7  0 10.0000000  0 04G02G10G23G24 +0.800,0.0,3.80
  21028168.250
  21181122.750
  19372063.250
  20257675.250
 23  2 24  7 30  6.0000000  0 06G02G10G18G23G24G32 0.82,-1.0,3.80
  21729500.250
  20272328.250
  18972328.250
  18946811.250
  19580047.750
  21379223.250
 23  2 24  8  0 10.0000000  0 06G10G18G23G24G27G32 0.84,-1.5,3.80
  18056317.750
  18060278.250
  23298849.750
  23944863.250
  20429601.750
  18921087.250
 23  2 24  8 30  5.0000000  0 06G10G15G18G23G24G32 0.85,-2.0,3.80
  19271947.750
  23477278.250
  20762486.750
  19168874.750
  20075685.750
  19989295.750
 23  2 24  9  0  5.0000000  0 06G10G12G18G21G22G23 0.87,-2.0,3.80
  22835592.250
  21221976.250
  19874950.750
  21009583.250
  18796322.250
  23444592.250
 23  2 24  9 30  5.0000000  0 08G10G12G21G22G23G28G31G32 0.89,-2.5,3.80
  19989625.750
  23789514.750
  23546924.250
  21462627.750
  21329986.250
  21724481.250
  22500084.250
  20495919.250
 23  2 24 10  0  5.0000000  0 07G10G12G23G25G28G31G32 0.91,-3.0,3.80
  22750793.250
  19975992.750
  18788841.250
  19123798.250
  23402497.750
  23948178.250
  23050415.250
 23  2 24 10 30  5.0000000  0 06G10G22G23G25G31G32 0.93,-3.0,3.80
  19678039.750
  19797905.250
  22305544.250
  21066433.250
  19521955.250
  19623470.250
 23  2 24 11  0  7.0000000  0 06G10G22G25G28G31G32 0.95,-3.5,3.80
  22694448.750
  21874696.750
  23175886.250
  21202567.250
  21215662.750
  22122357.250
 23  2 24 11 30  6.0000000  0 07G10G21G22G25G28G31G32 0.96,-4.0,3.80
  19525602.750
  20660747.250
  23611271.750
  19257930.750
  23042737.750
  22822469.250
  18307148.250
 23  2 24 12  0  6.0000000  0 07G03G22G25G26G28G31G32 0.98,-3.5,3.80
  21364106.750
  19377871.750
  21644980.750
  20378780.750
  19086928.250
  18690938.250
  20537198.750
 23  2 24 12 30 11.0000000  0 05G22G26G28G31G32 +1.000,-3.5,3.80
  21025168.250
  20937620.250
  21106187.750
  20600095.250
  22667925.750
 23  2 24 13  0 10.0000000  0 07G16G22G26G28G29G31G32 1.10,-3.5,3.80
  18894546.250
  23625741.250
  22627784.750
  18081462.750
  21492911.750
  23520430.250
  19747401.750
 23  2 24 13 30 11.0000000  0 06G03G04G16G26G28G31 +1.200,-2.5,3.80
  20869282.750
  22157267.250
  21026935.250
  19739659.750
  22173857.250
  21609190.750
 23  2 24 14  0 26.0000000  0 04G03G04G16G22 +1.400,5.0,3.80
  20254685.750
  20347987.750
  19259811.250
  21253300.750
 23  2 24 14 30 18.0000000  0 05G04G22G26G27G31 +0.400,7.5,3.80
  18593537.250
  21142658.250
  18642226.250
  21065385.750
  21503589.750
 23  2 24 15  0 13.0000000  0 00 0.39,12.0,3.80
 23  2 24 15 30 13.0000000  0 00 0.37,16.0,3.80
 23  2 24 16  0 13.0000000  0 00 0.36,18.0,3.80
 23  2 24 16 30 13.0000000  0 00 0.34,19.0,3.80
 23  2 24 17  0 13.0000000  0 00 0.33,20.0,3.80
 23  2 24 17 30 13.0000000  0 00 0.31,21.0,3.80
 23  2 24 18  0 13.0000000  0 00 0.30,21.0,3.80
 23  2 24 18 30 13.0000000  0 00 0.29,21.5,3.80
 23  2 24 19  0 13.0000000  0 00 0.27,22.0,3.80
 23  2 24 19 30 13.0000000  0 00 0.26,22.0,3.80
 23  2 24 20  0 13.0000000  0 00 0.24,22.0,3.80
 23  2 24 20 30 13.0000000  0 00 0.23,23.0,3.80
 23  2 24 21  0 13.0000000  0 00 0.21,22.0,3.80
 23  2 24 21 30 22.0000000  0 01G21 +0.200,22.0,3.80
  21106573.750
 23  2 24 22  0 13.0000000  0 00 0.19,21.5,3.80
 23  2 24 22 30 13.0000000  0 00 0.18,21.5,3.80
 23  2 24 23  0 22.0000000  0 02G03G17 0.17,21.5,3.80
  20118796.750
  18160956.750
 23  2 24 23 30 13.0000000  0 00 0.16,21.0,3.80
 23  2 25  0  0 13.0000000  0 00 0.15,21.5,3.80
 23  2 25  0 30 22.0000000  0 01G06 0.13,21.5,3.80
  18775270.750
 23  2 25  1  0 13.0000000  0 00 0.12,21.5,3.80
 23  2 25  1 30 22.0000000  0 02G06G11 0.11,21.5,3.80
  23143657.750
  21387932.250
 23  2 25  2  0 22.0000000  0 02G09G11 0.10,21.5,3.80
  23689861.750
  20165154.750
 23  2 25  2 30 22.0000000  0 01G09 0.09,21.5,3.80
  22626845.250
 23  2 25  3  0 22.0000000  0 02G11G20 0.08,21.5,3.80
  18135648.250
  22994240.750
 23  2 25  3 30 22.0000000  0 01G20 0.07,21.5,3.80
  22118767.750
 23  2 25  4  0 13.0000000  0 00 0.06,21.0,3.80
 23  2 25  4 30 13.0000000  0 00 0.05,21.0,3.80
 23  2 25  5  0 13.0000000  0 00 0.04,21.0,3.80
 23  2 25  5 30 22.0000000  0 01G16 0.03,21.5,3.80
  20140981.750
 23  2 25  6  0 13.0000000  0 00 0.01,21.0,3.80
 23  2 25  6 30 13.0000000  0 00 0.00,21.5,3.80
 23  2 25  7  0 13.0000000  0 00 -0.01,21.0,3.80
 23  2 25  7 30 13.0000000  0 00 -0.02,21.0,3.80
 23  2 25  8  0 13.0000000  0 00 -0.03,21.0,3.80
 23  2 25  8 16 24.0000000  0 00 0.00,21.5,3.80,0
 23  2 25  9 17 10.0000000  0 00 0.00,21.5,3.80,0
 23  2 25 10 17 10.0000000  0 00 0.00,21.5,3.80,0
 23  2 25 11 17 10.0000000  0 00 0.00,21.5,3.80,0
 23  2 25 12 17 10.0000000  0 00 0.00,21.5,3.80,0
 23  2 25 13 17 10.0000000  0 00 0.00,22.0,3.80,0
 23  2 25 14 17 10.0000000  0 00 0.00,21.5,3.80,0
 23  2 25 15 17 10.0000000  0 00 0.00,21.5,3.80,0
 23  2 25 16 17 10.0000000  0 00 0.00,22.0,3.80,0
 23  2 25 17 17 10.0000000  0 00 0.00,21.5,3.80,0
 23  2 25 18 17 10.0000000  0 00 0.00,21.5,3.80,0
 23  2 25 19 17 10.0000000  0 00 0.00,21.5,3.80,0
 23  2 25 20 17 10.0000000  0 00 0.00,21.5,3.80,0
 23  2 25 21 17 10.0000000  0 00 0.00,21.5,3.80,0
 23  2 25 22 17 10.0000000  0 00 0.00,21.5,3.80,0
 23  2 25 23 17 10.0000000  0 00 0.00,21.5,3.80,0
 23  2 26  0 17 10.0000000  0 00 0.00,21.5,3.80,0
 23  2 26  1 17 10.0000000  0 00 0.00,21.5,3.80,0
 23  2 26  2 17 10.0000000  0 00 0.00,21.5,3.80,0
 23  2 26  3 17 10.0000000  0 00 0.00,21.0,3.80,0
 23  2 26  4 17 10.0000000  0 00 0.00,21.0,3.80,0
 23  2 26  5 17 10.0000000  0 00 0.00,21.0,3.80,0
 23  2 26  6 17 10.0000000  0 00 0.00,21.5,3.80,0
 23  2 26  7 17 10.0000000  0 00 0.00,21.0,3.80,0
 23  2 26  8 17 10.0000000  0 00 0.00,21.5,3.80,0
 23  2 26  9 17 10.0000000  0 00 0.00,21.5,3.80,0
 23  2 26 10 17 10.0000000  0 00 0.00,21.0,3.80,0
 23  2 26 11 17 10.0000000  0 00 0.00,21.0,3.80,0
 23  2 26 12 17 10.0000000  0 00 0.00,21.5,3.80,0
 23  2 26 13 17 10.0000000  0 00 0.00,21.5,3.80,0
 23  2 26 14 17 10.0000000  0 00 0.00,21.5,3.80,0
 23  2 26 15 17 10.0000000  0 00 0.00,21.5,3.80,0
 23  2 26 16 17 10.0000000  0 00 0.00,21.5,3.80,0
 23  2 26 17 17 10.0000000  0 00 0.00,21.0,3.80,0
 23  2 26 18 17 10.0000000  0 00 0.00,21.5,3.80,0
 23  2 26 19 17 10.0000000  0 00 0.00,21.0,3.80,0
 23  2 26 20 17 10.0000000  0 00 0.00,21.5,3.80,0
 23  2 26 21 17 10.0000000  0 00 0.00,21.5,3.80,0
 23  2 26 22 17 10.0000000  0 00 0.00,21.5,3.80,0
 23  2 26 23 17 10.0000000  0 00 0.00,21.5,3.80,0
 23  2 27  0 17 10.0000000  0 00 0.00,21.5,3.80,0
 23  2 27  1 17 10.0000000  0 00 0.00,21.5,3.80,0
 23  2 27  2 17 10.0000000  0 00 0.00,21.0,3.80,0
 23  2 27  3 17 10.0000000  0 00 0.00,21.5,3.80,0
 23  2 27  4 17 10.0000000  0 00 0.00,21.0,3.80,0
 23  2 27  5 17 10.0000000  0 00 0.00,21.0,3.80,0
 23  2 27  6 17 10.0000000  0 00 0.00,21.5,3.80,0
 23  2 27  7 17 10.0000000  0 00 0.00,21.5,3.80,0
 23  2 27  8 17 10.0000000  0 00 0.00,21.5,3.80,0
 23  2 27  9 17 10.0000000  0 00 0.00,21.5,3.80,0
 23  2 27 10 17 10.0000000  0 00 0.00,21.5,3.80,0
 23  2 27 11 17 10.0000000  0 00 0.00,22.0,3.80,0
 23  2 27 12 17 10.0000000  0 00 0.00,22.0,3.80,0
 23  2 27 13 17 10.0000000  0 00 0.00,22.0,3.80,0
 23  2 27 14 17 10.0000000  0 00 0.00,22.0,3.80,0
 23  2 27 15 17 10.0000000  0 00 0.00,22.0,3.80,0
 23  2 27 16 17 10.0000000  0 00 0.00,22.0,3.80,0
 23  2 27 17 17 10.0000000  0 00 0.00,22.5,3.80,0
 23  2 27 18 17 10.0000000  0 00 0.00,22.5,3.80,0
 23  2 27 19 17 10.0000000  0 00 0.00,22.5,3.80,0
 23  2 27 20 17 10.0000000  0 00 0.00,22.5,3.80,0
 23  2 27 21 17 10.0000000  0 00 0.00,23.0,3.80,0
 23  2 27 22 17 10.0000000  0 00 0.00,23.0,3.80,0
 23  2 27 23 17 10.0000000  0 00 0.00,23.5,3.80,0
 23  2 28  0 17 10.0000000  0 00 0.00,23.0,3.80,0
 23  2 28  1 17 10.0000000  0 00 0.00,23.0,3.80,0
 23  2 28  2 17 10.0000000  0 00 0.00,23.0,3.80,0
 23  2 28  3 17 10.0000000  0 00 0.00,23.0,3.80,0
 23  2 28  4 17 10.0000000  0 00 0.00,23.0,3.80,0
 23  2 28  5 17 10.0000000  0 00 0.00,23.0,3.80,0
 23  2 28  6 17 10.0000000  0 00 0.00,23.0,3.80,0
 23  2 28  7 17 10.0000000  0 00 0.00,23.0,3.80,0
 23  2 28  8 17 10.0000000  0 00 0.00,22.5,3.80,0
 23  2 28  9 17 10.0000000  0 00 0.00,22.5,3.80,0
 23  2 28 10 17 10.0000000  0 00 0.00,22.5,3.80,0
 23  2 28 11 17 10.0000000  0 00 0.00,22.0,3.80,0
 23  2 28 12 17 10.0000000  0 00 0.00,22.0,3.80,0
 23  2 28 13 17 10.0000000  0 00 0.00,22.5,3.80,0
 23  2 28 14 17 10.0000000  0 00 0.00,22.0,3.80,0
 23  2 28 15 17 10.0000000  0 00 0.00,22.0,3.80,0
 23  2 28 16 17 10.0000000  0 00 0.00,22.0,3.80,0
 23  2 28 17  0 31.0000000  0 06G07G09G16G21G27G30 -1.800,20.5,3.80
  18811209.250
  18942107.750
  21361827.250
  21629716.250
  19391027.250
  21286847.750
 23  2 28 17 30 11.0000000  0 06G04G09G16G21G27G30 -2.240,18.5,3.80
  22122623.750
  20395072.750
  23123028.250
  21424017.750
  21013871.250
  21017610.750
 23  2 28 18  0 17.0000000  0 07G01G07G08G09G14G21G27 -2.000,18.5,3.80
  22554756.250
  19100556.750
  20055172.750
  21782759.750
  21547760.250
  21057519.750
  22545172.250
 23  2 28 18 30 21.0000000  0 02G01G14 -1.600,18.5,3.80
  21134535.750
  20562767.750
 23  2 28 19  0 12.0000000  0 05G01G07G08G14G21 -2.000,19.0,3.80
  19550890.250
  18506749.750
  21042159.750
  19287156.750
  19651688.250
 23  2 28 19 30 11.0000000  0 04G01G17G21G30 -1.800,19.5,3.80
  21672837.250
  21874650.250
  22716895.250
  21026816.750
 23  2 28 20  0 11.0000000  0 06G01G07G13G17G19G21 -2.320,20.5,3.80
  18986603.750
  20333573.750
  21334520.750
  18851776.750
  21017665.750
  20891369.750
 23  2 28 20 30 22.0000000  0 02G01G19 -2.600,21.0,3.80
  21122956.750
  21927079.750
 23  2 28 21  0 11.0000000  0 05G01G06G17G19G30 -1.800,21.0,3.80
  21661847.750
  22368988.250
  20224283.250
  21026991.250
  22014035.250
 23  2 28 21 30 14.0000000  0 05G01G03G14G17G19 -2.600,21.0,3.80
  23396164.250
  23867040.750
  21080710.750
  21067823.250
  21190628.750
 23  2 28 22  0 22.0000000  0 01G17 -2.60,23.0,3.80
  20183113.750
 23  2 28 22 30 23.0000000  0 01G17 -2.600,25.0,3.80
  21160091.250
 23  2 28 23  0 20.0000000  0 01G17 -2.50,27.0,3.80
  18009182.250
 23  2 28 23 30 30.0000000  0 04G06G11G19G24 -2.400,28.5,3.80
  20312462.750
  21247838.750
  20705353.750
  24048025.750
 23  3  1  0  0 33.0000000  0 05G06G11G17G19G20 -2.200,28.5,3.80
  19818496.750
  19862367.750
  22284140.250
  20174870.250
  21369489.250
 23  3  1  0 30 36.0000000  0 05G05G06G12G19G20 -1.800,28.0,3.80
  23531606.750
  21141975.250
  20948613.250
  21452487.250
  21124532.250
 23  3  1  1  0 14.0000000  0 08G02G06G09G11G12G17G19G20 -1.83,21.0,3.80
  19954914.750
  23233257.250
  19630790.250
  21753713.750
  22158392.250
  19966969.750
  23567062.750
  21824117.250
 23  3  1  1 30  5.0000000  0 06G05G06G11G20G25G29 -1.86,18.5,3.80
  20625874.750
  22038350.250
  19980347.750
  19478466.250
  20917882.250
  23194589.250
 23  3  1  2  0  6.0000000  0 06G02G06G11G12G19G29 -1.89,18.0,3.80
  20491904.250
  20836732.250
  18321078.250
  19040069.750
  21529463.250
  20086285.750
 23  3  1  2 30  8.0000000  0 07G02G05G06G11G13G20G29 -1.91,17.0,3.80
  23737239.750
  21218953.750
  19547997.250
  22679920.250
  18802816.750
  21581254.250
  22957466.250
 23  3  1  3  0  9.0000000  0 07G05G11G12G15G18G25G29 -1.94,16.5,3.80
  18773964.250
  20935005.250
  22592437.750
  22041908.750
  23443214.250
  21655026.750
  19798824.250
 23  3  1  3 30  5.0000000  0 06G02G11G13G15G18G20 -1.97,15.5,3.80
  23696671.250
  18988405.750
  23723078.750
  18132241.750
  19859998.750
  23847688.750
 23  3  1  4  0 11.0000000  0 06G02G05G11G13G15G23 -2.000,15.0,3.80
  18327025.750
  23868686.250
  20818036.250
  18106261.750
  18085282.250
  21026803.750
 23  3  1  4 30  5.0000000  0 07G05G13G15G18G20G23G29 -2.02,14.0,3.80
  23607604.750
  22918177.750
  22386559.250
  18140709.750
  19671501.750
  19157714.250
  22774445.250
 23  3  1  5  0  5.0000000  0 07G05G10G13G15G18G23G29 -2.05,14.0,3.80
  21117454.250
  23921970.750
  19815602.750
  18731678.750
  20045829.750
  21061836.250
  20109622.750
 23  3  1  5 30  5.0000000  0 06G05G13G18G23G24G29 -2.07,14.0,3.80
  18667233.250
  23083759.250
  22070034.250
  23074788.250
  19165831.750
  23729662.250
 23  3  1  6  0  6.0000000  0 06G02G05G15G18G24G29 -2.10,13.5,3.80
  19564737.250
  22288958.750
  18643627.750
  18362611.250
  20792226.250
  21603918.750
 23  3  1  6 30  5.0000000  0 06G02G10G13G15G18G27 -2.12,13.5,3.80
  22849705.750
  23496653.250
  18506948.750
  22080474.250
  20902635.750
  18204252.250
 23  3  1  7  0  6.0000000  0 06G02G15G18G24G27G32 -2.15,14.0,3.80
  20406183.750
  19762076.250
  23817910.250
  18681246.750
  20705868.250
  20695246.750
 23  3  1  7 30  7.0000000  0 07G02G10G15G18G23G24G32 -2.17,13.5,3.80
  18035150.750
  21424367.750
  23439897.250
  20979600.250
  20476306.250
  21090962.750
  22358773.250
 23  3  1  8  0 11.0000000  0 06G08G10G18G22G23G27 -2.200,13.0,3.80
  22260971.750
  18519741.750
  19520442.250
  21024633.250
  18201913.750
  21632665.250
 23  3  1  8 30  5.0000000  0 06G12G22G23G24G28G32 -1.78,12.5,3.80
  23497174.250
  21020913.750
  19321002.250
  20511691.250
  22012556.750
  19594543.750
 23  3  1  9  0 10.0000000  0 07G18G21G22G23G25G28G32 -1.36,12.0,3.80
  18790167.250
  18500739.250
  22370362.750
  21863650.750
  18363579.250
  22806519.250
  21302201.750
 23  3  1  9 30  5.0000000  0 08G10G12G21G22G23G25G31G32 -0.94,11.5,3.80
  22476628.250
  19883131.250
  19613108.250
  23548901.750
  18305717.750
  19162566.750
  18134395.750
  22858886.750
 23  3  1 10  0  5.0000000  0 06G10G12G21G23G31G32 -0.52,11.0,3.80
  18379054.250
  21240795.750
  20899439.750
  20837225.750
  18681411.750
  18458001.250
 23  3  1 10 30  5.0000000  0 07G01G10G21G22G23G28G32 -0.10,11.0,3.80
  21884977.750
  20396219.250
  22314561.250
  19893350.250
  23350001.250
  19233515.250
  20008689.750
 23  3  1 11  0  5.0000000  0 08G01G10G12G21G22G26G28G32 0.32,10.0,3.80
  23001786.250
  22474516.250
  18539964.250
  23801103.250
  20927494.750
  23478279.750
  20303902.250
  21474928.750
 23  3  1 11 30  5.0000000  0 08G01G03G10G21G26G28G31G32 0.74,10.0,3.80
  18346605.750
  18252733.750
  18608633.750
  19349425.250
  23268549.750
  21511945.750
  21165859.750
  22909641.750
 23  3  1 12  0  7.0000000  0 07G03G16G22G26G28G31G32 1.16,10.0,3.80
  18149415.250
  20287002.750
  22875505.250
  23109774.250
  22832156.250
  22344067.250
  18358321.250
 23  3  1 12 30  5.0000000  0 07G03G16G22G26G28G31G32 1.58,9.5,3.80
  18147644.750
  19580127.250
  23803406.250
  23064209.250
  18143518.250
  23573535.750
  19761911.250
 23  3  1 13  0 15.0000000  0 04G03G04G16G31 +2.000,9.5,3.80
  20620581.750
  22217289.250
  21097891.250
  21078330.250
 23  3  1 13  6 20.0000000  0 00 +3.000,10.0,3.80,1,66969,-5051706,3880239,4,2.4
 23  3  1 16  0 22.0000000  0 01G04 0.93,20.0,3.80
  23411663.250
 23  3  1 16 30 13.0000000  0 00 0.57,18.5,3.80
 23  3  1 17  0 13.0000000  0 00 0.22,18.0,3.80
 23  3  1 17 30 21.0000000  0 01G09 -0.14,19.5,3.80
  20556273.250
 23  3  1 18  0 13.0000000  0 00 -0.50,20.5,3.80
 23  3  1 18 30 13.0000000  0 00 -0.86,20.5,3.80
 23  3  1 19  0 13.0000000  0 00 -1.21,20.5,3.80
 23  3  1 19 30 13.0000000  0 00 -1.57,21.0,3.80
 23  3  1 20  0 13.0000000  0 00 -1.93,21.0,3.80
 23  3  1 20 30 13.0000000  0 00 -2.28,21.0,3.80
 23  3  1 21  0 13.0000000  0 00 -2.64,21.5,3.80
 23  3  1 21 30 22.0000000  0 01G30 -3.000,21.5,3.80
  21109456.250
 23  3  1 22  0 13.0000000  0 00 -3.00,21.5,3.80
 23  3  1 22 30 17.0000000  0 01G24 -3.00,21.5,3.80
  23636680.750
 23  3  1 23  0 13.0000000  0 00 -3.00,21.5,3.80
 23  3  1 23 30 13.0000000  0 00 -3.00,21.5,3.80
 23  3  2  0  0 22.0000000  0 01G20 -3.00,21.5,3.80
  17997462.750
 23  3  2  0 30 13.0000000  0 00 -3.00,21.5,3.80
 23  3  2  1  0 20.0000000  0 01G05 -3.000,22.0,3.80
  21086239.250
 23  3  2  1 30 13.0000000  0 00 -3.01,21.5,3.80
 23  3  2  2  0 13.0000000  0 00 -3.01,21.5,3.80
 23  3  2  2 30 22.0000000  0 01G11 -3.02,22.0,3.80
  21977567.750
 23  3  2  3  0 13.0000000  0 00 -3.02,21.5,3.80
 23  3  2  3 30 13.0000000  0 00 -3.03,22.0,3.80
 23  3  2  4  0 13.0000000  0 00 -3.04,21.5,3.80
 23  3  2  4 30 22.0000000  0 01G29 -3.04,21.5,3.80
  20969085.750
 23  3  2  5  0 13.0000000  0 00 -3.05,21.5,3.80
 23  3  2  5 21 24.0000000  0 00 0.00,22.5,3.80,0
 23  3  2  6 22 10.0000000  0 00 0.00,22.0,3.80,0
 23  3  2  7 22 10.0000000  0 00 0.00,22.5,3.80,0
 23  3  2  8 22 10.0000000  0 00 0.00,22.5,3.80,0
 23  3  2  9 22 10.0000000  0 00 0.00,22.5,3.80,0
 23  3  2 10 22 10.0000000  0 00 0.00,22.5,3.80,0
 23  3  2 11 22 10.0000000  0 00 0.00,22.0,3.80,0
 23  3  2 12 22 10.0000000  0 00 0.00,22.0,3.80,0
 23  3  2 13 22 10.0000000  0 00 0.00,21.5,3.80,0
 23  3  2 14 22 10.0000000  0 00 0.00,21.5,3.80,0
 23  3  2 15 22 10.0000000  0 00 0.00,22.0,3.80,0
 23  3  2 16 22 10.0000000  0 00 0.00,22.0,3.80,0
 23  3  2 17 22 10.0000000  0 00 0.00,22.5,3.80,0
 23  3  2 18 22 10.0000000  0 00 0.00,22.5,3.80,0
 23  3  2 19 22 10.0000000  0 00 0.00,23.0,3.80,0
 23  3  2 20 22 10.0000000  0 00 0.00,23.0,3.80,0
 23  3  2 21 22 10.0000000  0 00 0.00,23.0,3.80,0
 23  3  2 22 22 10.0000000  0 00 0.00,22.5,3.80,0
 23  3  2 23 22 10.0000000  0 00 0.00,22.5,3.80,0
 23  3  3  0 22 10.0000000  0 00 0.00,22.5,3.80,0
 23  3  3  1 22 10.0000000  0 00 0.00,22.5,3.80,0
 23  3  3  2 22 10.0000000  0 00 0.00,22.5,3.80,0
 23  3  3  3 21 34.0000000  0 00 0.00,15.0,3.80,1,66962,-5051710,3880227,6,2.4
 23  3  3  6 30  9.0000000  0 08G02G10G15G18G23G24G27G32 -3.37,9.5,3.80
  19358204.750
  19593297.250
  18628277.250
  23219493.750
  23753372.250
  18663524.750
  20404332.750
  21065911.250
 23  3  3  7  0 10.0000000  0 06G02G10G15G18G24G32 -3.37,9.0,3.80
  20730674.250
  19357752.750
  20108767.750
  18000030.750
  18646417.250
  20484398.250
 23  3  3  7 30  8.0000000  0 07G10G18G22G23G24G27G32 -3.38,8.5,3.80
  18748881.250
  18677862.750
  21562930.750
  23959263.750
  18606359.250
  21068770.750
  19628693.750
 23  3  3  8  0  6.0000000  0 06G10G18G22G24G27G32 -3.39,8.0,3.80
  18017290.750
  19428185.750
  20400794.750
  18775995.250
  21437510.250
  18745056.250
 23  3  3  8 30  8.0000000  0 06G08G10G12G22G23G24 -3.39,7.5,3.80
  21990174.750
  23330450.750
  21740863.250
  19288842.250
  23907101.250
  19228822.750
 23  3  3  9  0 11.0000000  0 07G10G12G22G25G28G31G32 -3.400,7.5,3.80
  21024577.750
  18855304.750
  22502955.750
  18398546.750
  22790654.750
  23663602.750
  21541721.250
 23  3  3  9 30 11.0000000  0 06G10G12G22G28G31G32 +1.600,7.5,3.80
  21024661.750
  24272312.250
  21917986.250
  21710258.250
  22343783.250
  21339780.750
 23  3  3 10  0  9.0000000  0 07G10G12G21G25G28G31G32 1.60,7.0,3.80
  21958964.250
  18692375.750
  18316601.250
  23386502.750
  21562817.250
  21914933.750
  21927079.250
 23  3  3 10 30  5.0000000  0 06G01G21G22G25G28G32 1.60,7.0,3.80
  23056236.250
  23601648.250
  21071940.750
  22357946.250
  20400049.250
  21303563.750
 23  3  3 11  0 11.0000000  0 04G01G21G26G32 +1.600,7.0,3.80
  20150537.750
  21024869.250
  20222159.750
  18672082.750
 23  3  3 11 30  5.0000000  0 07G01G22G25G26G28G31G32 1.53,7.0,3.80
  21945983.750
  19374103.250
  21579446.750
  20415673.750
  19067061.250
  18666467.750
  20502785.750
 23  3  3 12  0  8.0000000  0 07G01G03G22G26G28G31G32 1.47,7.0,3.80
  21916096.250
  19761906.750
  18763242.250
  18709521.750
  18824505.250
  18288712.250
  20368332.750
 23  3  3 12 30 12.0000000  0 06G03G04G16G22G28G31 +1.400,7.0,3.80
  19856231.750
  22015694.250
  21037896.250
  19741253.250
  20174749.750
  19567248.750
 23  3  3 13  0 11.0000000  0 05G03G16G26G28G31 +1.600,7.0,3.80
  20842297.750
  21023493.250
  19713444.250
  22120947.750
  21489999.250
 23  3  3 13 30 11.0000000  0 06G03G16G22G26G28G31 +1.600,7.0,3.80
  20023712.750
  19076789.750
  21024521.250
  18847329.250
  21904800.250
  21279927.750
 23  3  3 14  0 34.0000000  0 04G16G22G26G31 +1.400,14.5,3.80
  21091789.750
  18434656.250
  21935667.250
  24710330.250
 23  3  3 14 30 22.0000000  0 01G04 1.50,19.0,3.80
  19583822.750
 23  3  3 15  0 14.0000000  0 07G07G08G09G16G26G27G31 +1.600,21.5,3.80
  21886560.750
  21000075.750
  19754972.250
  18601963.750
  21025063.750
  19680360.250
  23816990.250
 23  3  3 15 30 15.0000000  0 05G04G07G09G16G27 +1.600,16.0,3.80
  20460894.750
  22968123.250
  21024495.750
  21136624.750
  21027003.750
 23  3  3 16  0 27.0000000  0 04G08G16G27G30 +1.000,15.0,3.80
  20135283.750
  21199791.750
  20103788.750
  18367246.250
 23  3  3 16 30 24.0000000  0 05G04G08G09G16G27 +1.000,15.0,3.80
  21612115.250
  20265866.250
  20692996.750
  22788900.750
  21032570.250
 23  3  3 17  0 40.0000000  0 04G08G09G14G30 +0.800,17.0,3.80
  18608429.250
  19619574.250
  22181975.250
  21273127.250
 23  3  3 17 30 11.0000000  0 05G07G08G09G14G21 +1.600,18.5,3.80
  20597672.750
  21025635.750
  22521390.750
  23365996.250
  22829613.750
 23  3  3 18  0  5.0000000  0 07G01G07G08G14G17G21G30 1.45,17.0,3.80
  20933277.750
  23906677.250
  19226502.250
  20082662.750
  21341115.750
  19694950.250
  19025694.750
 23  3  3 18 30 10.0000000  0 06G01G08G14G17G21G30 1.31,16.5,3.80
  23555924.750
  23886022.250
  23106897.250
  23946190.750
  23114001.750
  22112958.750
 23  3  3 19  0 11.0000000  0 06G01G07G08G14G17G30 +1.160,15.5,3.80
  20708209.750
  20199651.750
  22941165.750
  20502133.750
  21017924.750
  19767664.750
 23  3  3 19 30 12.0000000  0 05G01G07G13G14G17 +1.600,14.5,3.80
  20958113.250
  21681338.250
  23118690.750
  20731884.250
  21043946.250
 23  3  3 20  0 10.0000000  0 06G01G07G14G17G19G30 1.60,13.5,3.80
  20116985.250
  21874148.250
  19567632.750
  19778536.750
  21671713.250
  20061660.750
 23  3  3 20 30 11.0000000  0 04G01G06G14G19 +1.600,14.0,3.80
  21026960.750
  22946387.750
  19892511.750
  21258089.750
 23  3  3 21  0 11.0000000  0 05G01G06G17G19G30 +1.600,15.5,3.80
  22822177.750
  22648877.250
  21026705.750
  21541115.750
  23245646.750
 23  3  3 21 30 11.0000000  0 05G01G03G06G17G30 +1.600,15.0,3.80
  23351076.750
  23180907.750
  21026341.250
  20631095.750
  23843615.250
 23  3  3 22  0 11.0000000  0 05G03G06G14G19G24 +1.600,15.0,3.80
  21027527.750
  18267484.750
  19374685.250
  18204081.250
  20938413.250
 23  3  3 22 30 14.0000000  0 04G03G11G14G17 +1.600,15.0,3.80
  22128817.750
  21026945.750
  21107415.250
  20170970.250
 23  3  3 23  0 20.0000000  0 04G03G11G17G24 1.4996,15.5,3.80
  23210755.250
  20554158.750
  21094515.750
  22578999.750
 23  3  3 23 30 12.0000000  0 05G06G11G17G19G24 +1.400,16.5,3.80
  21042145.250
  21618290.250
  23378686.250
  21427994.250
  24928533.750
 23  3  4  0  0 11.0000000  0 04G06G11G19G20 +1.600,16.0,3.80
  20691791.750
  20396510.750
  21027901.250
  21613207.750
 23  3  4  0 30 13.0000000  0 05G05G06G11G17G20 +0.800,15.5,3.80
  22636987.250
  21050178.750
  19973372.250
  23688457.250
  20446539.250
 23  3  4  1  0 10.0000000  0 07G06G09G11G12G19G20G29 1.00,13.0,3.80
  22915395.750
  18917464.750
  21181304.250
  21574363.750
  23278546.250
  20993295.750
  19184823.250
 23  3  4  1 30 14.0000000  0 06G02G05G06G11G19G20 +1.200,13.5,3.80
  21037445.250
  18376575.250
  20495529.250
  18230687.250
  21040457.750
  23541590.250
 23  3  4  2  0 26.0000000  0 04G02G05G20G25 +0.800,16.0,3.80
  23916138.250
  21260236.750
  21196558.750
  22784280.750
 23  3  4  2 30  8.0000000  0 06G02G05G11G12G13G29 1.00,14.5,3.80
  18797325.250
  22424503.750
  18197935.250
  19575258.750
  19612503.250
  23877789.250
 23  3  4  3  0  5.0000000  0 06G02G05G12G13G15G25 1.20,13.5,3.80
  20843449.250
  19045818.250
  23285112.250
  21117540.250
  21727127.750
  22240664.250
 23  3  4  3 30 11.0000000  0 06G02G15G20G23G25G29 +1.400,13.0,3.80
  23933553.750
  18073684.250
  18587581.250
  21025346.750
  20774388.250
  22913338.750
 23  3  4  4  0  8.0000000  0 07G05G11G13G15G20G23G29 1.18,12.5,3.80
  18351297.750
  21380888.250
  18168627.250
  23947655.250
  20282382.750
  20853808.250
  23746541.750
 23  3  4  4 30 11.0000000  0 06G02G13G15G20G23G29 +0.960,12.0,3.80
  21060291.250
  20960600.250
  20206196.750
  18054100.750
  22831948.750
  21018364.750
 23  3  4  5  0 11.0000000  0 05G02G10G13G18G29 +1.400,11.0,3.80
  20988808.750
  18827289.750
  21278271.750
  21025623.250
  21745885.250
 23  3  4  5 30 11.0000000  0 05G02G10G13G18G29 +1.400,10.0,3.80
  21764305.250
  18531186.250
  22584586.250
  21025755.250
  23363397.250
 23  3  4  6  0  5.0000000  0 07G02G10G13G15G18G23G29 1.40,9.0,3.80
  23480906.250
  18983136.750
  18850245.250
  22617568.250
  21967981.750
  22788450.750
  19823236.750
 23  3  4  6 30  7.0000000  0 08G02G10G15G18G23G24G29G32 1.40,8.5,3.80
  18251280.250
  18280538.250
  23531039.250
  22023083.250
  22496892.750
  23348250.250
  21110694.750
  19704579.750
 23  3  4  7  0  7.0000000  0 06G02G15G22G23G24G32 1.40,7.5,3.80
  18707871.250
  18088639.250
  20312926.250
  21820035.250
  22442994.750
  18201470.750
 23  3  4  7 30 11.0000000  0 05G18G22G24G27G32 +1.400,6.5,3.80
  18397855.250
  21025617.250
  18229996.750
  20742144.250
  19129977.250
 23  3  4  8  0  9.0000000  0 06G10G18G22G27G28G32 1.20,6.0,3.80
  19605582.250
  21233928.250
  21933757.250
  23195957.250
  23223730.750
  20323748.750
 23  3  4  8 30  9.0000000  0 07G18G22G24G27G28G31G32 1.00,5.0,3.80
  20521625.250
  19247256.750
  19407992.250
  22080758.750
  20012742.250
  21062315.250
  23967789.250
 23  3  4  9  0 13.0000000  0 04G10G23G25G28 +0.800,4.5,3.80
  19640764.750
  21051892.750
  22880014.750
  21262242.750
 23  3  4  9 30  9.0000000  0 07G01G10G21G25G28G31G32 1.07,4.0,3.80
  21494834.250
  18237518.750
  21122354.250
  20512572.250
  18780773.250
  19397848.750
  18517627.750
 23  3  4 10  0  8.0000000  0 08G01G10G12G22G23G28G31G32 1.33,3.5,3.80
  23618681.750
  21493307.750
  18159016.250
  21531933.250
  18180702.250
  20955729.250
  21283209.250
  21401896.750
 23  3  4 10 30 25.0000000  0 05G10G25G28G31G32 +1.600,3.5,3.80
  21288993.750
  21672301.750
  19696686.250
  19727800.250
  20658041.250
 23  3  4 11  0 11.0000000  0 04G10G22G25G26 +1.400,2.5,3.80
  21373856.250
  19362248.750
  21025076.250
  21421434.750
 23  3  4 11 30 11.0000000  0 07G03G21G22G26G28G31G32 +1.400,2.5,3.80
  19229698.250
  21025031.750
  23328458.750
  18216071.250
  23069548.250
  22642255.750
  18522819.750
 23  3  4 12  0 11.0000000  0 06G03G16G21G22G26G31 +1.400,1.5,3.80
  19160887.250
  21023618.250
  22521431.250
  20985739.750
  18097415.250
  23839127.750
 23  3  4 12 30 14.0000000  0 04G03G16G28G32 +1.600,1.5,3.80
  18910512.250
  19960091.250
  19371774.750
  21028099.250
 23  3  4 13  0 39.0000000  0 05G03G04G16G28G31 +0.800,1.5,3.80
  21429399.250
  22612090.750
  21438822.250
  22812514.750
  22163186.750
 23  3  4 13 30 40.0000000  0 05G03G16G22G26G31 +0.800,2.0,3.80
  20395027.250
  19267438.250
  21438238.250
  19201826.750
  21681921.250
 23  3  4 13 31 30.0000000  0 00 +4.000,2.5,3.80,1,74581,-5049861,3882555,6,1.4
 23  3  4 15  0 11.0000000  0 04G07G09G16G27 -2.200,13.0,3.80
  23151646.750
  21030167.750
  20047305.250
  20958620.750
 23  3  4 15 30 15.0000000  0 05G04G08G09G16G27 +1.400,14.5,3.80
  20358884.750
  21503890.250
  20816190.750
  21097524.250
  20835281.250
 23  3  4 16  0  5.0000000  0 07G07G08G09G16G26G27G30 1.40,15.0,3.80
  18031743.750
  22816818.250
  22709248.750
  18087911.250
  21189162.750
  22882732.750
  20999054.250
 23  3  4 16 30  8.0000000  0 06G07G08G09G16G27G30 1.40,11.5,3.80
  19566398.750
  18666300.250
  19169206.750
  21355103.250
  19534681.250
  22223253.750
 23  3  4 17  0  9.0000000  0 08G04G07G08G09G14G21G27G30 1.40,18.5,3.80
  22977393.250
  20651024.250
  20367300.750
  21441494.250
  23806896.750
  23248487.250
  21994428.250
  22887560.250
 23  3  4 17 30  8.0000000  0 07G01G04G08G09G16G27G30 1.40,21.5,3.80
  23406855.250
  23479585.250
  20046841.250
  21595477.750
  18403676.750
  22305498.250
  21192732.250
 23  3  4 18  0 11.0000000  0 04G07G14G21G30 +1.400,20.5,3.80
  21024271.250
  23103562.250
  22739637.250
  22045083.750
 23  3  4 18 30  5.0000000  0 07G01G07G08G09G13G17G21 1.27,20.0,3.80
  23918162.750
  22289384.250
  18518526.250
  20611028.750
  19417813.750
  18314623.750
  23593997.750
 23  3  4 19  0 10.0000000  0 07G01G07G08G13G17G19G21 1.13,21.5,3.80
  21647800.250
  21316392.250
  18118987.750
  23499765.750
  21939512.250
  18882118.250
  22261213.750
 23  3  4 19 30 11.0000000  0 07G01G07G08G14G17G19G30 +1.000,22.0,3.80
  21417916.250
  22298575.750
  19391940.750
  21164945.250
  21459766.750
  23886286.250
  21018265.750
 23  3  4 20  0  8.0000000  0 06G07G13G14G17G19G30 1.00,21.5,3.80
  18748472.250
  19328585.750
  22248496.250
  22451725.250
  18256598.750
  22856428.750
 23  3  4 20 30 12.0000000  0 05G13G14G17G19G21 +1.000,23.0,3.80
  18681377.750
  20887820.750
  21036357.250
  22148232.750
  18945287.250
 23  3  4 21  0  5.0000000  0 06G01G03G06G17G19G30 1.20,26.5,3.80
  22774782.250
  18002545.750
  22312083.750
  20859773.250
  21282843.750
  23214697.750
 23  3  4 21 30 11.0000000  0 04G03G06G14G19 +1.400,28.5,3.80
  23726657.750
  21492790.250
  21407662.750
  21025970.750
 23  3  4 22  0 16.0000000  0 06G03G06G11G14G17G19 +0.800,28.5,3.80
  22674858.250
  19829447.750
  22785894.250
  21126485.750
  20615825.250
  19814112.250
 23  3  4 22 30 13.0000000  0 05G06G11G14G17G24 +1.600,25.5,3.80
  19491618.250
  21710261.250
  22064165.750
  21048619.750
  22627828.750
 23  3  4 23  0 17.0000000  0 04G06G12G17G24 +0.800,23.5,3.80
  21070176.250
  23917294.250
  23137033.250
  24623912.750
 23  3  4 23 30 11.0000000  0 05G06G11G17G19G20 +1.600,23.0,3.80
  20649723.250
  21104601.750
  23014812.750
  21030754.750
  22946381.250
 23  3  5  0  0  5.0000000  0 07G06G11G12G17G19G20G25 1.40,14.5,3.80
  22706091.750
  22300830.750
  23026896.250
  19242591.750
  23035992.250
  23419522.250
  18914300.250
 23  3  5  0 30  5.0000000  0 07G05G06G11G12G17G19G20 1.20,8.5,3.80
  18126170.750
  22800944.750
  21629005.750
  22089731.250
  19454786.750
  23110742.250
  22009215.750
 23  3  5  1  0 12.0000000  0 06G05G06G09G11G19G20 +1.000,9.0,3.80
  22505665.750
  23116335.250
  18997867.250
  21300080.750
  23502999.250
  21038111.750
 23  3  5  1 30  5.0000000  0 08G02G05G06G11G12G19G20G25 1.04,14.0,3.80
  20220420.250
  23543029.250
  19892819.250
  23557054.250
  18134891.750
  20467032.250
  22817541.750
  18300519.250
 23  3  5  2  0 19.0000000  0 06G02G06G11G20G25G29 1.08,13.5,3.80
  23747274.750
  18919165.750
  22183450.250
  21153590.750
  22754434.250
  23111508.250
 23  3  5  2 30  5.0000000  0 07G05G11G12G15G20G25G29 1.12,13.0,3.80
  23733917.250
  19607709.250
  21043405.750
  21612661.750
  18458912.750
  20243797.750
  19090868.750
 23  3  5  3  0  5.0000000  0 08G02G05G11G13G15G20G25G29 1.16,12.5,3.80
  21749283.250
  20052753.250
  22490701.250
  21964002.250
  22526877.750
  21333564.750
  23335157.750
  20651121.750
 23  3  5  3 30 11.0000000  0 04G11G13G20G25 +1.200,12.0,3.80
  22145742.250
  20060049.750
  21024963.750
  23223031.750
 23  3  5  4  0  8.0000000  0 06G02G05G13G15G20G29 1.13,11.5,3.80
  18856093.250
  18928748.250
  18616574.250
  18325526.250
  20887155.250
  18259242.250
 23  3  5  4 30  8.0000000  0 06G02G05G13G15G18G20 1.07,11.0,3.80
  20408176.250
  21427200.750
  20351877.250
  19518697.750
  21071912.750
  23539723.750
 23  3  5  5  0  5.0000000  0 06G02G05G13G15G18G29 1.00,10.5,3.80
  21790803.750
  23650520.750
  22148793.750
  20767662.250
  21724725.750
  22657315.250
 23  3  5  5 30  7.0000000  0 07G02G05G10G13G15G18G23 0.93,10.0,3.80
  23272998.750
  19791442.750
  19873445.250
  18176580.750
  22294465.250
  22427605.750
  23389297.250
 23  3  5  6  0  7.0000000  0 06G02G13G15G18G23G29 0.87,9.5,3.80
  18749961.250
  20189881.250
  23906266.750
  23128589.250
  23910753.750
  21173046.750
 23  3  5  6 30  5.0000000  0 07G02G10G15G18G23G24G32 0.80,9.0,3.80
  20112260.750
  19924400.750
  19417569.250
  23796331.750
  18210301.750
  19021017.250
  21297557.250
 23  3  5  7  0  5.0000000  0 07G10G15G18G23G24G27G32 0.73,8.5,3.80
  19631870.750
  20855372.750
  18599038.250
  18423820.750
  19040012.750
  21268283.750
  20684137.250
 23  3  5  7 30  9.0000000  0 06G10G18G23G24G27G32 0.67,8.5,3.80
  19231025.250
  19553417.750
  18616712.250
  19307684.750
  21840160.750
  20063437.250
 23  3  5  8  0 12.0000000  0 06G10G18G22G23G24G32 +0.600,7.5,3.80
  21031809.750
  22872492.750
  23291447.750
  21089255.750
  22090469.750
  21731943.750
 23  3  5  8 30  5.0000000  0 06G10G18G23G24G28G32 0.80,7.5,3.80
  23854500.750
  21228638.250
  18636738.250
  20085760.750
  20378301.250
  18464316.750
 23  3  5  9  0  7.0000000  0 06G10G12G22G25G28G32 1.00,7.0,3.80
  23155919.750
  20827119.750
  18489030.750
  20279126.750
  18631519.250
  23631657.250
 23  3  5  9 30 11.0000000  0 05G10G12G22G31G32 +1.200,6.5,3.80
  20787140.250
  23887248.250
  21492771.250
  21769999.750
  21024874.250
 23  3  5 10  0  5.0000000  0 08G10G12G21G22G23G25G31G32 1.27,6.0,3.80
  21748325.750
  18359347.750
  23938925.250
  21664912.250
  18505528.750
  22916720.250
  21361410.750
  21594955.750
 23  3  5 10 30  5.0000000  0 08G10G21G22G25G26G28G31G32 1.33,6.0,3.80
  21158847.750
  22755417.750
  20105352.750
  21443814.750
  23183192.750
  19437933.750
  19439592.250
  20453562.250
 23  3  5 11  0 12.0000000  0 04G25G28G31G32 +1.400,5.5,3.80
  23542823.750
  21287105.250
  21027643.250
  22596713.750
 23  3  5 11 30  6.0000000  0 06G01G22G26G28G31G32 1.40,5.0,3.80
  19354673.250
  22631411.250
  23357895.750
  22418732.750
  21962530.750
  23885436.750
 23  3  5 12  0 11.0000000  0 05G22G26G28G31G32 +1.400,4.5,3.80
  21445617.750
  21115509.750
  21611905.750
  21027813.750
  23176198.750
 23  3  5 12 30  7.0000000  0 06G03G22G26G28G31G32 1.40,4.5,3.80
  18488408.750
  18578059.250
  23381091.250
  19100294.750
  18450909.250
  20770002.750
 23  3  5 13  0 12.0000000  0 05G03G22G26G28G31 +1.400,4.5,3.80
  20326943.750
  21027755.750
  19187116.250
  21809189.250
  21139598.750
 23  3  5 13 30 10.0000000  0 06G03G04G16G22G26G31 4.05,4.5,3.80
  18668080.250
  18479008.750
  23402049.250
  19760692.750
  23473743.750
  19991742.250
 23  3  5 13 40 54.0000000  0 00 +5.000,5.0,3.80,1,66956,-5051732,3880254,4,2.4
 23  3  5 14 30  5.0000000  0 06G03G04G08G16G26G27 -0.83,6.5,3.80
  18227465.750
  21185774.250
  18530744.750
  20948604.750
  22893707.250
  22925894.750
 23  3  5 15  0 13.0000000  0 04G07G08G09G27 -4.400,9.0,3.80
  23153822.250
  22172300.250
  21048084.250
  20984328.250
 23  3  5 15 30  8.0000000  0 06G04G07G08G09G16G27 -2.95,11.5,3.80
  21986867.250
  18179126.250
  22954498.750
  22342539.750
  22784737.750
  22376940.250
 23  3  5 16  0  5.0000000  0 06G07G08G09G16G27G30 -1.51,14.0,3.80
  19697088.250
  18511539.250
  18486857.750
  19995601.750
  18685443.750
  22628062.750
 23  3  5 16 30 28.0000000  0 07G04G07G08G09G16G27G30 -0.04,15.0,3.80
  22407586.750
  21555232.750
  20728606.250
  21320294.750
  23600952.250
  21713973.750
  18162103.250
 23  3  5 17  0 10.0000000  0 07G04G07G08G14G21G27G30 +1.400,14.0,3.80
  23599694.250
  21027622.750
  20851911.250
  18135160.750
  23578524.750
  22571200.750
  23192858.750
 23  3  5 17 30  5.0000000  0 08G04G07G08G09G14G21G27G30 1.13,15.5,3.80
  18909088.750
  20711374.250
  21375708.750
  22987362.750
  23339641.750
  22818595.750
  23704281.750
  22312937.750
 23  3  5 18  0  5.0000000  0 07G01G07G08G14G17G21G30 0.87,18.5,3.80
  20994046.750
  18291106.250
  19839424.750
  20264466.250
  21408959.750
  19951266.750
  19206550.750
 23  3  5 18 30 14.0000000  0 06G08G09G14G17G21G30 +0.600,21.0,3.80
  23246721.250
  19356689.250
  22013798.250
  22759283.250
  22175209.250
  21067349.250
 23  3  5 19  0  6.0000000  0 08G01G08G13G14G15G17G21G30 0.80,23.5,3.80
  22031235.250
  18729430.750
  23939288.250
  21851439.750
  19846990.250
  22306147.250
  22772106.750
  21227684.250
 23  3  5 19 30  9.0000000  0 06G01G14G17G19G21G30 1.00,26.0,3.80
  20259033.750
  19976682.750
  20257779.750
  22602857.250
  21904299.750
  19921557.250
 23  3  5 20  0 11.0000000  0 07G01G07G13G14G17G21G30 +1.200,27.0,3.80
  21025676.250
  23027840.750
  23516032.250
  20339673.250
  20537638.750
  23408524.750
  21067818.750
 23  3  5 20 30  5.0000000  0 06G01G14G17G21G24G30 1.20,28.0,3.80
  23350102.250
  22027486.750
  22169479.750
  20227989.250
  20541890.750
  23658109.250
 23  3  5 21  0  5.0000000  0 06G01G03G06G14G17G19 1.20,29.0,3.80
  22230061.750
  23227085.750
  21474285.750
  20158681.750
  20193236.250
  20525881.250
 23  3  5 21 30  5.0000000  0 06G03G11G14G17G19G24 1.20,29.0,3.80
  20680469.750
  21817606.750
  18473588.750
  18281313.250
  23970266.750
  20761205.750
 23  3  5 22  0 11.0000000  0 05G06G11G14G17G19 +1.200,26.0,3.80
  21026239.250
  23895964.250
  22501647.250
  21932742.750
  21061898.750
 23  3  5 22 30 11.0000000  0 05G03G06G11G14G17 +1.200,24.0,3.80
  24639613.250
  21026477.250
  23136496.250
  23761938.250
  22665470.250
 23  3  5 23  0  7.0000000  0 06G06G11G17G19G20G24 1.10,23.5,3.80
  18623600.750
  19862363.750
  20737971.750
  19014888.750
  22237969.750
  22230431.750
 23  3  5 23 30 15.0000000  0 04G06G17G19G20 +1.000,24.0,3.80
  19012841.250
  21404345.750
  19388093.750
  21092823.250
 23  3  6  0  0 32.0000000  0 04G06G12G17G19 +0.800,24.0,3.80
  21333336.750
  21478914.750
  23881682.750
  21656900.250
 23  3  6  0 30 10.0000000  0 07G02G05G06G11G12G17G20 0.85,23.5,3.80
  19069300.750
  22888490.750
  21846343.750
  20576345.250
  21014200.750
  18512472.750
  20860265.250
 23  3  6  1  0  6.0000000  0 06G02G05G06G11G12G20 0.90,23.0,3.80
  22756812.750
  20234479.250
  21100763.250
  19207735.250
  19615976.250
  18867243.250
 23  3  6  1 30  5.0000000  0 08G02G05G09G11G12G19G20G25 0.95,16.0,3.80
  20352348.750
  23652171.250
  21346227.250
  23826991.250
  18443443.750
  20821569.250
  23034494.750
  18536967.250
 23  3  6  2  0  5.0000000  0 08G02G05G11G12G13G20G25G29 1.00,9.5,3.80
  21477552.250
  18861406.750
  20048129.750
  21056416.750
  22701705.250
  18994736.750
  20620085.250
  20792030.750
 23  3  6  2 30  5.0000000  0 08G02G05G12G13G15G20G25G29 1.05,13.5,3.80
  20575446.750
  18338186.750
  21804447.250
  21240459.750
  22038340.250
  19141840.750
  20956603.250
  19588769.750
 23  3  6  3  0  8.0000000  0 08G02G05G11G13G15G18G20G29 1.10,19.5,3.80
  19258165.250
  23660831.250
  20162762.250
  19411096.750
  19929246.250
  21573081.250
  19008150.750
  18156450.250
 23  3  6  3 30  9.0000000  0 07G02G05G11G13G15G18G20 1.15,18.0,3.80
  23014965.750
  22270419.750
  19123168.250
  22843436.250
  22970444.750
  18833844.250
  18005636.250
 23  3  6  4  0 19.0000000  0 04G02G13G15G20 +1.200,15.5,3.80
  21172491.250
  20940002.750
  20576707.750
  23362515.250
 23  3  6  4 30 11.0000000  0 05G02G05G13G18G20 +1.000,15.5,3.80
  21038609.750
  22182116.250
  21025921.250
  21609096.750
  18306645.750
 23  3  6  5  0 40.0000000  0 04G02G05G13G29 +0.200,17.0,3.80
  21429106.750
  23404397.250
  21864512.250
  22432730.250
 23  3  6  5 30 15.0000000  0 05G02G10G13G15G18 +1.000,17.5,3.80
  21979151.750
  18415320.250
  22956085.750
  21016092.250
  21025745.250
 23  3  6  6  0 19.0000000  0 02G18G27 +0.600,18.0,3.80
  21163516.750
  24595395.250
 23  3  6  6 30 24.0000000  0 07G02G08G10G15G23G27G32 +0.600,18.5,3.80
  21941128.750
  24448690.250
  21524878.750
  21262037.250
  19876652.250
  22549747.250
  22847544.750
 23  3  6  7  0 13.0000000  0 04G08G10G23G27 +0.600,18.5,3.80
  25295469.750
  22188463.250
  21055630.250
  23948041.250
 23  3  6  7 30 22.0000000  0 02G10G27 +0.200,18.5,3.80
  21137366.750
  23904873.750
 23  3  6  8  0 40.0000000  0 03G08G10G23 +0.000,19.0,3.80
  25679848.250
  21455497.250
  21618042.750
 23  3  6  8 30 16.0000000  0 04G10G24G31G32 +1.000,19.0,3.80
  21027330.750
  23426449.250
  24455374.750
  21621773.250
 23  3  6  9  0 15.0000000  0 05G10G21G23G24G32 +1.000,19.0,3.80
  20574543.750
  23898117.750
  22183883.750
  18167908.750
  21027575.250
 23  3  6  9 30 40.0000000  0 04G10G12G21G22 +0.000,19.5,3.80
  18754088.750
  21772082.250
  21458636.250
  19353527.750
 23  3  6 10  0 20.0000000  0 02G01G21 +0.400,19.0,3.80
  20819038.750
  21108208.750
 23  3  6 10 30 15.0000000  0 04G01G12G22G28 +0.800,19.0,3.80
  23043454.250
  18396283.750
  21024892.750
  20366414.750
 23  3  6 11  0 27.0000000  0 05G01G03G21G22G25 +0.400,19.0,3.80
  23608962.250
  18006824.750
  24571193.250
  21307007.750
  23121011.750
 23  3  6 11 30 18.0000000  0 05G22G25G26G31G32 +0.800,19.0,3.80
  20459013.250
  22966493.250
  21025168.250
  19813748.750
  21777219.250
 23  3  6 12  0 21.0000000  0 04G04G22G26G31 +0.800,19.0,3.80
  24249418.250
  21171652.750
  20706281.750
  20783586.250
 23  3  6 12 30 22.0000000  0 05G04G16G22G26G31 +0.800,19.0,3.80
  22908511.250
  21813982.750
  21227738.250
  19927824.250
  21124107.250
 23  3  6 13  0 19.0000000  0 02G22G31 +0.200,19.0,3.80
  20973097.750
  21089726.250
