     2.00           OBSERVATION DATA    G(GPS)              RINEX VERSION / TYPE
goGPS-java                              17-Apr-24 14:09:36  PGM / RUN BY / DATE
                                                            MARKER NAME
                                                            MARKER NUMBER
                    Lotek Wireless Inc.                     OBSERVER / AGENCY
7                                                           REC # / TYPE / VERS
                                                            ANT # / TYPE
    73993.0000 -5057250.0000  3872763.0000                  APPROX POSITION XYZ
        0.0000        0.0000        0.0000                  ANTENNA: DELTA H / E / N
     2     0                                                WAVELENGTH FACT L1/2
     1    C1                                                # / TYPES OF OBSERV
  2023     2    18    20    36   27.0000000     UTC         TIME OF FIRST OBS
                                                            END OF HEADER
 23  2 18 21  0 13.0000000  0 00 0.27,22.5,3.75
 23  2 18 21 30 13.0000000  0 00 0.62,22.0,3.75
 23  2 18 22  0 22.0000000  0 01G17 0.97,22.5,3.75
  22263610.250
 23  2 18 22 30 13.0000000  0 00 1.31,21.5,3.75
 23  2 18 23  0 13.0000000  0 00 1.65,21.5,3.75
 23  2 18 23 30 13.0000000  0 06G03G06G11G17G19G24 +2.000,15.5,3.75
  24343187.250
  20746541.250
  22861875.750
  22375237.250
  21024664.250
  23903492.750
 23  2 19  0  0  9.0000000  0 07G06G11G12G14G17G19G20 2.02,12.5,3.75
  20984312.750
  22247030.750
  23728314.250
  18793869.750
  23111261.750
  21366576.750
  18638839.250
 23  2 19  0 30 10.0000000  0 08G06G11G12G17G19G20G24G25 2.05,11.5,3.75
  19104174.250
  19474840.750
  20563122.750
  21529063.750
  19477815.250
  21244022.750
  23074035.250
  22731252.750
 23  2 19  1  0  7.0000000  0 06G05G06G12G17G19G20 2.07,11.5,3.75
  21999285.750
  18812749.750
  19048403.750
  21408835.250
  19137540.750
  19379085.250
 23  2 19  1 30  7.0000000  0 07G05G06G09G17G19G20G25 2.10,11.5,3.75
  19928105.750
  18728333.750
  21520503.750
  21449115.750
  19040622.750
  23812561.750
  19235272.250
 23  2 19  2  0  9.0000000  0 06G02G05G06G09G12G29 2.12,11.5,3.75
  20777880.250
  18310592.250
  19035588.750
  20862362.750
  23595591.750
  20940083.250
 23  2 19  2 30  9.0000000  0 06G02G05G11G12G19G25 2.15,11.0,3.75
  19157837.750
  22494218.750
  22598356.750
  23194179.250
  19531557.250
  23299583.750
 23  2 19  3  0 10.0000000  0 06G02G05G06G11G12G20 2.17,11.0,3.75
  23489016.250
  20886082.250
  18755107.250
  22029260.250
  23008193.750
  20989881.750
 23  2 19  3 30 11.0000000  0 07G02G06G11G12G13G15G20 +2.200,10.5,3.75
  21024876.250
  23715818.750
  20710367.750
  22177280.250
  21714427.750
  22520082.750
  19569845.750
 23  2 19  4  0  5.0000000  0 07G05G13G15G18G20G25G26 2.10,10.0,3.75
  23782379.750
  19597612.250
  20130083.250
  21742547.250
  19149351.250
  21163402.250
  22725712.250
 23  2 19  4 30 10.0000000  0 08G02G05G13G15G18G20G25G29 2.00,10.0,3.75
  23523250.750
  22719675.750
  23360983.750
  23506951.250
  19348461.750
  18497556.750
  20700580.750
  22567646.250
 23  2 19  5  0  7.0000000  0 07G02G05G11G15G18G23G29 1.90,9.5,3.75
  21415080.750
  21550184.250
  18672371.250
  20842421.750
  22661009.250
  23713820.250
  20863288.750
 23  2 19  5 30 13.0000000  0 04G13G15G20G29 +1.800,9.5,3.75
  20919209.250
  20035145.750
  18218066.750
  21053367.750
 23  2 19  6  0 11.0000000  0 07G02G10G13G15G18G23G24 1.9331,9.0,3.75
  21018399.750
  18615657.250
  21421490.750
  19992737.250
  20866171.750
  21900814.750
  18167104.750
 23  2 19  6 30  8.0000000  0 07G02G13G15G18G23G27G29 2.07,8.5,3.75
  21398864.250
  22345603.250
  20429752.250
  20469205.750
  21440953.750
  18390155.750
  23135764.250
 23  2 19  7  0  9.0000000  0 08G02G10G13G15G18G23G27G29 2.20,8.5,3.75
  19598174.750
  20761625.250
  21077951.250
  18771223.750
  23898400.750
  18671950.750
  21363680.250
  22031726.750
 23  2 19  7 30  7.0000000  0 08G02G08G10G15G18G24G27G32 2.33,8.0,3.75
  23854329.750
  20447731.750
  23511093.250
  23167894.250
  21477409.250
  22619892.250
  18515917.250
  18835485.250
 23  2 19  8  0  5.0000000  0 07G02G10G15G18G24G27G32 2.47,8.0,3.75
  22225596.250
  20230662.750
  21619344.750
  19317177.750
  19679907.250
  21952186.250
  21241529.250
 23  2 19  8 30 16.0000000  0 05G02G08G10G18G22 +2.600,8.0,3.75
  24851816.250
  18674384.250
  21134731.750
  21605598.750
  23833447.750
 23  2 19  9  0 11.0000000  0 05G10G18G21G22G28 +2.600,8.0,3.75
  19034891.250
  21027632.750
  23616504.250
  21304486.250
  22472525.250
 23  2 19  9 30  5.0000000  0 07G10G18G21G22G23G24G31 2.60,7.5,3.75
  22549004.750
  20069210.750
  20538215.250
  18379502.250
  23386423.750
  18876371.750
  19903648.750
 23  2 19 10  0 11.0000000  0 06G01G10G22G28G31G32 +2.600,7.0,3.75
  19179825.250
  21025700.250
  22335369.750
  22424246.250
  23124809.250
  21477704.250
 23  2 19 10 30 10.0000000  0 07G01G10G21G22G28G31G32 +2.200,7.0,3.75
  18021626.750
  21018405.250
  23767821.750
  21682595.750
  21327139.750
  21784820.750
  21222009.750
 23  2 19 11  0 12.0000000  0 07G01G10G21G22G28G31G32 3.27,7.0,3.75
  18095671.250
  22216365.750
  18359554.750
  22060202.250
  21440407.750
  21629821.750
  22013170.250
 23  2 19 11 30  5.0000000  0 07G01G03G12G21G25G26G32 4.33,6.5,3.75
  18310913.750
  20158049.250
  19611000.250
  18991382.750
  23675643.750
  19285556.750
  22680173.750
 23  2 19 12  0  7.0000000  0 07G03G21G22G25G26G28G31 5.40,6.5,3.75
  21476358.250
  21969616.250
  18738739.250
  20565570.250
  20543807.750
  18243293.750
  23956487.750
 23  2 19 12 16 58.0000000  0 00 +6.000,6.5,3.75,1,70994,-5051280,3880720,6,0.8
 23  2 19 12 30  5.0000000  0 07G01G10G25G26G28G31G32 3.21,6.5,3.75
  23902384.250
  18574751.750
  23647170.250
  21771382.750
  20939498.750
  20504163.750
  22435413.750
 23  2 19 13  0 14.0000000  0 06G03G04G16G26G28G29 -3.200,6.0,3.75
  19252155.750
  21733726.250
  21025529.250
  18200713.250
  18794299.250
  23005192.750
 23  2 19 13 30 13.0000000  0 05G03G22G26G28G31 +1.800,6.0,3.75
  20889864.750
  21025324.750
  19790354.750
  21584369.250
  21025464.750
 23  2 19 14  0 40.0000000  0 05G04G16G22G26G29 +1.000,6.5,3.75
  23465897.250
  22342561.750
  23262088.250
  21393370.250
  20218531.250
 23  2 19 14 30 14.0000000  0 06G03G16G22G26G28G31 +1.200,8.0,3.75
  19991989.750
  18644198.250
  21069513.750
  18780615.250
  21981041.250
  21445851.250
 23  2 19 15  0 40.0000000  0 07G04G07G16G22G26G27G31 +1.000,9.5,3.75
  21068575.750
  19360645.750
  20386646.250
  18134007.250
  21568392.750
  23349249.250
  18486670.250
 23  2 19 15 30 10.0000000  0 07G03G04G07G09G16G27G31 1.59,10.0,3.75
  22620158.250
  19437494.750
  23346568.250
  21208964.250
  19239202.250
  21113186.250
  18195049.250
 23  2 19 16  0 13.0000000  0 05G04G08G09G16G26 +2.200,11.0,3.75
  20007635.750
  22143542.750
  21065388.750
  20339003.750
  22961442.250
 23  2 19 16 30 11.0000000  0 05G04G07G09G16G27 +2.000,12.0,3.75
  20749279.750
  22848664.750
  21025901.250
  21521768.750
  21067409.250
 23  2 19 17  0 12.0000000  0 04G04G07G09G16 +2.000,15.0,3.75
  20371353.750
  21042831.250
  19881299.250
  21410816.750
 23  2 19 17 30 23.0000000  0 07G04G07G08G09G16G27G30 +1.600,18.5,3.75
  22378845.250
  21379080.750
  20576902.250
  21221666.750
  23481241.750
  21627975.250
  23950664.750
 23  2 19 18  0 11.0000000  0 04G04G09G14G30 +2.200,17.0,3.75
  21620087.250
  19968470.250
  21955090.250
  21028310.250
 23  2 19 18 30 14.0000000  0 04G04G14G21G27 +2.200,17.5,3.75
  22847433.250
  21081247.750
  20558915.250
  21625333.250
 23  2 19 19  0 11.0000000  0 06G01G08G09G13G14G21 +2.000,18.5,3.75
  21978604.750
  21025062.750
  22976574.250
  23259959.750
  21307708.250
  21015364.750
 23  2 19 19 30 11.0000000  0 04G07G08G17G21 +2.000,18.0,3.75
  18618489.750
  21025010.250
  20326000.250
  19860451.750
 23  2 19 20  0 13.0000000  0 04G01G07G08G17 +2.200,17.5,3.75
  21027324.250
  20953613.250
  23881802.750
  21266542.250
 23  2 19 20 30 11.0000000  0 08G01G07G13G14G17G19G21G30 2.20,17.5,3.75
  22192327.250
  23279742.250
  18484241.250
  21896670.750
  22144173.250
  18484677.250
  23915919.250
  21888373.250
 23  2 19 21  0 11.0000000  0 06G07G13G14G19G21G30 +2.200,17.5,3.75
  21911071.750
  22402702.750
  19163364.250
  21026520.750
  22327054.250
  19947928.750
 23  2 19 21 30  8.0000000  0 06G01G13G14G17G19G30 2.20,15.5,3.75
  18032025.250
  20596549.250
  22646252.250
  22777663.750
  23755744.750
  18344986.250
 23  2 19 22  0 11.0000000  0 06G01G06G14G17G19G30 +2.200,16.0,3.75
  21957106.250
  21025855.750
  19824159.250
  19847732.750
  20128673.250
  22410283.750
 23  2 19 22 30 13.0000000  0 06G01G03G06G14G17G24 +1.600,17.5,3.75
  18088035.250
  23387536.250
  21032703.750
  21248697.250
  21038254.250
  23436108.250
 23  2 19 23  0 11.0000000  0 06G06G11G12G14G17G19 1.75,18.0,3.75
  19705541.750
  22475135.250
  18423014.250
  21291377.250
  20690785.750
  19761124.250
 23  2 19 23 30  6.0000000  0 06G06G11G14G17G19G24 1.90,18.5,3.75
  20846288.250
  22856907.250
  23688628.250
  22551701.250
  21146587.250
  18067168.250
 23  2 20  0  0  6.0000000  0 07G06G11G12G14G19G20G24 2.05,18.5,3.75
  18529371.250
  19672152.750
  21101803.750
  22472813.250
  18916642.250
  21987711.750
  22168069.750
 23  2 20  0 30 11.0000000  0 05G06G11G12G19G20 +2.200,18.0,3.75
  19099641.750
  19349939.750
  20380280.250
  19467831.250
  21025046.250
 23  2 20  1  0 11.0000000  0 04G06G11G20G24 +2.200,17.5,3.75
  20671998.750
  20086423.750
  21024432.250
  18977558.750
 23  2 20  1 30  6.0000000  0 06G05G06G11G12G20G25 2.09,17.0,3.75
  22984526.250
  22054187.250
  20740688.250
  21175841.250
  20958691.750
  22374741.750
 23  2 20  2  0  5.0000000  0 06G02G05G06G12G20G25 1.99,16.5,3.75
  19457532.750
  22946293.250
  23920236.750
  22420574.250
  21609705.750
  23032510.250
 23  2 20  2 30 11.0000000  0 06G02G05G09G11G12G25 +1.880,16.5,3.75
  22788056.250
  20118558.750
  23883291.750
  20379347.250
  21018559.750
  21047439.250
 23  2 20  3  0  6.0000000  0 07G05G06G11G12G13G15G25 1.96,16.0,3.75
  18754696.750
  22787443.250
  20019539.750
  21061522.250
  22522827.750
  23483743.250
  20587661.250
 23  2 20  3 30  6.0000000  0 07G02G06G11G13G20G25G29 2.04,15.5,3.75
  20427349.250
  23307423.750
  20267648.750
  21041472.250
  19122125.750
  20949488.250
  19459450.750
 23  2 20  4  0  8.0000000  0 07G02G11G13G15G18G20G25 2.12,15.5,3.75
  20712297.250
  21739377.750
  20826700.750
  21313043.250
  22968371.250
  20605632.250
  22649754.750
 23  2 20  4 30 12.0000000  0 04G05G13G23G29 +2.200,15.0,3.75
  21281016.750
  21768807.750
  24818436.750
  21040515.750
 23  2 20  5  0 14.0000000  0 05G05G15G20G23G29 +2.400,14.5,3.75
  19091491.750
  18186464.750
  21155083.750
  21025226.250
  18347797.250
 23  2 20  5 30 11.0000000  0 04G02G05G18G29 +2.400,14.0,3.75
  20813503.250
  22008716.750
  21301942.250
  21025563.750
 23  2 20  6  0  7.0000000  0 07G02G10G15G18G23G27G29 2.40,14.0,3.75
  21640994.750
  19100421.250
  20614531.750
  21386951.750
  22416729.250
  19713320.750
  22671296.250
 23  2 20  6 30  7.0000000  0 08G02G10G13G15G18G23G24G29 2.40,13.5,3.75
  22056782.250
  18374823.750
  23078919.750
  21103726.750
  21021839.750
  21974683.250
  23615101.250
  23901354.250
 23  2 20  7  0 12.0000000  0 05G05G10G18G23G29 +2.400,13.5,3.75
  19778192.250
  23786748.750
  21024331.750
  21750296.250
  19340250.250
 23  2 20  7 30  6.0000000  0 06G02G10G18G23G27G32 2.44,13.0,3.75
  23243983.250
  22683933.750
  20785139.250
  21083714.250
  23763862.750
  23958402.250
 23  2 20  8  0  6.0000000  0 08G02G08G10G15G18G24G27G32 2.48,12.5,3.75
  23974084.250
  18895311.750
  21746549.750
  23372067.750
  21007520.250
  21270445.750
  23589699.750
  22724711.750
 23  2 20  8 30  6.0000000  0 07G08G10G18G22G23G27G32 2.52,12.5,3.75
  18382441.250
  20768863.750
  21432636.250
  23407819.250
  20299073.750
  23630897.250
  21552618.250
 23  2 20  9  0  6.0000000  0 07G10G18G22G24G28G31G32 2.56,12.0,3.75
  19822435.750
  22021786.250
  22031911.250
  21121992.250
  23132417.250
  18136991.750
  20490404.750
 23  2 20  9 30  7.0000000  0 07G08G10G12G22G28G31G32 2.60,12.0,3.75
  18010720.750
  18956663.750
  23073145.250
  20715601.750
  21271983.750
  22142203.250
  19530679.750
 23  2 20 10  0  6.0000000  0 08G01G10G21G22G23G28G31G32 2.64,11.5,3.75
  22185309.750
  18188354.750
  21471463.250
  19418960.250
  19847684.250
  19440531.250
  20112421.250
  18615769.250
 23  2 20 10 30  9.0000000  0 08G01G10G12G22G25G28G31G32 2.68,11.5,3.75
  20519166.750
  23672355.750
  20646139.750
  18239004.250
  19592217.250
  23831342.250
  18258338.750
  23830894.250
 23  2 20 11  0 10.0000000  0 07G01G10G21G22G28G31G32 2.72,11.0,3.75
  19370131.750
  23636218.250
  19697692.750
  23354578.750
  22715795.250
  22869445.750
  23365420.750
 23  2 20 11 30 10.0000000  0 07G01G10G22G26G28G31G32 2.76,11.0,3.75
  23890774.250
  23158463.250
  21859117.750
  18685923.250
  21208385.750
  21108168.750
  22304872.250
 23  2 20 12  0 11.0000000  0 07G10G12G21G22G25G28G32 +2.800,11.0,3.75
  21561823.750
  23411524.750
  22432151.250
  19119712.250
  21028063.250
  18661516.750
  20024737.250
 23  2 20 12 30 10.0000000  0 06G03G16G22G25G26G28 2.90,10.5,3.75
  20996122.750
  23307809.250
  19495166.750
  22135011.750
  19989201.250
  19369194.750
 23  2 20 13  0 13.0000000  0 04G16G26G28G31 +3.000,10.5,3.75
  23784540.750
  21065921.250
  21846147.750
  21312860.750
 23  2 20 13 30  9.0000000  0 06G03G16G22G28G31G32 2.68,10.0,3.75
  23061517.250
  23815563.750
  23293326.750
  23893574.250
  23332088.250
  19633123.250
 23  2 20 14  0 11.0000000  0 06G03G16G22G26G28G31 +2.360,10.5,3.75
  19963466.750
  19620940.250
  20742167.750
  18809413.250
  21574062.750
  21018663.250
 23  2 20 14 30 11.0000000  0 05G03G16G22G27G31 +2.800,11.0,3.75
  21025862.750
  19520584.750
  22142745.250
  23237962.750
  22522026.250
 23  2 20 15  0 11.0000000  0 04G03G08G16G27 +2.800,11.0,3.75
  21025401.250
  23055130.250
  18430260.250
  21280183.750
 23  2 20 15 30 11.0000000  0 05G03G04G07G09G27 +2.800,11.5,3.75
  21024947.250
  23652471.750
  21477653.750
  19329657.750
  19252927.750
 23  2 20 16  0 11.0000000  0 06G03G04G08G09G16G27 +3.000,13.0,3.75
  19541079.250
  21027801.750
  23004387.250
  21974469.250
  21428265.750
  21934073.750
 23  2 20 16 30 28.0000000  0 04G04G09G16G27 +2.200,15.0,3.75
  21147044.750
  21301873.750
  21971256.750
  21373932.750
 23  2 20 17  0 12.0000000  0 06G04G07G08G09G16G27 +3.000,16.5,3.75
  21622236.750
  22063268.250
  20915166.250
  21027354.250
  22682451.250
  21267782.250
 23  2 20 17 30 11.0000000  0 04G08G09G21G27 3.00,19.0,3.75
  20285425.250
  21003662.750
  21458166.750
  21435454.250
 23  2 20 18  0 10.0000000  0 06G04G08G09G14G21G27 3.00,21.0,3.75
  23799343.750
  20827805.250
  22090635.750
  23832832.750
  23282763.250
  22698152.250
 23  2 20 18 30 10.0000000  0 06G04G07G08G09G21G30 3.00,23.0,3.75
  21147588.750
  22588416.250
  23459754.250
  19160479.750
  18602940.250
  18061373.250
 23  2 20 19  0 11.0000000  0 05G01G07G09G14G17 +3.000,25.5,3.75
  19723255.750
  25673896.250
  21026782.250
  19090207.250
  20100710.250
 23  2 20 19 30 21.0000000  0 06G01G07G08G14G17G30 +3.200,21.5,3.75
  22389448.750
  21223293.250
  23710779.250
  22100258.250
  22737762.750
  21209480.250
 23  2 20 20  0 16.0000000  0 06G07G14G15G17G19G30 +2.200,26.0,3.75
  18173781.750
  17901233.250
  21941828.250
  18281841.750
  21098458.250
  23379374.750
 23  2 20 20 30 12.0000000  0 04G07G14G17G21 +3.000,32.5,3.75
  22387577.250
  20803013.250
  21042870.250
  22976533.250
 23  2 20 21  0  5.0000000  0 07G01G06G07G13G14G17G19 2.80,29.0,3.75
  20709607.750
  23614805.750
  22844079.250
  23232274.750
  19902726.250
  20078090.250
  21664194.250
 23  2 20 21 30 11.0000000  0 07G01G06G07G14G17G19G30 +2.600,28.0,3.75
  21018331.250
  21937698.250
  23747434.750
  19534390.750
  19656183.250
  20534469.750
  21357832.250
 23  2 20 22  0 11.0000000  0 05G01G06G17G19G30 +3.000,28.0,3.75
  20562949.750
  19330913.250
  18325688.250
  18512778.750
  21025518.750
 23  2 20 22 30 11.0000000  0 05G03G06G11G17G19 +3.000,27.0,3.75
  23311936.250
  20867881.750
  18158306.250
  21024517.750
  20576605.750
 23  2 20 23  0 13.0000000  0 04G06G11G17G19 +3.000,26.0,3.75
  21060105.250
  23734862.750
  22163573.750
  21161186.750
 23  2 20 23 30 10.0000000  0 05G06G11G14G17G19 +3.200,24.5,3.75
  20704750.250
  22598802.750
  23713171.250
  22491552.750
  21027615.750
 23  2 21  0  0  9.0000000  0 07G06G11G12G14G17G19G20 3.20,23.0,3.75
  20269277.750
  21286862.750
  22661787.250
  18356227.250
  22493860.750
  20660293.750
  23525314.250
 23  2 21  0 30 11.0000000  0 04G06G11G12G20 +3.200,21.5,3.75
  19319127.250
  19447963.250
  20421780.250
  21026648.250
 23  2 21  1  0  5.0000000  0 06G05G06G11G12G19G25 3.21,20.5,3.75
  23964463.250
  21327250.750
  20634226.250
  21254177.750
  21643826.750
  22914584.250
 23  2 21  1 30  8.0000000  0 07G05G06G11G12G17G19G25 3.23,19.0,3.75
  22432481.250
  21784467.250
  20374693.250
  20790483.750
  18536676.750
  22108969.750
  21913379.250
 23  2 21  2  0  5.0000000  0 07G02G05G11G12G19G20G25 3.24,18.0,3.75
  19696096.750
  23149866.750
  22381424.750
  22814872.750
  18817230.250
  21919689.750
  23345842.750
 23  2 21  2 30  6.0000000  0 06G11G12G19G20G25G29 3.25,17.0,3.75
  18097518.750
  18778580.750
  21220080.750
  23226692.750
  18733288.750
  20020087.250
 23  2 21  3  0  5.0000000  0 08G02G05G11G12G13G20G25G29 3.27,16.0,3.75
  20766294.250
  18228331.750
  19615251.750
  20718216.750
  21885147.750
  18532101.250
  20182516.750
  20045352.750
 23  2 21  3 30  5.0000000  0 06G02G12G13G20G25G29 3.28,15.0,3.75
  22765595.250
  18373616.750
  23307808.750
  21619625.750
  23472055.750
  21767913.250
 23  2 21  4  0  5.0000000  0 08G02G05G11G13G15G18G20G25 3.29,14.5,3.75
  20677904.250
  19252167.250
  21865770.250
  20737594.250
  21176575.750
  22871216.250
  20736117.750
  22808955.750
 23  2 21  4 30  5.0000000  0 08G02G05G11G15G18G20G23G29 3.31,15.0,3.75
  20750177.750
  20197599.750
  23139147.250
  20564440.750
  22426448.250
  22048591.250
  23522792.750
  19875182.250
 23  2 21  5  0  5.0000000  0 07G02G05G13G15G18G20G29 3.32,14.5,3.75
  20895915.750
  21294487.750
  20690259.250
  20208690.250
  21973173.250
  23377238.250
  20502342.250
 23  2 21  5 30  5.0000000  0 06G02G05G13G15G23G29 3.33,14.0,3.75
  21043344.750
  22356923.250
  21113260.250
  20080710.750
  22471321.250
  21361576.750
 23  2 21  6  0  5.0000000  0 08G02G05G13G15G18G23G27G29 3.35,13.5,3.75
  21232760.750
  23324004.250
  21776309.250
  20208539.250
  20875061.750
  21898534.750
  19136397.250
  22379694.250
 23  2 21  6 30  5.0000000  0 07G02G05G15G18G23G24G29 3.36,12.5,3.75
  21444739.750
  18108506.750
  20509214.250
  20305089.250
  21236212.250
  22801044.250
  23394507.250
 23  2 21  7  0  5.0000000  0 08G02G05G15G18G23G27G29G32 3.37,12.0,3.75
  21635044.750
  18625819.250
  20848869.750
  19744833.750
  20425377.250
  23086672.750
  18230088.250
  18017158.750
 23  2 21  7 30  8.0000000  0 06G08G10G15G23G27G32 3.39,11.5,3.75
  23968031.750
  21016039.750
  21141256.250
  19482248.250
  22182725.250
  22245671.750
 23  2 21  8  0 11.0000000  0 04G08G24G27G32 +3.400,10.5,3.75
  23272420.250
  19685538.250
  22050952.750
  21025160.250
 23  2 21  8 30  5.0000000  0 06G15G18G23G24G28G32 3.44,10.0,3.75
  20777877.750
  18094880.250
  22842441.750
  23615619.250
  21303564.750
  17993088.250
 23  2 21  9  0  5.0000000  0 08G10G18G21G22G23G28G31G32 3.48,9.0,3.75
  20971912.750
  23382026.750
  19396346.250
  23119721.750
  21281758.250
  18153899.250
  19142576.250
  21628565.750
 23  2 21  9 30  6.0000000  0 06G08G10G21G22G28G31 3.52,8.5,3.75
  23749976.750
  18596695.750
  22411599.250
  20287403.750
  20768052.250
  21616417.250
 23  2 21 10  0  5.0000000  0 08G01G10G21G22G23G28G31G32 3.56,8.0,3.75
  19939037.250
  22095022.250
  19297089.750
  23242328.250
  23849903.750
  23197399.750
  23839000.750
  22494818.750
 23  2 21 10 30  5.0000000  0 07G01G10G12G21G28G31G32 3.60,7.5,3.75
  22339822.750
  19651495.250
  22552010.750
  22234039.750
  19662405.750
  20050322.750
  19762153.750
 23  2 21 11  0 10.0000000  0 07G10G12G21G22G28G31G32 3.64,7.0,3.75
  23373311.750
  19812276.250
  19352275.250
  22961347.250
  22307685.250
  22425401.750
  23030924.250
 23  2 21 11 30  6.0000000  0 07G01G21G22G25G28G31G32 3.68,7.0,3.75
  21597637.750
  22368407.750
  19540104.750
  21008365.250
  18904552.750
  18773267.750
  20045905.750
 23  2 21 12  0  5.0000000  0 06G01G10G25G26G28G31 3.72,6.5,3.75
  18473444.250
  18670395.250
  18062467.250
  23547696.750
  21647551.250
  21316266.750
 23  2 21 12 30  5.0000000  0 06G01G03G16G26G31G32 3.76,6.5,3.75
  21514124.250
  19931715.750
  22166101.250
  18914732.750
  18025525.750
  20015329.250
 23  2 21 13  0 11.0000000  0 07G03G04G16G22G26G28G31 +3.800,6.0,3.75
  21681699.250
  24042626.750
  23226400.250
  21259023.750
  20613627.750
  21567836.250
  21027940.750
 23  2 21 13 30  9.0000000  0 06G03G16G22G26G28G31 4.34,6.0,3.75
  23274065.250
  23880552.750
  23589955.750
  22160549.750
  18233529.250
  23666808.250
 23  2 21 14  0  7.0000000  0 06G03G04G09G16G28G31 4.88,5.5,3.75
  19864161.250
  20486732.250
  23492360.750
  19360741.750
  21546971.750
  20993537.250
 23  2 21 14 30 10.0000000  0 07G03G04G09G16G27G28G31 5.43,6.0,3.75
  21711283.250
  20996003.250
  23675998.750
  20046507.250
  23667065.750
  23766753.250
  23236857.250
 23  2 21 15  0 10.0000000  0 07G03G04G07G16G26G27G31 5.97,6.0,3.75
  18515075.250
  22339894.750
  20551869.750
  21777878.750
  23196792.250
  18488402.750
  20141332.250
 23  2 21 15 30  5.0000000  0 08G03G04G07G08G16G26G27G31 6.51,6.0,3.75
  21636774.250
  18096364.250
  21835306.250
  21081025.250
  18046396.750
  20247083.750
  19599955.250
  23170747.250
 23  2 21 15 56 58.0000000  0 00 +7.000,7.0,3.75,1,71004,-5051265,3880760,4,1.2
 23  2 21 20  0  5.0000000  0 07G01G07G08G13G14G19G30 -1.90,20.0,3.75
  23964224.750
  18226959.250
  21231808.750
  20006636.250
  23785701.250
  20894747.750
  23334086.750
 23  2 21 20 30 10.0000000  0 06G01G08G13G14G15G17 -3.000,20.5,3.75
  21024446.250
  19563311.250
  23378598.250
  20633751.750
  25101689.250
  20862232.750
 23  2 21 21  0 12.0000000  0 06G01G07G13G14G21G30 +0.600,21.0,3.75
  21035474.250
  23275687.750
  23575885.250
  20144777.750
  23624183.750
  21178730.250
 23  2 21 21 30 11.0000000  0 05G01G13G19G21G30 +1.200,21.5,3.75
  18044219.750
  20592760.250
  23348505.250
  21028540.250
  18409111.750
 23  2 21 22  0 11.0000000  0 07G01G03G06G14G17G19G24 +0.680,22.0,3.75
  23381148.750
  23794874.250
  21857067.750
  21045080.250
  21018232.750
  21115656.250
  24015812.750
 23  2 21 22 30  8.0000000  0 06G01G03G11G17G19G24 0.92,22.0,3.75
  19175791.750
  18099633.750
  18795102.750
  21866365.250
  21340405.750
  18080767.750
 23  2 21 23  0  8.0000000  0 07G03G06G11G14G17G19G24 1.16,22.0,3.75
  20288753.250
  23104874.750
  19692072.750
  19053337.250
  18316566.250
  23245172.750
  20016509.750
 23  2 21 23 30 17.0000000  0 05G06G11G12G14G20 +1.400,21.0,3.75
  19358557.250
  21136039.750
  22808545.250
  22528040.250
  23796777.750
 23  2 22  0  0  7.0000000  0 06G06G11G12G14G19G20 1.00,20.5,3.75
  21041940.750
  21940128.750
  23260314.250
  19259650.750
  21433522.750
  18104040.250
 23  2 22  0 30 14.0000000  0 06G06G11G12G19G20G25 +0.600,18.5,3.75
  20138526.250
  20148024.750
  21068525.250
  20493542.750
  21625149.250
  23108176.750
 23  2 22  1  0  9.0000000  0 06G05G06G09G11G12G20 0.90,16.5,3.75
  21458134.250
  19095176.250
  22560054.250
  18298635.750
  18879387.750
  19035866.750
 23  2 22  1 30 11.0000000  0 05G05G06G11G12G25 +1.200,16.0,3.75
  21406557.250
  21025918.750
  19529139.250
  19934967.250
  20981085.250
 23  2 22  2  0  5.0000000  0 07G05G06G11G12G20G25G29 1.20,15.5,3.75
  20865675.750
  22331890.250
  20265721.750
  20723166.750
  19738877.250
  21175165.250
  23444363.250
 23  2 22  2 30  5.0000000  0 06G05G11G12G20G25G29 1.20,15.5,3.75
  20833906.750
  21389544.750
  22124156.750
  20484162.250
  22007065.250
  23112006.750
 23  2 22  3  0 10.0000000  0 06G02G09G12G15G20G25 +1.200,15.5,3.75
  21442887.250
  18091473.750
  21618953.750
  23396098.750
  19343536.250
  21024645.750
 23  2 22  3 30  5.0000000  0 08G02G05G11G13G15G20G25G29 1.13,15.0,3.75
  23630908.750
  21595901.250
  23787950.750
  18100004.750
  18808398.250
  22637347.750
  18529352.250
  22606305.250
 23  2 22  4  0  9.0000000  0 07G02G05G13G18G20G25G26 1.06,15.0,3.75
  23756329.250
  22442682.250
  23764253.250
  19888569.750
  23982838.750
  20088187.250
  21113069.750
 23  2 22  4 30  9.0000000  0 07G02G05G13G18G20G23G29 0.99,14.5,3.75
  23836937.250
  23414605.250
  23610300.250
  19441396.250
  19304877.750
  20522542.750
  23011426.250
 23  2 22  5  0 11.0000000  0 06G02G05G13G18G23G29 +0.920,14.5,3.75
  21324102.250
  21856283.750
  21141241.750
  22313007.750
  23346445.250
  21018375.750
 23  2 22  5 30  5.0000000  0 06G02G05G13G18G23G29 0.99,14.5,3.75
  18239113.750
  19670460.250
  18363650.250
  18536458.250
  19568283.750
  18667564.750
 23  2 22  6  0  6.0000000  0 07G02G13G15G18G23G24G29 1.06,14.5,3.75
  19374793.250
  19991589.250
  18355742.750
  18912778.250
  19928413.250
  21979814.750
  20638292.750
 23  2 22  6 30 10.0000000  0 07G02G05G10G15G18G24G29 1.13,14.5,3.75
  19596370.750
  22318972.750
  21564114.250
  18680028.250
  18350802.750
  20745722.750
  21650296.750
 23  2 22  7  0  5.0000000  0 07G02G10G15G18G23G29G32 1.19,14.5,3.75
  20506058.250
  21080571.750
  19740079.750
  18521573.250
  19152116.250
  23168691.250
  22631736.250
 23  2 22  7 30  5.0000000  0 07G02G08G10G23G24G27G32 1.26,14.5,3.75
  21736773.750
  23704229.250
  20735832.250
  19268059.250
  19941199.250
  21992386.250
  21923608.750
 23  2 22  8  0  5.0000000  0 06G08G18G23G24G27G32 1.33,14.5,3.75
  23749328.750
  20124553.250
  19582907.750
  20195983.750
  22602974.250
  21423038.250
 23  2 22  8 30 11.0000000  0 05G10G18G23G28G32 +1.400,14.5,3.75
  20275400.250
  21352746.250
  19987009.750
  24233038.750
  21024164.750
 23  2 22  9  0  5.0000000  0 06G10G21G22G24G28G32 1.50,15.0,3.75
  20500178.250
  18842905.250
  22586249.750
  22115582.750
  23545204.250
  21145703.750
 23  2 22  9 30 11.0000000  0 05G22G23G28G31G32 +1.600,15.0,3.75
  20622072.750
  20143469.750
  21026632.250
  21851536.250
  19546046.250
 23  2 22 10  0  5.0000000  0 07G21G22G23G25G28G31G32 1.60,15.0,3.75
  18597188.250
  22541501.750
  23328021.750
  18116653.750
  22433139.750
  23043805.750
  21849405.750
 23  2 22 10 30 11.0000000  0 06G10G21G23G28G31G32 +1.600,15.5,3.75
  20968697.750
  23465936.250
  23445838.750
  20827509.750
  21179042.750
  21026729.250
 23  2 22 11  0  7.0000000  0 06G10G21G22G26G28G32 1.54,16.0,3.75
  23946953.750
  19845588.250
  23404695.250
  21051386.750
  22740671.750
  23531856.250
 23  2 22 11 30  8.0000000  0 06G01G21G22G25G26G31 1.49,16.0,3.75
  20273703.750
  21084806.750
  18184681.250
  19705316.750
  20686631.750
  23402109.250
 23  2 22 12  0  7.0000000  0 07G01G03G10G21G25G28G31 1.43,16.5,3.75
  22233751.250
  22053667.250
  22526516.250
  23239349.250
  21846382.750
  19388519.750
  19034625.250
 23  2 22 12 30  6.0000000  0 06G01G16G22G28G31G32 1.37,17.0,3.75
  23387442.750
  23738062.750
  20359522.250
  20335960.750
  19855138.250
  21871123.250
 23  2 22 13  0  6.0000000  0 06G03G16G22G26G31G32 1.31,17.0,3.75
  22735797.750
  18168095.250
  22423667.750
  21660402.750
  22234555.750
  18421241.750
 23  2 22 13 30 10.0000000  0 06G03G16G22G26G28G31 1.26,17.5,3.75
  23807156.250
  18270257.250
  18211730.750
  22687036.250
  18887453.250
  18323866.250
 23  2 22 14  0 19.0000000  0 05G03G09G22G26G31 +1.200,18.0,3.75
  19960957.750
  23376102.250
  20850874.250
  18787908.250
  21167286.750
 23  2 22 14 30 10.0000000  0 06G03G04G09G16G26G28 1.50,18.5,3.75
  20765176.750
  19857034.750
  22480598.250
  18946785.750
  19523271.750
  22847827.750
 23  2 22 15  0 11.0000000  0 04G03G07G09G26 +1.800,19.0,3.75
  21028539.250
  22821084.250
  20789662.250
  19705291.250
 23  2 22 15 30  9.0000000  0 06G03G07G08G09G16G27 1.80,19.5,3.75
  20540182.750
  20474935.750
  19665844.750
  18316891.750
  22851207.750
  18239583.250
 23  2 22 16  0 18.0000000  0 05G03G08G09G16G27 +1.800,20.0,3.75
  21159334.750
  18025076.750
  25524887.250
  22934242.750
  23111751.750
 23  2 22 16 30 23.0000000  0 06G04G07G08G09G16G27 1.80,20.5,3.75
  21181167.750
  22709939.250
  21453986.250
  21128703.750
  22097118.750
  21238577.750
 23  2 22 17  0  8.0000000  0 06G04G07G08G09G16G27 1.80,20.5,3.75
  23067719.250
  23071013.750
  22008206.750
  22289283.750
  18170892.250
  22577111.250
 23  2 22 17 30 13.0000000  0 04G04G08G16G27 +1.800,22.0,3.75
  21965694.250
  19706715.250
  23052047.250
  21064205.250
 23  2 22 18  0 17.0000000  0 04G07G08G09G30 +1.200,22.5,3.75
  20900388.750
  21126093.750
  22524593.750
  22807695.750
 23  2 22 18 30  5.0000000  0 07G07G08G09G14G17G21G27 1.40,23.0,3.75
  22478763.750
  23591654.750
  19389027.250
  18817463.750
  20153246.750
  18370816.250
  20163743.750
 23  2 22 19  0  5.0000000  0 07G01G07G08G09G14G17G30 1.60,24.0,3.75
  20232322.750
  18128248.250
  20094834.250
  22137496.250
  19708206.750
  20614930.750
  18687975.750
 23  2 22 19 30 16.0000000  0 06G07G08G14G17G21G30 +1.800,24.0,3.75
  19971006.250
  22612559.750
  20552975.750
  21113332.250
  21058060.250
  19739705.750
 23  2 22 20  0  5.0000000  0 06G07G13G17G19G21G30 1.68,24.0,3.75
  23648289.750
  19314399.250
  23367698.250
  20042095.250
  18427578.750
  22656173.250
 23  2 22 20 30 10.0000000  0 07G01G07G14G17G19G21G30 1.56,24.0,3.75
  19461273.250
  20979709.250
  19018531.750
  19238276.250
  21309241.750
  21499834.750
  19322303.750
 23  2 22 21  0  9.0000000  0 07G01G07G13G14G19G21G30 1.44,23.5,3.75
  22025584.250
  18365799.750
  18582028.750
  21049192.250
  22604134.750
  18687497.250
  22206123.250
 23  2 22 21 30 13.0000000  0 00 1.32,23.5,3.75
 23  2 22 22  0 24.0000000  0 07G01G03G06G11G17G19G30 +1.200,27.0,3.75
  23731561.250
  23915333.750
  21896486.250
  19500404.750
  21232802.750
  21235323.250
  18216205.750
 23  2 22 22 30  6.0000000  0 06G03G06G14G17G19G24 1.40,21.0,3.75
  18695973.250
  22082613.250
  22869527.750
  22516342.750
  21912500.750
  18646475.250
 23  2 22 23  0  8.0000000  0 06G03G06G11G14G17G19 1.60,18.5,3.75
  20091601.750
  22818543.750
  19308880.750
  18941909.250
  18130944.250
  22995045.750
 23  2 22 23 30  7.0000000  0 07G06G11G12G14G19G20G24 1.80,13.5,3.75
  17999931.250
  19668546.750
  21297633.250
  21315443.750
  18353973.750
  22275728.750
  21394169.750
 23  2 23  0  0 11.0000000  0 04G11G12G20G24 +2.000,14.5,3.75
  21026655.750
  22289405.250
  23100339.750
  18056846.750
 23  2 23  0 30 11.0000000  0 05G05G11G12G19G20 +2.000,15.5,3.75
  23792969.250
  19644715.250
  20509798.250
  20094396.250
  21026124.750
 23  2 23  1  0  6.0000000  0 07G05G06G11G12G19G20G25 2.02,16.0,3.75
  22695233.250
  20605744.750
  19706695.250
  20251259.250
  20916435.750
  20345097.250
  21781782.750
 23  2 23  1 30  6.0000000  0 08G05G06G09G12G19G20G25G29 2.05,16.0,3.75
  22448982.250
  22330868.250
  18560381.750
  21147379.250
  22674724.250
  20699837.750
  22117167.750
  19076198.250
 23  2 23  2  0  6.0000000  0 07G02G05G09G11G12G25G29 2.07,16.0,3.75
  19009247.250
  22397428.250
  19528852.750
  21968057.750
  22451319.750
  22822852.750
  18952830.250
 23  2 23  2 30  5.0000000  0 07G02G05G11G12G20G25G29 2.10,15.5,3.75
  19194085.250
  22520171.250
  23219444.750
  18011711.750
  22277001.250
  23818393.750
  18738418.250
 23  2 23  3  0  7.0000000  0 08G05G06G11G12G18G20G25G29 2.12,15.0,3.75
  23253344.750
  21763163.250
  18864660.250
  20108709.250
  22634718.250
  23746746.250
  19458600.250
  18892297.750
 23  2 23  3 30  5.0000000  0 07G05G13G15G18G20G25G29 2.15,14.5,3.75
  23520195.250
  19867088.250
  20538386.250
  22000627.250
  18640838.250
  20559412.750
  18427432.250
 23  2 23  4  0  5.0000000  0 07G02G05G11G12G15G18G29 2.17,14.5,3.75
  19796245.750
  18595645.250
  21308143.250
  23469940.250
  20094421.750
  21859186.250
  18746514.750
 23  2 23  4 30 11.0000000  0 05G02G13G20G23G29 +2.200,14.0,3.75
  18437752.750
  18199875.750
  20066349.750
  21027562.750
  26056323.250
 23  2 23  5  0  5.0000000  0 06G02G05G13G18G23G29 2.40,13.5,3.75
  19448333.750
  20108426.250
  19292440.250
  20350641.750
  21379598.750
  19231564.750
 23  2 23  5 30  5.0000000  0 07G02G05G13G15G18G23G29 2.60,13.5,3.75
  19477154.750
  21024868.750
  19660629.250
  18478583.750
  19675218.750
  20705000.750
  20019228.750
 23  2 23  6  0  5.0000000  0 07G05G10G15G18G23G27G29 2.81,13.5,3.75
  21886086.750
  22626401.250
  18600186.750
  19044186.250
  20050343.750
  23170784.750
  20991140.750
 23  2 23  6 30  6.0000000  0 06G02G10G15G18G27G29 3.01,13.0,3.75
  19898704.750
  21690704.250
  19002139.750
  18550632.250
  22213765.250
  22051166.250
 23  2 23  7  0  5.0000000  0 06G02G10G15G18G29G32 3.21,12.5,3.75
  20317455.750
  20686821.250
  19571599.250
  18239739.750
  23047647.750
  22185399.250
 23  2 23  7 30  6.0000000  0 07G08G10G15G18G24G27G32 3.41,12.5,3.75
  22652294.750
  19662182.250
  20256219.750
  18202684.750
  18913128.250
  21017014.750
  20808408.250
 23  2 23  8  0  9.0000000  0 07G02G08G15G18G24G27G32 3.61,12.0,3.75
  21592948.750
  21968702.250
  20996740.250
  18475424.750
  18452466.750
  20901063.250
  19555647.750
 23  2 23  8 30  5.0000000  0 08G08G10G18G22G23G27G28G32 3.82,12.0,3.75
  21408511.750
  23540574.750
  18825169.250
  19998554.250
  23342198.750
  20868320.250
  21385806.750
  18278207.750
 23  2 23  9  0  5.0000000  0 08G10G18G21G22G23G28G31G32 4.02,11.5,3.75
  22552579.250
  19384617.250
  20812241.250
  18579679.750
  23059925.250
  19465766.750
  20426862.250
  23186728.250
 23  2 23  9 30  5.0000000  0 07G10G21G22G23G28G31G32 4.22,11.5,3.75
  21722475.250
  19372316.250
  23272240.250
  22961660.250
  23604456.250
  18409760.750
  22249568.250
 23  2 23 10  0  5.0000000  0 06G10G12G22G23G28G31 4.42,11.5,3.75
  21095991.250
  18394829.750
  22068820.750
  23037652.750
  21899015.250
  22477523.750
 23  2 23 10 30  5.0000000  0 08G01G10G12G21G23G28G31G32 4.62,11.5,3.75
  23104996.750
  20725282.250
  23491074.250
  23140952.250
  23277701.750
  20438699.750
  20755098.250
  20729790.750
 23  2 23 11  0  5.0000000  0 07G01G12G21G22G26G28G31 4.83,11.5,3.75
  22864440.250
  23887340.750
  23371070.250
  20880332.750
  18378293.750
  20209889.750
  20257976.250
 23  2 23 11 25 52.0000000  0 00 +5.000,12.0,3.75,1,71003,-5051246,3880752,6,3.2
 23  2 23 11 30  5.0000000  0 07G01G03G10G21G26G28G31 4.66,12.0,3.75
  21243498.250
  22379095.250
  20868430.750
  22090750.750
  21462995.750
  18524184.250
  18333540.250
 23  2 23 12  0  5.0000000  0 08G01G03G21G25G26G28G31G32 2.24,12.0,3.75
  20975313.250
  20583343.750
  21993321.750
  20611129.250
  19604846.750
  18105897.250
  23726909.250
  19534698.250
 23  2 23 12 30 11.0000000  0 06G16G22G26G28G31G32 -0.18,14.5,3.75
  21213069.250
  18061500.250
  18116231.750
  18089902.750
  23591491.250
  19638881.750
 23  2 23 13  0 11.0000000  0 04G22G26G28G31 -2.600,14.5,3.75
  21166660.250
  20282201.750
  21576541.250
  21025045.250
 23  2 23 13 30 18.0000000  0 06G03G04G16G22G28G31 +1.200,15.5,3.75
  20520335.750
  21946060.250
  20815050.750
  20998946.250
  21715398.750
  21151713.750
 23  2 23 14  0 19.0000000  0 06G03G04G16G22G26G31 1.20,17.5,3.75
  20658098.750
  20941228.250
  19821438.250
  21594621.750
  19478016.250
  21933730.750
 23  2 23 14 30 29.0000000  0 05G03G04G16G26G27 +1.200,19.5,3.75
  23326419.250
  22214174.750
  21344176.750
  22078927.250
  18740054.250
 23  2 23 15  0 11.0000000  0 05G03G16G26G27G31 +1.600,19.0,3.75
  22351815.750
  19367227.250
  21027507.750
  21766267.750
  23972114.250
 23  2 23 15 30 11.0000000  0 04G04G09G16G27 +1.600,18.5,3.75
  21026803.750
  22421811.250
  21129729.250
  22335104.750
 23  2 23 16  0 12.0000000  0 06G04G07G09G16G26G27 +1.120,18.0,3.75
  21018335.750
  23651156.250
  21655843.250
  21623905.750
  18473044.750
  21640603.250
 23  2 23 16 30  9.0000000  0 06G04G08G09G16G27G30 1.36,17.5,3.75
  21448685.750
  21546147.250
  21304727.750
  22417072.250
  21435709.750
  19829561.750
 23  2 23 17  0 11.0000000  0 06G04G08G09G16G21G27 +1.600,18.5,3.75
  21026396.750
  19796424.750
  20162803.750
  22155822.750
  23841789.250
  20483435.250
 23  2 23 17 30  6.0000000  0 06G04G07G08G09G16G27 1.50,18.5,3.75
  20923334.250
  18981077.750
  18527386.750
  19476864.750
  22006194.750
  19984466.250
 23  2 23 18  0 25.0000000  0 07G07G08G09G16G21G27G30 +1.400,21.0,3.75
  20911805.750
  21262285.250
  22720994.750
  25467611.750
  23180616.750
  23392752.750
  22736348.250
 23  2 23 18 30 11.0000000  0 05G01G07G09G14G30 +1.600,23.0,3.75
  18153715.750
  21025078.750
  18102650.750
  23263562.250
  22214849.250
 23  2 23 19  0  9.0000000  0 06G01G07G08G14G17G21 1.60,24.5,3.75
  19653301.750
  23718367.750
  19797142.250
  19175044.750
  20029783.250
  19132521.250
 23  2 23 19 30  6.0000000  0 06G01G07G13G14G21G30 1.60,26.0,3.75
  20914748.250
  20267878.250
  22685555.750
  20699004.250
  21310904.250
  19929999.750
 23  2 23 20  0 10.0000000  0 07G01G07G08G14G17G21G30 1.60,27.5,3.75
  23204437.750
  23797915.750
  20875255.750
  22996536.250
  23310190.250
  18538338.250
  22701834.250
 23  2 23 20 30 11.0000000  0 05G01G07G14G17G19 +1.600,27.5,3.75
  19341966.250
  20990836.750
  18838239.750
  19047360.750
  21024079.250
 23  2 23 21  0  9.0000000  0 06G01G14G17G19G21G30 1.70,26.0,3.75
  21124862.250
  20057967.250
  20215812.750
  21507031.250
  23847666.750
  21339227.750
 23  2 23 21 30 11.0000000  0 04G01G14G17G30 +1.800,20.5,3.75
  22733692.750
  20937858.750
  21027471.750
  23130250.250
 23  2 23 22  0 20.0000000  0 05G06G11G17G19G24 +1.800,18.5,3.75
  21605535.250
  25160516.750
  21110117.750
  21026912.750
  23872178.250
 23  2 23 22 30 13.0000000  0 06G03G06G11G14G17G24 +1.320,18.5,3.75
  23141755.250
  20441172.750
  23510762.750
  21418035.250
  21018349.250
  23067544.250
 23  2 23 23  0 12.0000000  0 04G11G14G17G19 +1.800,19.0,3.75
  21993473.750
  21902557.750
  21026520.250
  19831862.250
 23  2 23 23 30 21.0000000  0 04G03G06G17G19 +1.400,13.5,3.75
  23185143.250
  19106533.250
  21093256.250
  19475205.250
 23  2 24  0  0  5.0000000  0 06G06G11G12G14G17G19 1.60,12.0,3.75
  23127984.750
  23783687.250
  19003236.250
  21585998.250
  19463373.750
  23513307.750
 23  2 24  0 30 11.0000000  0 04G12G17G19G20 +1.800,13.0,3.75
  21287575.250
  23217155.250
  21026192.250
  21743785.750
 23  2 24  1  0  6.0000000  0 07G05G06G11G12G19G20G25 1.83,10.0,3.75
  22567482.750
  20764455.250
  19763499.750
  20275800.250
  21068472.750
  20295605.250
  21742393.750
 23  2 24  1 30  6.0000000  0 06G05G06G09G11G12G19 1.86,9.0,3.75
  19707438.250
  19862424.250
  21956881.250
  18196421.250
  18589761.250
  20211751.750
 23  2 24  2  0  8.0000000  0 08G05G06G09G11G12G19G20G25 1.89,9.0,3.75
  18879890.250
  20828836.250
  22163676.250
  18625620.250
  19134305.250
  21337042.750
  23967359.750
  19431497.250
 23  2 24  2 30  5.0000000  0 06G02G05G09G12G20G29 1.91,7.5,3.75
  22399866.250
  19732768.750
  18107373.750
  21413312.250
  19597827.750
  21888697.750
 23  2 24  3  0  9.0000000  0 07G02G05G11G13G15G20G25 1.94,7.5,3.75
  21020878.750
  18612305.750
  20325325.250
  21877773.250
  22749324.250
  19200722.750
  20933469.250
 23  2 24  3 30  9.0000000  0 06G02G05G12G15G20G29 1.97,7.0,3.75
  23466688.250
  21602921.250
  19746318.250
  18408888.750
  22793434.250
  22400026.750
 23  2 24  4  0 11.0000000  0 05G02G11G15G18G20 +2.000,6.0,3.75
  20465893.250
  22135973.250
  20651007.250
  22461563.750
  21026105.250
 23  2 24  4 30  5.0000000  0 07G02G05G11G13G15G18G29 2.07,5.5,3.75
  19035967.250
  18873141.250
  21897454.750
  18784698.250
  18609326.250
  20485733.250
  18319972.750
 23  2 24  5  0  5.0000000  0 06G02G13G15G18G20G29 2.13,5.5,3.75
  20637851.750
  20511449.250
  19804596.250
  21455485.750
  23556653.250
  20510834.750
 23  2 24  5 30 11.0000000  0 05G02G05G15G18G29 +2.200,4.5,3.75
  20925090.250
  22591136.750
  19913491.250
  21026953.750
  21580155.250
 23  2 24  6  0 11.0000000  0 06G02G05G10G13G18G23 +2.200,4.0,3.75
  21026893.250
  23393167.250
  23890804.750
  21803219.250
  20358699.250
  21354212.750
 23  2 24  6 30  5.0000000  0 06G02G13G15G18G23G24 2.20,3.0,3.75
  18487870.750
  19815884.750
  23616052.750
  23040288.750
  23892060.750
  19226595.250
 23  2 24  7  0 11.0000000  0 05G02G18G24G27G32 +2.200,4.0,3.75
  23189322.250
  21025254.750
  22418160.750
  18204313.250
  18799832.750
 23  2 24  7 30 11.0000000  0 07G02G10G15G18G23G24G32 +1.800,4.5,3.75
  23770660.750
  22328792.250
  23160960.250
  21018408.250
  21000073.250
  21622157.750
  23425575.250
 23  2 24  8  0 11.0000000  0 07G02G10G15G18G22G23G32 +2.400,2.5,3.75
  24184520.750
  21037776.250
  23601012.750
  21028003.250
  23851695.250
  20278847.250
  21896363.750
 23  2 24  8 30 11.0000000  0 06G10G18G24G27G28G32 +2.400,2.0,3.75
  19546262.250
  21027615.750
  20347777.750
  23028828.750
  23248764.250
  20261109.750
 23  2 24  9  0  5.0000000  0 06G10G22G23G24G28G32 2.38,2.0,3.75
  23833685.250
  19795276.750
  18439240.750
  19779482.750
  20598706.250
  18460432.750
 23  2 24  9 30  5.0000000  0 07G18G21G23G25G28G31G32 2.36,3.0,3.75
  23757405.250
  22866881.250
  20630417.250
  22610452.750
  21025716.250
  21800500.750
  19809170.750
 23  2 24 10  0  8.0000000  0 06G10G12G23G25G28G31 2.34,2.5,3.75
  23160658.250
  20384033.750
  19193608.250
  19525534.250
  23809582.750
  18357732.250
 23  2 24 10 30  6.0000000  0 06G10G12G21G22G23G31 2.32,2.0,3.75
  19217166.750
  21924647.750
  21560736.250
  19349661.250
  21840271.750
  19063403.750
 23  2 24 11  0  8.0000000  0 06G10G21G22G23G28G31 2.30,1.5,3.75
  23320780.750
  19067528.750
  22515151.750
  20391339.750
  21837513.250
  21849162.250
 23  2 24 11 30  5.0000000  0 07G10G21G22G25G26G31G32 2.28,0.5,3.75
  18850493.750
  20002578.750
  22951465.750
  18593465.750
  19119553.250
  22159679.250
  23637539.750
 23  2 24 12  0 10.0000000  0 07G10G22G25G26G28G31G32 2.26,0.0,3.75
  22052236.250
  18982781.250
  21252544.250
  19968991.250
  18693779.250
  18297076.750
  20137379.250
 23  2 24 12 30 11.0000000  0 07G01G03G21G22G26G28G31 +2.240,1.5,3.75
  18218429.750
  21982111.250
  19208347.750
  21018359.250
  20923704.750
  21103303.750
  20597401.750
 23  2 24 13  0 11.0000000  0 05G03G16G26G31G32 +2.800,2.0,3.75
  19867762.750
  21026576.750
  18768963.250
  19670894.250
  21882181.750
 23  2 24 13 30 11.0000000  0 06G03G16G22G26G31G32 +2.800,2.5,3.75
  20880842.750
  21025487.750
  21433661.750
  19743479.750
  21617180.750
  17988320.250
 23  2 24 14  0 10.0000000  0 06G03G04G16G22G26G31 2.80,3.5,3.75
  22176233.750
  22288339.250
  21184046.250
  23159996.750
  20988924.750
  23511029.750
 23  2 24 14 30 11.0000000  0 05G03G04G26G27G31 +2.800,4.0,3.75
  22320175.250
  21024259.250
  21064840.750
  23479850.750
  23922312.250
 23  2 24 15  0  5.0000000  0 07G03G04G08G16G22G26G27 2.90,3.5,3.75
  21072224.250
  18333379.250
  21880553.250
  23965547.250
  22436991.750
  19739690.750
  20214974.750
 23  2 24 15 30 11.0000000  0 05G03G04G08G09G16 +3.000,7.5,3.75
  23757685.750
  19731367.250
  22246809.250
  21026958.750
  19910423.750
 23  2 24 16  0 18.0000000  0 06G03G04G07G08G16G27 +2.600,12.0,3.75
  20005131.250
  21038003.250
  23510430.250
  22296724.750
  21708837.250
  21566566.250
 23  2 24 16 30  5.0000000  0 06G04G07G08G09G16G27 2.58,9.5,3.75
  21377971.250
  22536423.250
  21291398.250
  21132498.750
  22382055.250
  21284372.750
 23  2 24 17  0 11.0000000  0 07G04G08G09G16G21G27G30 +2.560,14.0,3.75
  22420249.750
  21018104.750
  21469508.750
  23557641.250
  24963580.750
  21813716.250
  18671005.250
 23  2 24 17 30  8.0000000  0 07G04G08G09G14G16G21G30 2.51,11.0,3.75
  18691132.250
  22157338.250
  23182792.250
  19708080.750
  19770424.750
  19149176.250
  18808933.250
 23  2 24 18  0  5.0000000  0 07G01G04G07G08G09G21G27 2.45,12.5,3.75
  19191690.750
  19047186.750
  21202683.250
  21662023.250
  23171790.750
  23402999.250
  23867604.250
 23  2 24 18 30 12.0000000  0 05G01G07G08G21G30 +2.400,16.0,3.75
  22230563.250
  19271164.750
  20635197.250
  21031785.750
  20371330.250
 23  2 24 19  0  6.0000000  0 06G08G09G14G17G21G30 2.80,14.5,3.75
  23625765.750
  19698442.250
  22784442.250
  23580025.750
  22799569.250
  21796527.750
 23  2 24 19 30 11.0000000  0 06G01G07G13G14G17G21 +3.200,14.0,3.75
  21027274.250
  20562945.250
  22868917.250
  20844893.250
  21327116.750
  21561094.250
 23  2 24 20  0 10.0000000  0 05G01G07G17G21G30 +3.200,13.5,3.75
  20956174.250
  21706601.750
  21027541.750
  22411572.750
  20518975.250
 23  2 24 20 30  9.0000000  0 06G01G13G14G17G21G30 3.20,14.5,3.75
  20767631.750
  23224762.250
  20206603.750
  20407926.250
  23003715.250
  20722852.750
 23  2 24 21  0  7.0000000  0 07G01G06G07G14G17G19G30 3.20,15.5,3.75
  21907731.250
  23749612.750
  18410588.750
  20748492.750
  20903402.250
  22096583.250
  22148619.250
 23  2 24 21 30  9.0000000  0 06G01G03G06G17G19G30 3.20,12.5,3.75
  19311232.750
  20676723.750
  19050000.250
  23480514.250
  23973832.750
  19723551.250
 23  2 24 22  0 11.0000000  0 05G03G06G14G17G19 +3.200,13.0,3.75
  23539443.750
  21365811.750
  21140674.250
  21026060.250
  20858537.250
 23  2 24 22 30 11.0000000  0 04G06G14G17G19 +3.200,13.5,3.75
  21025235.750
  22187974.250
  21732245.250
  20976326.250
 23  2 24 23  0 12.0000000  0 04G06G14G17G19 +2.800,11.0,3.75
  20787513.250
  23244835.750
  22292409.250
  21035914.750
 23  2 24 23 30  5.0000000  0 06G06G11G17G19G20G24 3.10,8.0,3.75
  23829032.750
  19262595.750
  19873865.750
  18210671.250
  21740910.750
  21344670.750
 23  2 25  0  0 11.0000000  0 06G06G11G12G14G19G20 +3.400,6.5,3.75
  20497105.750
  21027599.750
  22184738.250
  19079100.750
  20877945.750
  22917484.750
 23  2 25  0 30  9.0000000  0 08G05G06G11G12G17G19G20G24 3.42,7.0,3.75
  21957865.750
  21452174.750
  18122982.750
  18889911.250
  20998617.750
  18784630.750
  19295300.250
  22671235.250
 23  2 25  1  0 10.0000000  0 06G06G11G12G17G19G20 3.44,6.5,3.75
  21795852.750
  20693633.750
  21175862.250
  18467463.250
  22100205.750
  21125886.250
 23  2 25  1 30  6.0000000  0 07G05G06G09G11G12G20G25 3.45,6.5,3.75
  21149679.750
  21567635.750
  23537598.750
  19819053.750
  20213841.250
  19599387.750
  21030467.750
 23  2 25  2  0  5.0000000  0 06G05G11G12G19G20G25 3.47,4.5,3.75
  19889805.250
  19797689.250
  20339779.250
  22605275.250
  19088202.750
  20559042.250
 23  2 25  2 30  6.0000000  0 08G05G06G09G11G12G13G25G29 3.49,5.0,3.75
  20696634.750
  18350164.750
  19223009.750
  21674082.750
  22571263.750
  18704936.250
  22248903.250
  22778893.250
 23  2 25  3  0  5.0000000  0 08G02G05G11G12G13G15G25G29 3.51,6.0,3.75
  18835673.750
  22479592.250
  18294438.750
  19670647.250
  19612588.750
  20457618.750
  18920608.750
  23926252.750
 23  2 25  3 30  6.0000000  0 06G02G05G11G12G20G29 3.53,7.5,3.75
  20985392.250
  19215423.750
  21617798.750
  23484171.250
  20473772.750
  19905396.250
 23  2 25  4  0  6.0000000  0 06G05G15G18G20G25G29 3.55,8.0,3.75
  22700067.750
  23755292.250
  19595938.250
  18392330.250
  20563702.250
  22655063.750
 23  2 25  4 30  7.0000000  0 07G02G05G15G18G23G25G29 3.56,7.0,3.75
  20636427.750
  20608012.750
  20139292.750
  22005301.750
  23043039.250
  18876639.250
  19986687.750
 23  2 25  5  0  6.0000000  0 06G02G05G13G15G23G29 3.58,7.0,3.75
  23068516.250
  17992783.750
  22980520.250
  22196951.250
  18815653.750
  23041065.250
 23  2 25  5 30 11.0000000  0 06G02G10G18G23G24G29 +3.600,6.0,3.75
  20253635.250
  18039163.750
  20253861.250
  21276682.250
  23619915.750
  21025511.750
 23  2 25  6  0  5.0000000  0 06G02G13G15G23G24G29 3.67,8.0,3.75
  22540940.750
  23393494.250
  21557956.250
  22752367.750
  18567412.250
  18150620.250
 23  2 25  6 30  5.0000000  0 07G02G13G15G18G23G24G29 3.73,9.0,3.75
  20778776.750
  22179494.750
  19933520.750
  19232916.250
  20050919.750
  21309748.250
  23117153.750
 23  2 25  7  0 11.0000000  0 07G02G10G15G18G24G27G32 +3.800,8.5,3.75
  21067896.750
  21026899.750
  20372664.250
  18814775.250
  20097772.750
  21932218.750
  22411428.250
 23  2 25  7 30  8.0000000  0 06G02G10G15G18G23G32 3.83,8.5,3.75
  18169168.750
  22496443.250
  23564953.750
  21346948.250
  21239661.750
  23555465.250
 23  2 25  8  0  5.0000000  0 07G02G10G18G22G23G28G32 3.87,7.5,3.75
  22548231.250
  19173885.250
  19353946.750
  21924871.750
  18497497.750
  23586711.250
  20008972.250
 23  2 25  8 30  8.0000000  0 06G18G22G23G24G28G31 3.90,7.5,3.75
  23532772.750
  18170947.750
  21829048.250
  22790050.750
  19425998.750
  20460827.250
 23  2 25  9  0  8.0000000  0 07G10G18G23G27G28G31G32 3.93,7.5,3.75
  18672468.750
  21903219.750
  19375933.750
  23445966.250
  21291765.750
  22218794.750
  19282957.250
 23  2 25  9 30  5.0000000  0 07G10G12G18G22G23G25G28 3.97,7.5,3.75
  21842669.250
  19559510.250
  20485391.250
  23245557.250
  23275510.750
  19035258.250
  23422971.750
 23  2 25 10  0 11.0000000  0 06G10G21G22G28G31G32 +4.000,7.5,3.75
  20237008.250
  23103967.250
  21027341.750
  20733219.250
  21242713.250
  20505757.250
 23  2 25 10 30 11.0000000  0 05G10G23G28G31G32 +4.000,7.5,3.75
  21027418.750
  23724067.750
  20444152.750
  20685327.250
  20920348.750
 23  2 25 11  0  7.0000000  0 07G21G22G23G25G26G31G32 4.00,9.0,3.75
  23024222.750
  20415846.750
  18481482.750
  21735414.750
  23585865.250
  19717855.750
  20719067.250
 23  2 25 11 30 11.0000000  0 04G10G22G28G32 +4.000,9.0,3.75
  23622860.250
  21566505.750
  21026159.750
  22316659.750
 23  2 25 12  0  9.0000000  0 07G01G10G16G21G22G28G32 4.00,8.0,3.75
  21185919.750
  21733075.750
  22758983.250
  22215926.250
  18504303.250
  18262588.250
  19722971.750
 23  2 25 12 30  7.0000000  0 07G03G16G22G26G28G31G32 4.00,8.5,3.75
  21119436.250
  22972954.250
  20283747.750
  20053439.250
  20420409.250
  19903975.250
  21983857.250
 23  2 25 13  0 11.0000000  0 04G22G26G28G31 +4.000,10.0,3.75
  21024869.250
  19914853.250
  21527973.250
  20967825.750
 23  2 25 13 30 11.0000000  0 06G03G16G22G26G31G32 +4.200,9.5,3.75
  21037176.250
  21026958.250
  21664092.750
  19893937.250
  21876382.250
  18270057.250
 23  2 25 14  0  7.0000000  0 06G03G04G16G22G26G31 4.20,9.5,3.75
  21352212.750
  21284432.750
  20201898.250
  22382385.750
  20157700.250
  22742370.250
 23  2 25 14 30 11.0000000  0 05G03G08G09G16G22 +4.200,10.0,3.75
  21027602.250
  23724893.250
  21970666.750
  18760538.750
  22287511.750
 23  2 25 15  0  7.0000000  0 08G03G07G08G09G16G22G26G27 4.20,10.5,3.75
  19927957.750
  20980864.750
  20419698.250
  18883482.750
  22704382.750
  21310401.750
  18587296.250
  18792015.750
 23  2 25 15 30  8.0000000  0 06G04G07G08G09G16G27 4.20,11.5,3.75
  21746864.250
  19083775.750
  18107922.750
  22942445.750
  22000303.250
  22868332.250
 23  2 25 16  0 11.0000000  0 05G04G07G08G16G27 +4.200,13.5,3.75
  20584671.750
  22897749.250
  21665723.750
  21314818.250
  21025653.750
 23  2 25 16 30 10.0000000  0 06G04G07G08G09G16G27 4.20,15.5,3.75
  18566417.250
  19513893.750
  18291114.250
  18216693.250
  19606815.250
  18394444.250
 23  2 25 17  0 11.0000000  0 06G04G07G08G09G16G27 +4.200,16.5,3.75
  21689146.750
  21011349.250
  20119616.250
  20653304.750
  22834862.750
  21025067.250
 23  2 25 17 30  5.0000000  0 06G04G07G08G09G21G30 4.02,19.5,3.75
  22641999.750
  20239896.750
  19980510.750
  21078048.250
  22811605.750
  22461076.250
 23  2 25 18  0 12.0000000  0 07G07G08G09G14G21G27G30 +3.840,20.0,3.75
  21018263.250
  21604257.250
  23172604.250
  23697254.250
  23156561.750
  23888107.250
  22689367.750
 23  2 25 18 30  6.0000000  0 06G07G08G14G17G21G30 4.12,20.0,3.75
  23384985.750
  18870605.750
  19444949.250
  20594016.750
  19091997.750
  18391692.750
 23  2 25 19  0 11.0000000  0 04G07G17G21G30 +4.400,18.5,3.75
  19729042.250
  21679667.250
  21027861.750
  19967573.750
 23  2 25 19 30  6.0000000  0 06G07G14G17G19G21G30 4.23,18.5,3.75
  21473752.250
  21595351.750
  22046843.750
  18998171.250
  22426797.250
  20925529.250
 23  2 25 20  0  5.0000000  0 07G01G07G14G17G19G21G30 4.05,19.0,3.75
  23224061.250
  18131688.750
  22975575.250
  23251225.750
  19680671.750
  18799150.250
  22845064.250
 23  2 25 20 30 10.0000000  0 07G01G07G13G17G19G21G30 +3.880,17.0,3.75
  21018315.250
  22906987.750
  23500683.250
  20582407.750
  22369792.250
  23345360.750
  21019979.750
 23  2 25 21  0 11.0000000  0 04G01G13G14G19 +4.400,19.5,3.75
  21043569.250
  23613151.250
  19785727.750
  21026423.250
 23  2 25 21 30 13.0000000  0 05G03G14G17G19G30 +4.400,17.5,3.75
  18154310.750
  21007621.750
  21063115.750
  21459839.750
  23443171.750
 23  2 25 22  0 11.0000000  0 06G01G03G06G14G17G19 +4.400,17.0,3.75
  23727769.250
  23280453.250
  21025718.250
  20995222.750
  20842849.250
  20589529.750
 23  2 25 22 30 16.0000000  0 05G03G06G11G14G17 +4.400,16.0,3.75
  17999055.250
  21114898.750
  18021829.750
  22466516.250
  21949195.250
 23  2 25 23  0 13.0000000  0 06G03G06G11G14G17G19 4.45,15.0,3.75
  19192172.250
  21628923.250
  23794182.250
  18258680.250
  23221841.250
  21904916.250
 23  2 25 23 30 11.0000000  0 07G06G11G12G14G17G19G20 4.50,13.5,3.75
  22955421.250
  18265791.750
  19758297.750
  20709582.250
  19055470.250
  23339960.250
  20675257.750
 23  2 26  0  0 25.0000000  0 02G06G14 4.55,14.0,3.75
  21227994.250
  19934876.750
 23  2 26  0 30 11.0000000  0 05G05G11G12G19G20 +4.600,12.0,3.75
  23631968.250
  19956835.250
  20674370.750
  20725698.250
  21027212.750
 23  2 26  1  0 10.0000000  0 06G05G06G09G11G19G25 4.60,12.0,3.75
  19429372.750
  18183522.750
  21007209.750
  22979816.250
  18490906.750
  18762880.750
 23  2 26  1 30  8.0000000  0 08G05G06G09G11G12G19G20G25 4.60,11.0,3.75
  21164015.250
  21841712.250
  23692279.750
  20012055.250
  20413475.750
  22223912.750
  19714794.750
  21148490.250
 23  2 26  2  0 11.0000000  0 05G05G09G12G20G29 +4.600,9.5,3.75
  20373906.750
  23959772.250
  21026863.750
  19682354.750
  22823121.750
 23  2 26  2 30  9.0000000  0 06G02G05G09G11G20G25 4.47,8.5,3.75
  18909066.750
  22277152.750
  20954219.750
  23384870.250
  22350183.750
  23954761.750
 23  2 26  3  0  6.0000000  0 08G02G05G11G12G13G20G25G29 4.33,8.5,3.75
  22018753.250
  19730736.750
  21635761.750
  23083503.250
  22716521.750
  20494062.750
  22283686.250
  21074578.250
 23  2 26  3 30 12.0000000  0 06G05G11G13G20G25G29 +4.200,8.5,3.75
  21018241.750
  23484575.750
  22861866.250
  22343293.750
  18352536.250
  21597834.250
 23  2 26  4  0 11.0000000  0 07G02G05G11G13G15G20G29 +0.600,8.5,3.75
  22001668.750
  21162736.250
  17999721.250
  21836761.250
  22001587.250
  22894415.250
  21024410.750
 23  2 26  4 30  5.0000000  0 06G02G05G13G15G18G29 0.51,8.5,3.75
  19847915.750
  19949613.250
  19602479.250
  19287601.750
  21136801.250
  19268057.250
 23  2 26  5  0  9.0000000  0 08G02G05G13G15G18G20G23G29 0.41,7.5,3.75
  23231292.750
  18281899.750
  23186052.750
  22326692.250
  23863323.250
  20432656.250
  18883958.750
  23306815.250
 23  2 26  5 30 10.0000000  0 07G02G05G10G13G15G18G29 +0.320,8.5,3.75
  21118803.250
  22999799.750
  18771827.250
  21501822.250
  20095208.750
  21018314.750
  22006521.250
 23  2 26  6  0 10.0000000  0 07G02G05G10G13G15G18G23 +0.800,9.0,3.75
  21905036.250
  18433127.250
  18456907.250
  22835620.750
  20937148.750
  21026252.250
  21994525.250
 23  2 26  6 30  7.0000000  0 06G02G05G15G18G23G24 0.80,9.0,3.75
  22761451.750
  19695024.750
  21937688.750
  21114915.750
  21896018.250
  23086567.250
 23  2 26  7  0  8.0000000  0 08G02G10G13G15G18G23G24G27 0.80,8.0,3.75
  21258502.750
  21009622.250
  23155701.250
  20580074.750
  18921516.750
  19318685.250
  20098224.250
  21983998.750
 23  2 26  7 30 10.0000000  0 07G02G10G15G18G23G24G27 +0.800,9.0,3.75
  23905449.750
  22007614.750
  23312276.250
  21024666.250
  20824262.250
  21425429.750
  23689685.250
 23  2 26  8  0 12.0000000  0 06G10G18G23G24G27G32 +0.200,9.5,3.75
  21030896.750
  21411520.750
  20441309.750
  21134117.750
  23694032.250
  21843949.250
 23  2 26  8 30  8.0000000  0 07G08G12G15G22G23G24G32 0.27,10.0,3.75
  23575646.750
  18180413.250
  18047728.750
  21687974.750
  19504520.250
  20519655.250
  20113333.250
 23  2 26  9  0  5.0000000  0 06G10G21G23G24G31G32 0.33,10.5,3.75
  19747858.750
  23760641.250
  20549382.750
  22020767.250
  23139515.750
  20346702.250
 23  2 26  9 30  8.0000000  0 08G10G12G22G23G24G28G31G32 0.40,9.0,3.75
  21782236.250
  19419394.250
  23108261.750
  23313332.750
  19260390.250
  23215349.750
  23934992.250
  22251626.750
 23  2 26 10  0  9.0000000  0 07G01G12G22G24G28G31G32 0.47,9.5,3.75
  23136690.750
  23145939.250
  20768873.250
  18603813.250
  20424002.250
  20899916.250
  20302062.750
 23  2 26 10 30  7.0000000  0 07G01G10G21G22G28G31G32 0.53,10.0,3.75
  20937550.750
  18996095.250
  21175033.250
  18889230.750
  18271704.250
  18477658.750
  18826907.750
