     2.00           OBSERVATION DATA    G(GPS)              RINEX VERSION / TYPE
goGPS-java                              17-Apr-24 14:14:24  PGM / RUN BY / DATE
                                                            MARKER NAME
                                                            MARKER NUMBER
                    Lotek Wireless Inc.                     OBSERVER / AGENCY
7                                                           REC # / TYPE / VERS
                                                            ANT # / TYPE
    73993.0000 -5057250.0000  3872763.0000                  APPROX POSITION XYZ
        0.0000        0.0000        0.0000                  ANTENNA: DELTA H / E / N
     2     0                                                WAVELENGTH FACT L1/2
     1    C1                                                # / TYPES OF OBSERV
  2023     2    13    20    39   58.0000000     UTC         TIME OF FIRST OBS
                                                            END OF HEADER
 23  2 13 21  0 13.0000000  0 00 0.18,24.0,3.80
 23  2 13 21 30 13.0000000  0 00 0.46,23.5,3.80
 23  2 13 22  0 13.0000000  0 00 0.73,23.5,3.80
 23  2 13 22 30 14.0000000  0 05G01G03G14G17G19 +1.000,23.0,3.80
  23288822.750
  23854407.750
  21025160.250
  21019350.250
  21182385.250
 23  2 13 23  0 13.0000000  0 06G01G06G14G17G19G24 +1.000,24.0,3.80
  18713877.250
  21301337.250
  21765620.750
  21500617.250
  21024767.750
  23763214.250
 23  2 13 23 30 16.0000000  0 07G03G06G11G14G17G19G24 +0.600,23.5,3.80
  23056431.250
  19931358.250
  22555814.750
  21755768.250
  21072867.250
  20040566.750
  22794009.250
 23  2 14  0  0 11.0000000  0 05G06G12G14G17G19 +1.000,11.5,3.80
  19206569.750
  22768820.250
  22263774.250
  21025547.750
  19530833.750
 23  2 14  0 30 11.0000000  0 05G06G11G17G19G20 +1.000,7.5,3.80
  18771728.750
  19742699.750
  21025341.750
  19159683.750
  21945613.250
 23  2 14  1  0  5.0000000  0 06G06G11G12G17G19G20 1.04,5.5,3.80
  21841942.250
  21935835.750
  22903490.750
  18351069.750
  22200569.250
  23476491.250
 23  2 14  1 30  5.0000000  0 06G05G06G11G12G19G20 1.08,4.0,3.80
  23407529.250
  20831683.750
  20110134.750
  20723770.250
  21145592.750
  20908614.750
 23  2 14  2  0  5.0000000  0 07G05G06G09G11G12G19G20 1.12,3.0,3.80
  19729859.250
  19137592.750
  21605957.250
  23706498.750
  18125395.750
  19463537.250
  23797631.250
 23  2 14  2 30  9.0000000  0 08G05G06G09G11G12G19G20G25 1.16,2.5,3.80
  21832482.250
  23116830.750
  18713459.250
  21110379.750
  21549922.250
  23558926.750
  20623296.750
  22043104.250
 23  2 14  3  0 11.0000000  0 04G05G06G11G25 +1.200,2.0,3.80
  20568260.750
  23488362.750
  21026350.750
  21647924.750
 23  2 14  3 30 11.0000000  0 04G05G11G20G25 +1.200,1.0,3.80
  19597798.750
  21025856.750
  19940764.750
  21595047.750
 23  2 14  4  0  6.0000000  0 06G05G11G12G15G20G29 1.09,1.0,3.80
  20795245.750
  22945522.750
  18563129.250
  18133945.250
  21801824.250
  21891173.750
 23  2 14  4 30  5.0000000  0 07G02G05G11G13G15G20G29 0.99,0.5,3.80
  23851294.750
  22458689.750
  19109865.750
  23899531.750
  18323279.250
  17989939.750
  22792101.250
 23  2 14  5  0 10.0000000  0 07G02G05G11G13G15G20G29 +0.880,0.5,3.80
  19639049.250
  19123683.250
  22097630.750
  19427088.750
  19426484.250
  21018315.750
  18782849.750
 23  2 14  5 30  5.0000000  0 07G02G05G13G15G18G20G29 1.02,0.5,3.80
  19824710.750
  20255082.250
  19628656.250
  19120980.250
  20861551.750
  22379892.250
  19453035.750
 23  2 14  6  0  6.0000000  0 06G05G13G15G20G23G29 1.17,0.0,3.80
  22151557.250
  20901682.750
  19842964.250
  18407469.250
  22208442.750
  21154144.750
 23  2 14  6 30  5.0000000  0 06G02G05G13G15G18G29 1.31,0.0,3.80
  21779537.750
  23885399.750
  22346794.750
  20756190.750
  21377584.750
  22945708.750
 23  2 14  7  0  5.0000000  0 06G02G05G10G15G18G29 1.46,0.0,3.80
  22721627.750
  19388120.250
  18801415.250
  21791424.250
  21539462.250
  18686731.250
 23  2 14  7 30 11.0000000  0 04G15G18G23G24 +1.600,0.0,3.80
  21028044.750
  19877487.250
  20543708.750
  21572374.250
 23  2 14  8  0 11.0000000  0 07G02G08G15G18G23G24G32 +1.080,0.0,3.80
  21672168.750
  23765415.750
  21018517.750
  19102961.750
  19299159.750
  19989303.250
  22008383.250
 23  2 14  8 30  7.0000000  0 06G02G10G15G18G23G24 1.49,0.0,3.80
  21385784.250
  18837687.750
  20787428.250
  18345523.750
  23865848.750
  18474294.250
 23  2 14  9  0  8.0000000  0 08G10G15G18G23G24G27G28G32 1.89,0.5,3.80
  19336386.250
  22971164.750
  20281290.750
  18990156.750
  19771954.250
  22401585.750
  23397189.750
  20086819.750
 23  2 14  9 30  7.0000000  0 08G08G10G18G22G23G24G28G32 2.30,1.5,3.80
  18937149.750
  20515308.250
  23002477.750
  22662060.250
  20859509.250
  22020593.750
  23670002.750
  21158914.750
 23  2 14 10  0  5.0000000  0 06G10G22G23G28G31G32 2.70,3.0,3.80
  22816640.250
  18503550.750
  23887054.750
  18963310.250
  19793690.750
  23362779.250
 23  2 14 10 30 16.0000000  0 06G10G23G25G28G31G32 3.11,5.0,3.80
  19420921.250
  21206784.250
  22134111.750
  20480626.250
  21102051.750
  19802099.750
 23  2 14 11  0  6.0000000  0 06G10G12G25G28G31G32 3.52,5.0,3.80
  19642183.750
  22515456.250
  21383499.750
  19610592.750
  19980543.750
  19729737.250
 23  2 14 11 30  5.0000000  0 07G10G12G22G25G28G31G32 3.92,6.0,3.80
  19104689.250
  21514940.750
  18650790.750
  19910785.750
  17995669.250
  18098968.750
  18735257.750
 23  2 14 11 35 47.0000000  0 00 +4.000,6.5,3.80,1,67073,-5050920,3881264,6,1.6
 23  2 14 18  0  6.0000000  0 06G04G07G08G09G16G27 -1.56,14.0,3.80
  20218609.250
  18672270.750
  18053328.250
  18875398.750
  21288570.750
  19336443.250
 23  2 14 18 30 11.0000000  0 04G07G08G09G14 -2.000,15.0,3.80
  20887165.250
  21026160.750
  22379531.750
  23807714.250
 23  2 14 19  0 11.0000000  0 05G07G08G09G14G21 -2.000,14.5,3.80
  19993232.250
  21026216.750
  22790685.750
  22387269.250
  21928683.750
 23  2 14 19 30  9.0000000  0 07G07G08G09G14G17G21G30 -2.00,15.5,3.80
  21338488.250
  23240516.750
  19273264.250
  23006589.250
  23928407.750
  22853351.250
  21981327.250
 23  2 14 20  0 11.0000000  0 04G01G07G21G30 -2.000,16.5,3.80
  20843052.750
  19886173.250
  21025536.250
  19748089.750
 23  2 14 20 30  6.0000000  0 07G01G07G13G14G17G21G30 -2.00,16.5,3.80
  23003983.250
  23299193.250
  19062539.750
  22825508.250
  23161816.250
  18127828.750
  22394923.750
 23  2 14 21  0  6.0000000  0 07G01G07G13G14G17G21G30 -2.00,15.0,3.80
  20320811.250
  21719773.250
  22687615.750
  19918218.250
  20133882.250
  22287035.250
  20140490.750
 23  2 14 21 30 11.0000000  0 05G01G06G14G19G30 -2.000,12.0,3.80
  21025259.250
  23610426.750
  20112811.750
  21749122.750
  21176213.250
 23  2 14 22  0  5.0000000  0 06G03G06G14G17G19G30 -2.00,10.0,3.80
  21896126.750
  20472276.250
  18296843.750
  18403568.750
  19167153.250
  20271745.750
 23  2 14 22 30 16.0000000  0 01G17 -2.00,9.5,3.80
  21106009.250
 23  2 14 23  0 11.0000000  0 05G03G06G14G17G19 -2.000,9.0,3.80
  21024130.750
  18473084.750
  19124944.250
  18812846.250
  18257738.250
 23  2 14 23 30 16.0000000  0 05G03G06G11G17G19 -2.600,9.0,3.80
  21104056.250
  23882745.750
  20416930.750
  19134974.250
  18035660.250
 23  2 15  0  0 16.0000000  0 04G06G11G17G19 -1.800,9.0,3.80
  21116542.750
  22845997.250
  23007777.750
  21458154.250
 23  2 15  0 30 11.0000000  0 04G11G17G19G20 -1.600,8.5,3.80
  21493738.250
  22936753.250
  21030254.750
  23616921.250
 23  2 15  1  0 16.0000000  0 05G06G11G12G17G19 -2.200,9.0,3.80
  21134541.250
  21108281.250
  22019532.250
  23662622.250
  21486442.250
 23  2 15  1 30  6.0000000  0 06G05G06G11G12G17G19 -2.05,10.0,3.80
  19871266.750
  23563982.250
  22739071.750
  23314209.750
  20238649.250
  23875349.250
 23  2 15  2  0  6.0000000  0 07G05G06G11G12G19G20G25 -1.90,10.0,3.80
  19992866.750
  19667304.250
  18153015.750
  18557142.750
  20002765.750
  18157690.750
  19561948.750
 23  2 15  2 30  5.0000000  0 07G05G06G09G11G12G25G29 -1.75,11.0,3.80
  20557452.750
  22077791.250
  23576133.250
  20002008.750
  20463060.750
  20880076.250
  23139723.250
 23  2 15  3  0 16.0000000  0 05G06G11G12G20G25 -1.600,11.5,3.80
  21121936.250
  18603466.250
  19348516.250
  23680560.750
  19204154.750
 23  2 15  3 30  9.0000000  0 07G05G06G11G12G20G25G29 -1.60,11.5,3.80
  22591428.750
  20984478.250
  18134217.750
  19319287.250
  23029410.750
  18713512.750
  18308827.750
 23  2 15  4  0  6.0000000  0 06G02G05G11G15G20G25 -1.60,11.5,3.80
  20415195.250
  18409069.250
  20637426.750
  21555895.250
  19492682.750
  21380680.250
 23  2 15  4 30  8.0000000  0 06G02G05G11G12G15G29 -1.60,11.0,3.80
  18020911.250
  22735718.750
  19437922.750
  21549144.750
  18387547.250
  22966827.750
 23  2 15  5  0  6.0000000  0 07G02G05G11G15G18G20G29 -1.60,11.5,3.80
  19518435.750
  19128384.750
  22133820.250
  19228330.250
  21082679.250
  21056608.250
  18710635.250
 23  2 15  5 30  9.0000000  0 06G02G05G13G20G23G29 -1.60,12.0,3.80
  21367028.750
  21928504.250
  21195253.250
  18075384.750
  23362996.250
  21082456.750
 23  2 15  6  0 11.0000000  0 06G02G05G13G18G23G29 -1.600,12.0,3.80
  20881590.750
  22338807.250
  21027767.250
  21132985.250
  22176502.750
  21335015.250
 23  2 15  6 30  8.0000000  0 07G02G05G13G15G18G23G29 -1.60,12.0,3.80
  19841440.250
  22039347.750
  20483137.250
  18824443.250
  19334494.750
  20356474.750
  21123664.250
 23  2 15  7  0 10.0000000  0 07G02G05G10G15G18G24G29 -1.60,12.0,3.80
  22460998.250
  19188129.250
  18364225.750
  21550684.250
  21173516.250
  23543259.250
  18528309.750
 23  2 15  7 30 10.0000000  0 06G02G15G18G23G24G32 -1.60,12.0,3.80
  19292699.750
  18533474.750
  23265744.750
  23881155.250
  18856710.750
  21309086.750
 23  2 15  8  0  8.0000000  0 08G02G10G15G18G23G24G27G32 -1.60,11.5,3.80
  22247146.750
  21160272.750
  21606296.250
  19604922.750
  19722487.750
  20386085.750
  22450434.250
  22323801.250
 23  2 15  8 30  8.0000000  0 07G10G15G18G23G24G27G32 -1.60,11.0,3.80
  22513817.250
  18700454.750
  22203797.750
  21624853.250
  22238878.250
  18661447.750
  23413025.250
 23  2 15  9  0  9.0000000  0 08G10G18G22G23G24G27G28G32 -1.60,11.0,3.80
  23840193.250
  18993772.250
  20362059.250
  23583578.750
  18411679.250
  21062422.250
  21787198.750
  18577960.250
 23  2 15  9 30  7.0000000  0 07G10G18G23G24G27G28G32 -1.60,10.5,3.80
  19074104.250
  21767874.750
  19515086.750
  20737622.250
  23440026.750
  22094550.250
  19706337.250
 23  2 15 10  0 11.0000000  0 06G10G12G21G22G23G32 -1.600,10.5,3.80
  19854499.250
  23785998.250
  23560028.250
  21464667.250
  21025840.750
  20384374.750
 23  2 15 10 30 10.0000000  0 07G10G12G21G22G23G25G32 -1.60,10.0,3.80
  22005435.250
  19353719.750
  19094356.250
  23045376.250
  23880949.250
  18596126.750
  22357133.750
 23  2 15 11  0 11.0000000  0 06G10G12G23G25G28G32 -1.600,10.0,3.80
  19417000.750
  22221466.750
  21911817.250
  21024853.250
  19233866.750
  19452261.250
 23  2 15 11 30  6.0000000  0 06G10G21G22G25G31G32 -1.56,9.5,3.80
  19644290.750
  21505338.250
  19057616.250
  20331355.250
  18461363.750
  19201705.750
 23  2 15 12  0  5.0000000  0 07G10G21G25G26G28G31G32 -1.52,9.5,3.80
  21678443.250
  22943124.250
  21582959.250
  22489299.750
  19415630.750
  19243840.750
  20616044.750
 23  2 15 12 30  6.0000000  0 06G10G22G26G28G31G32 -1.48,9.0,3.80
  23783024.250
  20963270.250
  22244631.250
  20597450.250
  20238151.750
  22024816.750
 23  2 15 13  0  6.0000000  0 06G16G22G26G28G31G32 -1.44,8.5,3.80
  23038825.750
  19703000.750
  19870950.250
  19695288.250
  19213517.750
  21252311.750
 23  2 15 13 30 11.0000000  0 04G26G28G31G32 -1.400,9.0,3.80
  20406045.750
  21570585.750
  21027208.250
  23234223.750
 23  2 15 14  0 11.0000000  0 06G03G16G22G28G31G32 -1.880,10.0,3.80
  20596517.250
  21030837.250
  21018339.250
  21706397.750
  21148208.250
  23509803.750
 23  2 15 14 30  6.0000000  0 06G03G16G22G26G28G31 -1.85,11.5,3.80
  19817248.750
  19118648.250
  20710185.750
  18640886.750
  21584626.750
  21039874.250
 23  2 15 15  0  6.0000000  0 06G03G04G22G26G28G31 -1.83,13.0,3.80
  22668910.250
  21690380.750
  23840649.750
  21416268.250
  18750733.250
  18230777.250
 23  2 15 15 30 14.0000000  0 06G04G08G09G16G26G27 -1.800,15.0,3.80
  21071992.750
  18838316.250
  23176378.750
  20604327.250
  22173002.250
  23112566.250
 23  2 15 16  0  5.0000000  0 06G03G04G08G09G16G26 -1.60,15.5,3.80
  18744376.250
  20972127.250
  23766163.750
  22429208.750
  21017792.750
  23326702.250
 23  2 15 16 30 10.0000000  0 04G08G16G26G27 -1.400,16.5,3.80
  22054548.750
  21026136.750
  23836315.250
  21168279.750
 23  2 15 17  0 11.0000000  0 06G04G07G08G09G16G27 -1.400,19.0,3.80
  20996871.250
  22480609.250
  21213636.250
  20907335.250
  21903967.250
  21025321.750
 23  2 15 17 30 10.0000000  0 06G04G07G08G09G16G27 -1.60,20.5,3.80
  21771271.750
  21701883.750
  20645323.750
  20951570.750
  22848295.750
  21249326.250
 23  2 15 18  0  7.0000000  0 07G04G07G08G09G16G27G30 -1.80,22.0,3.80
  20998345.750
  19211715.250
  18684757.750
  19584912.250
  22050827.750
  20071429.250
  21598777.750
 23  2 15 18 30 16.0000000  0 07G04G07G08G09G14G21G27 -2.000,23.0,3.80
  18355252.750
  20846129.250
  21105923.250
  22524166.250
  23703817.250
  23158462.750
  23176231.250
 23  2 15 19  0 11.0000000  0 04G07G08G09G30 -1.400,23.5,3.80
  19868398.750
  21025645.750
  22835013.750
  21133263.250
 23  2 15 19 30 11.0000000  0 06G01G07G08G09G21G30 -1.400,24.0,3.80
  21622903.750
  19566428.250
  21577256.250
  23629447.250
  21024969.250
  20101671.750
 23  2 15 20  0 11.0000000  0 06G01G07G08G17G21G30 -1.200,24.0,3.80
  20717205.750
  19938248.250
  22615094.250
  21022695.750
  21028707.750
  19689784.750
 23  2 15 20 30 11.0000000  0 05G07G14G17G21G30 -1.400,23.0,3.80
  20242852.250
  19586898.750
  19901498.750
  21025253.750
  19233923.250
 23  2 15 21  0  6.0000000  0 06G01G07G14G19G21G30 -1.52,22.5,3.80
  20461179.250
  21996100.250
  20004022.250
  22275338.750
  22529305.750
  20332786.750
 23  2 15 21 30  6.0000000  0 06G01G06G14G17G19G30 -1.64,20.0,3.80
  19049772.750
  21376901.250
  18051488.750
  18209673.750
  19585695.750
  19237019.250
 23  2 15 22  0 11.0000000  0 07G03G06G14G17G19G21G30 -1.760,22.5,3.80
  22513618.750
  21017651.250
  19038225.250
  19132089.750
  19795364.250
  23779836.750
  21141276.250
 23  2 15 22 30 12.0000000  0 05G03G11G14G19G30 -1.800,20.0,3.80
  20714140.250
  22242783.250
  18117004.250
  18035884.750
  21055023.250
 23  2 15 23  0 11.0000000  0 05G03G06G14G17G19 -1.400,18.5,3.80
  23184007.250
  20545532.250
  21387923.250
  21024493.750
  20390200.750
 23  2 15 23 30 17.0000000  0 06G03G06G11G17G19G24 -1.40,16.0,3.80
  18253523.750
  20937732.750
  23368157.250
  22289241.250
  21123673.250
  23917141.250
 23  2 16  0  0 15.0000000  0 04G06G17G19G20 -1.400,14.0,3.80
  19139838.750
  21097658.250
  19495814.750
  23334510.250
 23  2 16  0 30 17.0000000  0 06G06G11G17G19G20G24 -1.200,12.0,3.80
  20749994.250
  21477869.250
  23083779.750
  21136857.750
  23515147.750
  18570912.750
 23  2 16  1  0 17.0000000  0 05G06G17G19G20G25 -1.400,10.5,3.80
  21133912.750
  23682398.750
  21479092.750
  22331779.750
  23790549.250
 23  2 16  1 30  6.0000000  0 06G05G06G11G17G19G20 -1.40,9.5,3.80
  21740424.750
  19713111.750
  18785746.750
  22397240.750
  20022999.750
  19386421.250
 23  2 16  2  0  5.0000000  0 06G02G05G06G09G11G20 -1.40,9.0,3.80
  23768798.250
  21444450.750
  21384568.750
  23583361.750
  19784616.250
  19704873.250
 23  2 16  2 30  6.0000000  0 06G06G09G11G12G19G20 -1.40,8.5,3.80
  23022441.750
  18433546.250
  20877044.750
  21364707.250
  23517067.750
  20265707.250
 23  2 16  3  0  8.0000000  0 07G02G05G06G11G20G25G29 -1.40,10.0,3.80
  18238811.750
  21580597.750
  18899052.750
  22323980.750
  21371101.750
  22909056.750
  23786876.250
 23  2 16  3 30  5.0000000  0 07G02G11G12G13G15G20G29 -1.40,8.5,3.80
  18661368.250
  23870986.250
  19127287.250
  19597389.750
  20483072.750
  22756941.750
  23846409.750
 23  2 16  4  0 16.0000000  0 05G02G05G11G15G20 -1.400,8.5,3.80
  20080715.750
  18163931.750
  20470260.750
  21107651.250
  19325660.750
 23  2 16  4 30  6.0000000  0 06G02G05G11G13G15G29 -1.37,9.0,3.80
  19224439.750
  18057518.250
  20803249.250
  19176709.250
  19492761.750
  18189219.750
 23  2 16  5  0  5.0000000  0 07G02G05G11G13G15G18G20 -1.33,9.0,3.80
  19795853.750
  19535587.250
  22571834.250
  19560022.250
  19429781.250
  21282823.250
  21495817.250
 23  2 16  5 30  6.0000000  0 06G02G05G13G20G23G29 -1.30,9.0,3.80
  20441392.750
  21131065.750
  20298521.250
  23289473.250
  22345414.250
  20246958.250
 23  2 16  6  0  5.0000000  0 06G02G05G13G18G23G29 -1.27,9.0,3.80
  19188902.250
  20757617.250
  19393665.250
  19343181.250
  20384964.750
  19752401.750
 23  2 16  6 30  8.0000000  0 06G02G05G13G15G18G23 -1.23,9.0,3.80
  20659742.250
  22945661.250
  21377162.250
  19651614.250
  20047000.750
  21059126.750
 23  2 16  7  0 16.0000000  0 04G05G15G18G29 -1.200,9.0,3.80
  24784825.750
  21115695.250
  20610791.250
  18172844.250
 23  2 16  7 30 11.0000000  0 06G10G15G23G24G27G32 -1.000,8.5,3.80
  20226953.750
  19201872.750
  18384189.250
  19300339.250
  21026545.250
  21696809.250
 23  2 16  8  0  7.0000000  0 08G02G10G15G18G23G24G27G32 -1.06,8.0,3.80
  20578625.750
  19266917.250
  19949235.750
  23860467.250
  23893871.250
  18539414.750
  20655806.750
  20389116.750
 23  2 16  8 30  7.0000000  0 07G10G15G18G23G24G27G32 -1.11,7.5,3.80
  22718884.750
  19138687.250
  22596433.750
  21910772.250
  22539733.250
  19002043.250
  23590905.750
 23  2 16  9  0  6.0000000  0 06G10G22G23G24G27G32 -1.17,6.5,3.80
  21894512.250
  18354065.250
  21728720.250
  22598617.250
  19271004.750
  22612669.250
 23  2 16  9 30  6.0000000  0 06G10G22G23G24G28G32 -1.23,6.5,3.80
  21457496.750
  23476992.750
  21997056.750
  23283522.750
  18344477.250
  22078378.750
 23  2 16 10  0  5.0000000  0 06G10G22G23G28G31G32 -1.29,6.5,3.80
  20916690.250
  22455365.750
  22185000.750
  22766450.750
  23549300.250
  21429686.250
 23  2 16 10 30  5.0000000  0 07G10G12G21G22G23G31G32 -1.34,6.5,3.80
  20598085.250
  23866579.750
  23599292.750
  21549243.250
  22563572.250
  21923076.750
  20917362.250
 23  2 16 11  0 13.0000000  0 05G10G12G25G28G32 -1.400,5.5,3.80
  21054656.750
  23792264.750
  22529912.750
  20720669.750
  21034583.750
 23  2 16 11 30  6.0000000  0 06G21G22G25G28G31G32 -1.20,4.5,3.80
  21274640.250
  18771310.750
  20064159.750
  18100683.750
  18134548.250
  18975842.750
 23  2 16 12  0  5.0000000  0 07G10G21G25G26G28G31G32 -1.00,4.5,3.80
  19822253.750
  21007166.750
  19632259.750
  20315379.250
  23423943.250
  23222957.250
  18668092.750
 23  2 16 12 30 11.0000000  0 06G01G21G22G28G31G32 -0.800,4.5,3.80
  18289625.750
  19308846.750
  21727611.750
  21406666.750
  21025955.750
  22855394.250
 23  2 16 13  0  8.0000000  0 06G01G16G22G28G31G32 -1.10,4.5,3.80
  23515691.250
  23495647.750
  20376706.250
  20421850.250
  19927639.250
  21991645.250
 23  2 16 13 30 12.0000000  0 04G03G22G28G31 -1.400,5.0,3.80
  20774536.750
  20610915.250
  21032595.250
  20484044.250
 23  2 16 14  0 13.0000000  0 05G03G22G26G28G31 -0.800,5.0,3.80
  22148256.750
  22650354.750
  21024418.250
  23372298.250
  22813761.250
 23  2 16 14 30  6.0000000  0 06G03G04G22G26G28G31 -0.77,5.5,3.80
  22819903.750
  23038214.750
  23764272.750
  21634856.750
  18655877.250
  18113163.250
 23  2 16 15  0  6.0000000  0 06G03G04G09G26G28G31 -0.73,6.0,3.80
  21189152.750
  20013832.750
  22564973.750
  19926700.750
  23288489.250
  22770964.750
 23  2 16 15 30 10.0000000  0 07G03G04G07G16G22G26G31 -0.70,6.0,3.80
  21425232.750
  18795524.750
  22906112.250
  18392493.750
  22762985.750
  20076905.250
  23032923.750
 23  2 16 16  0 10.0000000  0 07G03G04G08G09G16G26G27 -0.67,6.5,3.80
  21919383.250
  23983263.750
  20623838.250
  19343821.750
  18104063.250
  20501169.250
  19274452.250
 23  2 16 16 30  5.0000000  0 06G04G08G09G16G26G27 -0.63,7.5,3.80
  19163889.750
  20559308.750
  19757825.250
  19762151.250
  22626362.250
  19757932.250
 23  2 16 17  0 12.0000000  0 04G08G09G16G27 -0.600,8.5,3.80
  21108236.250
  20884826.250
  22018354.750
  21025760.750
 23  2 16 17 30 13.0000000  0 06G04G07G09G16G27G30 -0.400,8.5,3.80
  21652380.250
  21349390.250
  20741743.750
  22733183.750
  21066408.750
  18070729.750
 23  2 16 18  0  5.0000000  0 06G04G07G08G09G16G30 -0.60,7.5,3.80
  22747502.750
  20723816.750
  20292445.750
  21268236.250
  23780038.750
  23050347.750
 23  2 16 18 30 15.0000000  0 04G08G09G21G30 -0.800,7.0,3.80
  21040089.750
  22518989.750
  22912180.250
  22468372.750
 23  2 16 19  0 12.0000000  0 04G07G08G09G21 -0.600,8.5,3.80
  19209332.750
  20490901.250
  22340717.250
  21024639.250
 23  2 16 19 30 15.0000000  0 05G01G08G14G17G30 -0.600,8.5,3.80
  22478823.250
  22715863.250
  22021172.750
  22838490.750
  21024545.250
 23  2 16 20  0 20.0000000  0 04G01G08G17G30 -0.600,8.5,3.80
  22142645.750
  24297127.750
  22433022.750
  21185483.750
 23  2 16 20 30 11.0000000  0 06G01G07G08G14G17G21 -0.400,8.0,3.80
  21027434.250
  21653656.250
  18757435.250
  20817279.750
  21112043.250
  22397073.250
 23  2 16 21  0 19.0000000  0 04G01G07G14G21 -0.800,8.0,3.80
  19423722.250
  21095102.750
  18903291.250
  21595350.250
 23  2 16 21 30 11.0000000  0 07G01G03G06G14G17G19G21 -0.400,7.5,3.80
  18977114.750
  22112322.750
  21026281.250
  23881037.750
  18037557.250
  19311647.750
  21719417.250
 23  2 16 22  0 40.0000000  0 03G06G14G30 -1.200,8.0,3.80
  20985529.250
  19225495.250
  21460151.750
 23  2 16 22 30 23.0000000  0 04G06G14G17G19 -0.600,8.0,3.80
  21758473.250
  21398070.250
  21310647.250
  21200770.250
 23  2 16 23  0 30.0000000  0 04G03G06G14G24 -0.600,8.0,3.80
  18096964.750
  21358114.750
  22398540.250
  23997169.250
 23  2 16 23 30 13.0000000  0 00 -0.40,6.5,3.80
 23  2 17  0  0 25.0000000  0 04G06G11G17G24 -0.200,6.0,3.80
  21245370.250
  22734796.250
  23264302.250
  24719218.750
 23  2 17  0 30 21.0000000  0 06G06G11G12G17G19G20 -0.200,5.0,3.80
  18658566.750
  19261988.250
  20470448.250
  21020349.750
  19039921.250
  21201200.750
 23  2 17  1  0 16.0000000  0 06G06G11G12G17G19G20 -0.20,16.0,3.80
  20121565.250
  19866078.750
  20673504.750
  22684849.250
  20458020.250
  21103197.750
 23  2 17  1 30 11.0000000  0 07G05G06G09G12G17G19G20 -0.200,12.5,3.80
  22770722.250
  21028137.250
  18131583.250
  20506300.250
  23721879.250
  21335090.750
  20496627.750
 23  2 17  2  0 11.0000000  0 07G02G06G09G11G12G19G20 -0.200,10.0,3.80
  22836674.250
  20670345.250
  22736543.750
  18985761.250
  19381847.750
  21028072.250
  18819617.750
 23  2 17  2 30 10.0000000  0 07G05G06G09G11G19G20G29 -0.20,8.5,3.80
  23534649.750
  19535739.250
  20857128.750
  23319510.750
  20057566.750
  22648299.250
  20063102.250
 23  2 17  3  0  7.0000000  0 08G02G05G06G09G11G12G20G25 -0.20,7.0,3.80
  19703505.250
  23053830.750
  20560867.250
  21467838.250
  23935217.750
  18792360.750
  22950318.750
  18514495.750
 23  2 17  3 30  6.0000000  0 07G05G06G11G12G20G25G29 -0.20,6.0,3.80
  22352159.250
  21034188.750
  18104803.750
  19426106.250
  22976288.750
  18716343.750
  23878482.250
 23  2 17  4  0 10.0000000  0 06G02G05G13G15G20G25 -0.20,5.0,3.80
  23383216.750
  21552586.750
  23682692.750
  18302575.250
  22783821.750
  18737871.250
 23  2 17  4 30 11.0000000  0 06G05G11G13G15G18G20 -0.200,4.5,3.80
  18237281.750
  21026065.250
  19189572.250
  19449721.250
  21245952.250
  19922112.250
 23  2 17  5  0  5.0000000  0 07G05G11G13G15G18G20G29 -0.40,4.0,3.80
  19105213.750
  22167265.250
  18991555.750
  18793165.250
  20645085.250
  21094018.750
  18542504.750
 23  2 17  5 30 13.0000000  0 06G02G11G13G15G18G23 -0.600,3.5,3.80
  20282744.750
  18371762.750
  20173332.750
  19439492.250
  21052721.250
  22091992.750
 23  2 17  6  0 10.0000000  0 07G02G05G13G15G18G23G29 -0.45,3.0,3.80
  20167631.250
  21850012.250
  20437125.750
  19153369.250
  20221958.750
  21261640.250
  20847256.750
 23  2 17  6 30  9.0000000  0 07G02G05G10G13G23G24G29 -0.30,2.5,3.80
  23382762.750
  19757227.750
  20188475.750
  18182845.750
  23667989.750
  19541586.250
  18898772.250
 23  2 17  7  0  8.0000000  0 06G02G05G10G15G18G24 -0.15,2.0,3.80
  20455796.250
  23285309.250
  21999257.750
  19589258.750
  18964848.250
  21123341.750
 23  2 17  7 30 15.0000000  0 07G02G10G13G15G18G23G27 +0.000,1.5,3.80
  21742946.250
  21822642.750
  23546173.750
  21026436.250
  19537680.750
  20038616.750
  22684940.250
 23  2 17  8  0  9.0000000  0 06G10G18G23G24G27G32 -0.08,1.0,3.80
  18981381.250
  23730720.250
  23677931.750
  18302754.750
  20476717.750
  20061203.750
 23  2 17  8 30  9.0000000  0 06G15G18G23G24G27G32 -0.16,1.0,3.80
  22870261.250
  20289692.250
  19496268.750
  20143890.250
  22644097.250
  21068185.750
 23  2 17  9  0  8.0000000  0 06G10G18G23G24G27G32 -0.24,0.5,3.80
  21334120.750
  22897027.750
  21259805.250
  22180523.250
  18870107.250
  22037488.250
 23  2 17  9 30 10.0000000  0 07G10G18G22G24G25G31G32 -0.320,0.5,3.80
  21018404.750
  18130933.250
  22972919.250
  23011619.250
  19137681.250
  18687847.750
  21628578.750
 23  2 17 10  0  5.0000000  0 08G12G18G21G22G23G25G31G32 -0.15,0.0,3.80
  21240209.250
  22001904.750
  21011520.750
  18936983.750
  18835854.750
  20746172.250
  19927029.750
  23962867.250
 23  2 17 10 30 10.0000000  0 08G10G12G22G23G25G28G31G32 0.03,0.0,3.80
  18724772.250
  21915227.250
  19584418.250
  20780231.250
  21042892.750
  19335173.250
  19860997.750
  19010285.750
 23  2 17 11  0 10.0000000  0 05G12G21G25G31G32 +0.200,0.0,3.80
  21025379.750
  20655908.750
  19695716.750
  18132245.250
  18275657.750
 23  2 17 11 30  5.0000000  0 07G10G12G23G26G28G31G32 0.11,0.0,3.80
  21386424.250
  23644934.750
  18463787.750
  23824723.750
  19854485.250
  19853820.750
  20791329.750
 23  2 17 12  0 14.0000000  0 06G10G21G22G25G31G32 0.01,0.0,3.80
  23091357.750
  18203740.750
  21126663.250
  22810320.750
  20336866.250
  21843300.750
 23  2 17 12 30 11.0000000  0 07G03G10G22G26G28G31G32 -0.080,0.0,3.80
  22949517.250
  18161081.250
  21018195.750
  21973490.250
  20743620.750
  20343159.250
  22208567.750
 23  2 17 12 51  0.0000000  0 00 +3.000,0.0,3.80,1,70078,-5052893,3878694,6,1.4
 23  2 17 15  0  6.0000000  0 07G03G04G07G26G27G29G31 -1.38,10.5,3.80
  21442982.250
  20079029.750
  18440460.750
  20173416.250
  22522378.750
  18875453.750
  23043034.750
 23  2 17 15 30 11.0000000  0 07G03G07G08G09G22G26G31 -2.400,3.5,3.80
  22379914.750
  23620430.250
  23079725.250
  21514813.250
  23726324.750
  21027813.250
  23977048.250
 23  2 17 16  0 13.0000000  0 04G07G09G16G27 +1.000,0.5,3.80
  18296223.250
  22127161.750
  21052589.250
  22048560.250
 23  2 17 16 30 12.0000000  0 04G04G08G09G27 +1.200,3.0,3.80
  20540084.750
  21741674.250
  21030163.750
  21036587.250
 23  2 17 17  0 10.0000000  0 06G04G07G08G09G16G27 1.25,5.5,3.80
  21681806.750
  22775303.750
  21524338.250
  21392419.750
  22657825.250
  21552467.250
 23  2 17 17 30  7.0000000  0 06G04G07G08G09G27G30 1.30,8.5,3.80
  21554303.250
  21038185.250
  20089769.750
  20565845.750
  20917657.750
  23712524.750
 23  2 17 18  0  9.0000000  0 08G04G08G09G14G16G21G27G30 1.35,10.5,3.80
  23934306.750
  21346945.750
  22396921.250
  18850620.750
  18960949.250
  18291464.250
  22938723.750
  23948043.750
 23  2 17 18 30 14.0000000  0 05G07G08G09G21G30 +1.400,18.0,3.80
  19043678.750
  19545122.750
  21077178.250
  21225162.250
  20776341.250
 23  2 17 19  0  9.0000000  0 06G01G07G08G09G21G30 1.40,18.0,3.80
  18714065.250
  21793651.250
  23198198.750
  19083310.250
  23543934.250
  22871954.750
 23  2 17 19 30  9.0000000  0 06G01G07G08G14G21G30 1.40,14.0,3.80
  21122397.250
  19417993.750
  21638716.250
  20724629.250
  20766521.250
  19744817.750
 23  2 17 20  0 14.0000000  0 04G01G07G17G30 +1.400,16.5,3.80
  20793421.750
  20371668.250
  21073012.750
  19909622.750
 23  2 17 20 30 11.0000000  0 05G01G07G19G21G30 +1.800,14.0,3.80
  21447513.750
  22229612.750
  18005419.750
  22941611.250
  21027838.250
 23  2 17 21  0  6.0000000  0 06G01G13G14G17G21G30 1.80,10.0,3.80
  22274762.750
  18744433.250
  21696179.250
  21887762.250
  18542729.750
  22241253.750
 23  2 17 21 30 11.0000000  0 05G01G06G14G19G30 +1.800,10.5,3.80
  20890805.750
  22655236.250
  19703496.750
  21026596.250
  21138284.250
 23  2 17 22  0 12.0000000  0 06G01G06G14G17G19G30 +1.280,8.0,3.80
  22410501.750
  22066155.750
  20479942.250
  20548857.250
  21017981.250
  22823483.250
 23  2 17 22 30  6.0000000  0 06G03G06G14G17G19G30 1.32,5.5,3.80
  21020630.750
  18827148.250
  18650644.750
  18529639.250
  18337405.750
  21782605.250
 23  2 17 23  0  8.0000000  0 06G06G11G14G17G19G24 1.36,4.5,3.80
  22745856.250
  19690671.250
  23958553.750
  23492895.250
  22709171.250
  19438761.750
 23  2 17 23 30 12.0000000  0 06G03G06G11G12G14G19 +1.400,3.5,3.80
  18288666.750
  20782144.250
  23003761.250
  18848978.250
  23289620.750
  21036429.250
 23  2 18  0  0 10.0000000  0 06G06G11G12G17G19G24 1.44,7.5,3.80
  18883490.750
  20260442.750
  21805000.750
  20957073.750
  19261181.750
  22410261.250
 23  2 18  0 30 10.0000000  0 06G06G11G14G17G19G20 1.48,10.0,3.80
  19858479.750
  20345528.250
  18480754.750
  22250934.750
  20236025.250
  22199408.750
 23  2 18  1  0  9.0000000  0 06G06G11G12G17G19G20 1.52,10.0,3.80
  22040535.250
  21673817.250
  22434491.250
  18618789.250
  22367303.250
  22806623.750
 23  2 18  1 30 10.0000000  0 07G05G06G11G12G19G20G25 1.56,9.0,3.80
  19255846.250
  23792282.250
  22664673.750
  23143309.250
  18099712.750
  23060394.250
  18495989.750
 23  2 18  2  0 12.0000000  0 06G02G05G09G11G12G25 +1.600,8.0,3.80
  23469319.250
  21037431.750
  23460501.250
  19752732.750
  20149399.750
  20923445.750
 23  2 18  2 30 10.0000000  0 07G05G06G11G12G20G25G29 1.60,7.5,3.80
  23555414.750
  19789213.250
  23509097.250
  18063401.750
  22780797.750
  18250368.750
  20053567.250
 23  2 18  3  0 12.0000000  0 07G02G05G09G11G12G20G25 +1.600,7.0,3.80
  23664344.250
  21031956.250
  19604753.250
  22052995.250
  22962343.250
  21037888.750
  22619765.750
 23  2 18  3 30  6.0000000  0 06G02G11G12G20G25G29 1.73,5.5,3.80
  18157962.250
  23675155.250
  19066007.250
  22543048.750
  18309467.750
  23257756.750
 23  2 18  4  0  5.0000000  0 07G02G05G11G13G15G20G29 1.87,5.0,3.80
  22444050.250
  20704439.250
  23140546.250
  22668938.750
  23243037.750
  22003928.250
  21376378.750
 23  2 18  4 30 11.0000000  0 07G02G05G13G15G18G20G29 +2.000,5.0,3.80
  21025344.750
  20097895.250
  20885596.250
  21087330.750
  22917922.750
  21829195.750
  20034273.750
 23  2 18  5  0  8.0000000  0 06G02G13G15G18G20G29 2.05,5.0,3.80
  18810376.250
  18563591.250
  18292882.750
  20140849.250
  20830016.250
  18182156.750
 23  2 18  5 30  9.0000000  0 06G02G05G13G15G20G29 2.10,4.0,3.80
  22876911.250
  23824936.250
  22804770.250
  21994246.750
  20011453.750
  22873990.750
 23  2 18  6  0  6.0000000  0 07G02G05G10G15G18G23G29 2.15,3.5,3.80
  20808144.750
  22599494.750
  18545848.250
  19786908.250
  20766191.250
  21801975.750
  21598914.750
 23  2 18  6 30 11.0000000  0 07G02G05G10G15G18G23G24 +2.200,1.0,3.80
  21845894.750
  18303586.250
  18495327.750
  20867100.250
  21026772.250
  22015086.250
  23796424.750
 23  2 18  7  0  5.0000000  0 06G02G05G10G15G18G23 2.13,-1.0,3.80
  18447423.750
  21326200.250
  19813297.250
  23603868.250
  22855894.750
  23668545.750
 23  2 18  7 30 15.0000000  0 07G02G10G15G18G24G27G32 2.07,0.0,3.80
  19455743.250
  19332380.750
  18765014.250
  23162432.250
  18413235.250
  20263383.250
  20689392.750
 23  2 18  8  0 12.0000000  0 06G10G15G23G24G27G32 +2.000,-1.0,3.80
  19882349.250
  21040563.750
  18654990.250
  19259182.250
  21490256.750
  20918548.750
 23  2 18  8 30  6.0000000  0 07G02G15G18G22G24G27G32 2.13,-0.5,3.80
  21136769.250
  20549563.250
  23923891.250
  20431761.750
  23697043.750
  20238563.250
  18493911.750
 23  2 18  9  0  6.0000000  0 07G08G10G18G22G23G24G32 2.27,0.0,3.80
  22003644.250
  23913838.750
  19682347.750
  20244342.750
  23930176.250
  18910223.250
  18606272.250
 23  2 18  9 30 11.0000000  0 06G10G12G22G23G28G32 +2.400,4.0,3.80
  21026308.250
  19297977.250
  22914147.750
  21761760.250
  23614187.750
  21625160.250
 23  2 18 10  0 11.0000000  0 07G10G18G21G22G23G25G28 +2.400,6.0,3.80
  21025953.250
  19736088.250
  18488652.250
  22415294.750
  22488775.750
  24167126.750
  22567283.750
 23  2 18 10 30 13.0000000  0 05G10G22G28G31G32 +1.800,9.0,3.80
  20800085.750
  21567007.250
  21255564.250
  21746046.250
  21050905.750
 23  2 18 11  0  6.0000000  0 08G01G10G12G22G23G25G28G32 1.96,8.0,3.80
  22468307.750
  20429526.250
  23048663.750
  20407760.250
  23138306.250
  21649458.750
  19806131.250
  20300649.750
 23  2 18 11 30  6.0000000  0 07G10G12G21G22G28G31G32 2.12,2.5,3.80
  19261192.750
  21480367.750
  20891911.750
  18267671.750
  23589756.250
  23554021.750
  18589977.750
 23  2 18 12  0  7.0000000  0 08G01G03G10G21G22G28G31G32 2.28,0.5,3.80
  22360612.250
  23023489.750
  22239588.750
  23277700.250
  20130106.750
  19599333.250
  19341566.750
  20905649.250
 23  2 18 12 30  8.0000000  0 07G01G03G22G26G28G31G32 2.44,0.0,3.80
  23864867.750
  22948360.250
  21157090.250
  21949404.250
  20930996.750
  20511614.250
  22408747.250
 23  2 18 13  0 12.0000000  0 06G01G03G22G28G31G32 +2.600,0.0,3.80
  18702005.750
  22176064.750
  21386906.750
  21542791.750
  21026946.250
  23127395.250
 23  2 18 13 30 11.0000000  0 06G03G22G26G28G31G32 2.30,-0.5,3.80
  23055185.750
  23089024.750
  21957067.250
  23609000.750
  23053002.250
  19308905.250
 23  2 18 14  0 14.0000000  0 06G03G04G22G26G28G29 +2.000,2.0,3.80
  21087143.250
  22180441.250
  21727396.750
  19943067.750
  22516412.250
  18781997.250
 23  2 18 14 30  5.0000000  0 07G03G04G09G16G22G26G31 2.20,6.5,3.80
  22573518.750
  22437883.250
  19279359.250
  21387742.750
  23601689.250
  21370890.750
  23977092.250
 23  2 18 15  0  6.0000000  0 07G04G16G22G26G27G29G31 2.40,11.0,3.80
  22484035.750
  21739583.250
  19300578.250
  22771102.750
  18855958.750
  21467049.250
  19669022.750
 23  2 18 15 30 11.0000000  0 06G04G07G09G16G26G31 +2.600,12.5,3.80
  19382154.250
  23363485.250
  21240481.250
  19112712.750
  21024740.250
  23970767.250
 23  2 18 16  0 11.0000000  0 06G04G09G16G26G27G31 +2.800,13.0,3.80
  19867053.250
  21027268.250
  20126720.250
  22681681.750
  20955607.250
  19539012.250
 23  2 18 16 30 11.0000000  0 06G04G07G09G16G26G27 +2.800,15.5,3.80
  20310043.250
  22579980.250
  20692867.750
  21027988.750
  17988289.250
  20717014.250
 23  2 18 17  0  8.0000000  0 06G04G07G08G09G16G27 2.80,15.5,3.80
  21150441.750
  22036894.250
  20810071.250
  20760511.250
  22160512.750
  20945929.750
 23  2 18 17 30  9.0000000  0 06G04G07G08G09G16G27 2.80,16.0,3.80
  19544102.250
  18791789.750
  23908445.250
  18471126.750
  20644251.250
  18850760.750
 23  2 18 18  0 10.0000000  0 07G07G08G09G14G16G27G30 2.80,15.5,3.80
  21622491.250
  21393448.250
  22515789.750
  18739173.750
  19125271.250
  23082121.250
  23822775.250
 23  2 18 18 30 11.0000000  0 07G07G08G09G14G21G27G30 +2.800,16.5,3.80
  18816077.250
  19440035.750
  21027550.750
  21472968.250
  20938006.750
  21746430.750
  20465547.250
 23  2 18 19  0  6.0000000  0 06G01G07G14G17G21G30 2.80,16.0,3.80
  18675047.250
  21910905.250
  23940211.750
  19056117.250
  23602980.250
  22890242.750
 23  2 18 19 30  9.0000000  0 07G01G07G08G13G14G21G30 2.80,14.5,3.80
  20935876.250
  19407658.250
  21723626.250
  22479052.250
  20580605.250
  20702804.250
  19624741.250
 23  2 18 20  0  6.0000000  0 06G01G07G14G17G21G30 2.80,13.5,3.80
  22986628.250
  22734653.250
  22819711.250
  23247531.250
  23689704.250
  22167203.750
 23  2 18 20 30 11.0000000  0 05G01G07G13G17G21 +2.800,15.0,3.80
  21023805.750
  21961391.750
  23272323.750
  21025839.250
  22634686.250
 23  2 18 21  0 11.0000000  0 04G14G17G19G30 +2.800,14.5,3.80
  20361440.750
  20547793.250
  22324161.750
  21026275.750
 23  2 18 21 30  8.0000000  0 07G01G06G14G17G19G21G30 2.80,14.0,3.80
  20625026.750
  22113193.250
  19341471.750
  19484408.750
  20560854.750
  23480785.250
  20903036.750
 23  2 18 22  0 11.0000000  0 05G06G14G17G19G30 +2.800,14.0,3.80
  22367979.250
  20975223.250
  21025691.250
  21400316.250
  23439148.250
 23  2 18 22 30 11.0000000  0 05G01G11G14G17G19 +2.800,11.5,3.80
  18225297.250
  24850940.250
  21465089.250
  21304678.250
  21025186.250
 23  2 18 23  0 11.0000000  0 04G06G17G19G24 +2.800,11.0,3.80
  21010639.750
  21882997.250
  21025195.750
  23756139.250
 23  2 18 23 30 10.0000000  0 06G06G11G14G17G19G24 2.75,8.5,3.80
  21507625.750
  23622458.250
  18185331.250
  23134593.250
  21788390.750
  18674477.250
 23  2 19  0  0  5.0000000  0 06G06G12G14G17G19G20 2.70,9.0,3.80
  22000535.750
  18757089.750
  19797324.750
  18130058.750
  22384343.250
  19646203.250
 23  2 19  0 30 10.0000000  0 06G06G11G12G17G19G25 2.65,9.5,3.80
  23454954.750
  23822047.250
  18920230.250
  19880024.250
  23827053.750
  21090472.750
 23  2 19  1  0 33.0000000  0 04G06G12G17G19 +2.600,11.5,3.80
  21406762.750
  21625658.750
  23998387.750
  21726866.250
 23  2 19  1 30  8.0000000  0 06G06G11G12G19G20G25 2.80,13.0,3.80
  22658032.750
  21435341.750
  21889128.750
  22964389.250
  21737405.750
  23165716.250
 23  2 19  2  0 11.0000000  0 07G02G06G11G19G20G25G29 +3.000,14.0,3.80
  23511220.750
  21773131.750
  19928422.750
  22158887.250
  19602919.750
  21026840.750
  23677852.250
 23  2 19  2 30 11.0000000  0 07G02G05G06G12G19G20G25 +3.000,10.5,3.80
  24358914.250
  21692515.250
  24144817.750
  22395817.750
  24726869.250
  21026823.750
  22505010.750
 23  2 19  3  0 10.0000000  0 07G02G05G06G12G13G20G25 3.00,9.5,3.80
  18330429.750
  21717621.250
  19589243.750
  23837114.750
  19587999.250
  21825109.750
  23429659.250
 23  2 19  3 30 10.0000000  0 08G02G05G11G13G15G20G25G29 3.00,10.0,3.80
  18911678.750
  22646513.750
  18593314.750
  19589176.750
  20393921.250
  23450247.750
  19247110.750
  23973085.250
 23  2 19  4  0 11.0000000  0 07G02G05G11G12G13G15G20 +3.000,10.5,3.80
  20863886.750
  19226937.750
  21726712.250
  23662353.250
  21025264.250
  21554774.750
  20593140.250
 23  2 19  4 30  6.0000000  0 06G02G05G13G15G18G29 2.96,11.0,3.80
  20736643.750
  19930352.250
  20566560.250
  20711084.750
  22560068.750
  19777136.750
 23  2 19  5  0  7.0000000  0 07G02G05G13G15G18G20G23 2.93,10.5,3.80
  22256566.750
  22392629.250
  22017174.250
  21676372.750
  23505140.750
  18436607.750
  18555635.750
 23  2 19  5 30  6.0000000  0 06G02G13G15G18G23G29 2.89,9.5,3.80
  23164508.750
  23135650.250
  22250610.250
  23754019.250
  18790966.750
  23263636.750
 23  2 19  6  0  5.0000000  0 07G02G05G10G13G15G20G29 2.86,10.5,3.80
  18490374.750
  20385979.250
  22088082.750
  18895552.250
  23461467.750
  22651597.750
  19398056.250
 23  2 19  6 30  5.0000000  0 07G02G05G13G15G18G23G27 2.82,9.0,3.80
  20126097.250
  22652506.750
  21079375.250
  19161724.750
  19203161.250
  20175961.750
  23126037.750
 23  2 19  7  0  5.0000000  0 08G02G10G13G15G18G23G24G27 2.79,9.0,3.80
  21446106.750
  22620886.750
  22935025.750
  20626983.250
  19757382.250
  20530948.750
  21698062.250
  23225868.250
 23  2 19  7 30  9.0000000  0 06G02G10G18G23G24G27 2.75,9.0,3.80
  23093768.250
  22759447.750
  20720760.250
  21095782.750
  21860403.750
  23761975.250
 23  2 19  8  0  6.0000000  0 06G02G10G18G23G24G27 2.72,9.0,3.80
  18970400.750
  22982732.750
  22061171.750
  21827547.250
  22426119.750
  18708198.250
 23  2 19  8 30 10.0000000  0 06G10G18G23G24G27G32 +2.680,11.0,3.80
  21018321.750
  21473456.750
  20459805.750
  21161604.750
  23730815.750
  21815624.750
 23  2 19  9  0 10.0000000  0 05G08G10G23G24G32 +3.200,12.5,3.80
  19216963.750
  21026872.750
  21140693.250
  22174041.750
  21703424.250
 23  2 19  9 30 12.0000000  0 07G10G12G21G22G23G25G32 +3.200,11.5,3.80
  20190524.750
  24379589.750
  18182639.750
  22013003.750
  21027013.250
  18088493.250
  20777588.750
 23  2 19 10  0 11.0000000  0 07G10G12G22G23G24G31G32 +2.720,11.0,3.80
  19706374.750
  23311406.250
  21017818.750
  21267058.750
  23229734.250
  21799004.750
  20161558.250
 23  2 19 10 30 10.0000000  0 06G10G21G22G23G28G32 2.66,13.5,3.80
  19140844.750
  21897443.750
  19810124.250
  21368707.250
  19447843.750
  19350137.750
 23  2 19 11  0 12.0000000  0 04G10G22G28G32 +2.600,10.5,3.80
  21033550.750
  20885417.250
  20260210.250
  20837890.250
 23  2 19 11 30  8.0000000  0 07G10G21G22G25G28G31G32 2.90,12.0,3.80
  18868855.750
  20417897.750
  23724126.750
  19105892.250
  23058347.750
  22989302.750
  18111456.250
 23  2 19 12  0 11.0000000  0 05G01G10G28G31G32 +3.200,14.0,3.80
  21025837.250
  21013189.750
  18245286.250
  23956912.750
  19580880.750
 23  2 19 12 30 11.0000000  0 07G01G03G16G22G26G28G32 +3.200,9.0,3.80
  23174950.750
  22033729.250
  18407748.250
  20388319.750
  21024743.250
  20212902.250
  21705657.250
 23  2 19 13  0  5.0000000  0 08G01G16G21G22G26G28G29G31 3.20,6.0,3.80
  19513008.750
  18551626.250
  20456660.250
  22117374.250
  21724877.250
  22324670.750
  20539148.750
  21800019.750
 23  2 19 13 30 10.0000000  0 07G03G04G16G22G26G28G31 3.20,4.5,3.80
  20984510.750
  22886590.250
  21868102.250
  21114819.250
  19879508.750
  21678593.250
  21119884.250
 23  2 19 14  0 20.0000000  0 06G03G04G16G22G26G31 +3.200,8.0,3.80
  21290488.250
  22229058.250
  21093392.750
  21999067.750
  20138904.250
  22258949.750
 23  2 19 14 30  9.0000000  0 08G03G04G09G16G22G26G28G31 3.30,11.0,3.80
  21217200.750
  20892057.750
  23680001.750
  19868158.750
  22286696.750
  20005626.750
  23203415.750
  22669011.250
 23  2 19 15  0 11.0000000  0 06G03G04G16G22G26G31 +3.400,13.5,3.80
  22315723.250
  20547069.750
  19859481.250
  23586465.750
  21027572.250
  23940612.250
 23  2 19 15 30 11.0000000  0 04G03G04G16G27 +3.400,15.5,3.80
  22535235.750
  19350607.250
  19153783.250
  21026852.250
 23  2 19 16  0 11.0000000  0 05G04G08G09G16G26 +3.400,14.5,3.80
  21026734.250
  23164030.250
  22084007.250
  21358353.250
  23981119.750
 23  2 19 16 30 13.0000000  0 04G07G08G09G27 +3.400,15.5,3.80
  22883657.250
  21620382.250
  21062052.250
  21105042.750
 23  2 19 17  0 19.0000000  0 06G04G08G09G16G27G30 3.33,19.0,3.80
  21637151.250
  21105864.750
  21143427.750
  22678035.750
  21355398.750
  19205107.250
 23  2 19 17 30  6.0000000  0 06G07G08G09G14G16G27 3.25,21.0,3.80
  21650935.750
  20844745.750
  21483443.750
  19074670.750
  23739696.750
  21889373.250
 23  2 19 18  0  9.0000000  0 06G07G08G09G14G27G30 3.18,18.5,3.80
  19213954.250
  19092962.750
  20285263.750
  22272430.250
  20874858.750
  21346211.250
 23  2 19 18 30  8.0000000  0 06G07G08G09G14G21G30 3.11,19.0,3.80
  22709058.250
  23455509.250
  19099500.750
  19295961.250
  18775469.250
  18277610.250
 23  2 19 19  0 11.0000000  0 07G01G07G09G14G17G21G30 3.03,18.5,3.80
  23195803.750
  20600691.750
  18197743.250
  22523282.750
  23578299.750
  22233328.750
  21476320.250
 23  2 19 19 30 11.0000000  0 07G01G07G13G14G17G21G30 +2.960,19.5,3.80
  20662323.750
  19312419.250
  22253152.750
  20345809.250
  21017745.250
  20555119.250
  19418532.750
 23  2 19 20  0  6.0000000  0 06G01G07G14G17G21G30 3.28,21.0,3.80
  23446961.750
  23368146.250
  23284467.250
  23684526.750
  18283144.250
  22693118.750
 23  2 19 20 30 13.0000000  0 06G01G07G14G17G19G21 +3.600,23.0,3.80
  21360487.750
  22449532.750
  21064472.250
  21311311.750
  23646063.750
  23086212.750
 23  2 19 21  0 13.0000000  0 06G01G07G13G14G17G19 3.4999,19.5,3.80
  21573371.250
  23593836.750
  18088462.750
  20845891.250
  21026917.750
  22706002.250
 23  2 19 21 30 11.0000000  0 06G01G06G14G17G19G21 +3.400,16.5,3.80
  22275534.750
  23473939.750
  20890437.250
  21025431.750
  22001476.250
  19184489.750
 23  2 19 22  0 12.0000000  0 05G01G06G14G17G19 +3.400,15.5,3.80
  22855688.250
  21912003.250
  20715461.750
  20744878.250
  21024925.750
 23  2 19 22 30 12.0000000  0 06G03G06G11G17G19G24 3.10,14.0,3.80
  20211334.250
  23846646.750
  21199399.750
  23861395.250
  23497584.750
  20266597.750
 23  2 19 23  0 18.0000000  0 06G03G11G14G17G19G24 +2.800,13.0,3.80
  23040645.250
  22801311.750
  21626308.750
  21032295.750
  20101121.750
  22841326.250
 23  2 19 23 30  9.0000000  0 07G06G11G12G14G17G19G24 2.85,12.0,3.80
  21889240.750
  23894347.750
  19665854.250
  18730813.750
  23597574.250
  22193567.250
  19114565.250
 23  2 20  0  0  6.0000000  0 07G03G06G11G14G17G19G20 2.89,13.5,3.80
  22561673.750
  18156874.250
  19295481.250
  22090480.250
  20331371.250
  18544895.250
  21604007.250
 23  2 20  0 30  9.0000000  0 08G06G09G11G12G14G17G19G20 2.94,14.0,3.80
  21259053.750
  20287896.750
  21506977.250
  22543418.250
  20113066.750
  23705888.250
  21625116.750
  23174964.250
 23  2 20  1  0  6.0000000  0 07G04G06G11G12G17G19G20 2.99,13.5,3.80
  22828098.250
  18358933.250
  23769185.250
  18439051.750
  20963168.250
  18674359.750
  18705325.250
 23  2 20  1 30  5.0000000  0 08G04G06G11G12G17G19G20G29 3.03,12.5,3.80
  19297499.750
  21554312.750
  20238798.750
  20671602.250
  18284099.750
  21865300.250
  20449040.250
  19074449.250
 23  2 20  2  0 11.0000000  0 07G02G05G09G11G12G19G20 +3.080,14.0,3.80
  23532740.750
  21017655.250
  23721565.750
  20085775.750
  20501620.750
  22413033.250
  19687661.750
 23  2 20  2 30 11.0000000  0 07G05G06G09G11G19G20G29 +3.080,13.5,3.80
  18350056.750
  21018353.750
  22123960.750
  18618291.750
  21636206.750
  23788470.750
  20749169.250
 23  2 20  3  0  5.0000000  0 06G02G05G06G11G20G25 3.25,14.5,3.80
  18490322.750
  21906340.750
  19945296.750
  23175244.750
  22112810.250
  23740051.250
 23  2 20  3 30  6.0000000  0 06G05G06G11G13G20G29 3.43,13.0,3.80
  18570748.750
  23638294.250
  20600756.250
  21365007.250
  19456980.750
  19794770.250
 23  2 20  4  0 11.0000000  0 07G11G12G13G15G18G20G29 +3.600,14.0,3.80
  21948136.250
  23943136.250
  21025916.750
  21509508.250
  23177644.750
  20818300.750
  19845798.750
 23  2 20  4 30  5.0000000  0 06G02G05G13G15G20G29 3.60,13.0,3.80
  19383503.250
  18702869.250
  19187541.250
  19271606.250
  20516561.750
  18461481.750
 23  2 20  5  0  5.0000000  0 07G05G13G18G20G26G29G30 3.60,12.0,3.80
  21744124.250
  21249693.750
  22641754.250
  23806055.250
  19488114.250
  20996421.750
  20122247.750
 23  2 20  5 30  9.0000000  0 06G02G13G15G18G24G29 3.60,12.5,3.80
  23746581.750
  23766304.750
  22804708.250
  18243884.750
  21901529.750
  23952800.250
 23  2 20  6  0  5.0000000  0 07G02G05G10G13G18G24G29 3.60,14.5,3.80
  20394705.750
  22391953.250
  23852403.250
  20870684.750
  20146234.750
  23358450.250
  21419534.750
 23  2 20  6 30  6.0000000  0 06G02G05G13G15G18G23 3.60,13.0,3.80
  23287153.750
  19889156.750
  18321340.750
  22339555.250
  22257811.750
  23211829.250
 23  2 20  7  0  5.0000000  0 08G02G10G13G15G18G23G29G32 3.60,13.5,3.80
  20497841.750
  21478472.250
  22052744.250
  19699881.750
  18710021.750
  19441066.250
  23008867.250
  23127304.750
 23  2 20  7 30 10.0000000  0 06G02G10G18G23G24G27 3.60,11.5,3.80
  23666136.750
  23113153.250
  21210337.750
  21513621.250
  22240492.750
  18199712.250
 23  2 20  8  0 11.0000000  0 07G02G10G18G22G23G24G27 +3.600,13.0,3.80
  17993597.250
  21768798.750
  21024943.250
  18844798.250
  20691244.250
  21288825.750
  23613883.250
 23  2 20  8 30 11.0000000  0 07G08G10G15G18G23G24G32 +3.600,13.5,3.80
  19112126.750
  21494775.750
  18831228.750
  22152874.250
  21024385.750
  21760681.250
  22272841.250
 23  2 20  9  0 12.0000000  0 06G08G10G18G24G27G32 +3.600,15.0,3.80
  23117691.750
  18830580.250
  21025017.250
  20134477.250
  22838850.250
  19495730.250
 23  2 20  9 30 10.0000000  0 05G08G10G22G23G32 +3.800,16.0,3.80
  20085055.750
  21027787.250
  22784133.250
  21964160.250
  21602103.750
 23  2 20 10  0 10.0000000  0 08G10G21G22G23G25G28G31G32 3.60,16.5,3.80
  23947537.750
  21239655.250
  19182887.250
  19608896.750
  20838594.750
  19195787.750
  19866109.750
  18382088.750
 23  2 20 10 30 13.0000000  0 07G10G12G21G22G28G31G32 +3.400,14.5,3.80
  21056864.250
  18033461.250
  23728005.250
  21622888.250
  21211806.250
  21632670.250
  21220474.750
 23  2 20 11  0  5.0000000  0 07G10G12G21G22G28G31G32 3.55,14.5,3.80
  19103422.750
  21604209.250
  21169865.750
  18832330.250
  18188654.750
  18341514.250
  18841545.250
 23  2 20 11 30  5.0000000  0 07G01G21G25G26G28G31G32 3.70,11.5,3.80
  23214889.750
  23938753.250
  22601975.250
  17999819.250
  20528749.750
  20427732.750
  21625973.750
 23  2 20 12  0  9.0000000  0 08G01G03G21G22G25G28G31G32 3.85,13.0,3.80
  19560295.750
  19808297.750
  20527377.750
  23215053.750
  19127661.750
  22755670.250
  22446740.250
  18121170.250
 23  2 20 12 30 12.0000000  0 07G03G21G22G26G28G31G32 +4.000,12.0,3.80
  23129013.750
  19525852.250
  21625571.750
  22108922.250
  21501736.250
  21048625.750
  23007579.750
 23  2 20 13  0  9.0000000  0 06G03G04G22G26G31G32 3.95,14.0,3.80
  22573899.250
  19004414.250
  22027985.250
  21504422.250
  21755867.250
  23894605.750
 23  2 20 13 30  8.0000000  0 06G03G04G22G26G31G32 3.90,15.0,3.80
  19317536.250
  21112455.750
  19539741.750
  18205913.250
  19584187.250
  21871689.750
 23  2 20 14  0  6.0000000  0 06G03G16G22G26G28G31 3.85,13.5,3.80
  22326300.750
  21978709.750
  23094392.250
  21168132.250
  23931618.750
  23377067.750
 23  2 20 14 30 11.0000000  0 06G04G16G22G26G28G31 +3.800,14.0,3.80
  19015702.250
  18023011.250
  20640363.250
  18312256.250
  21558103.250
  21026325.750
 23  2 20 15  0 12.0000000  0 07G03G09G22G26G27G28G31 +3.600,16.5,3.80
  22338485.250
  22652641.250
  23630876.750
  21040841.750
  22583275.750
  18479507.250
  23968187.750
 23  2 20 15 30 18.0000000  0 04G09G16G26G27 +4.000,19.5,3.80
  21151102.250
  19354620.250
  21470086.250
  21058329.250
 23  2 20 16  0 14.0000000  0 04G04G16G26G27 +3.600,19.5,3.80
  21075931.750
  21479324.750
  24165804.750
  21975282.750
 23  2 20 16 30 29.0000000  0 02G07G08 3.80,19.5,3.80
  22999784.250
  21729841.250
 23  2 20 17  0 11.0000000  0 06G07G08G09G16G27G30 +4.000,20.0,3.80
  20415515.750
  19255262.250
  19373547.250
  21029318.750
  19611691.250
  23277637.750
 23  2 20 17 30 11.0000000  0 05G04G08G09G16G30 3.70,19.5,3.80
  22238438.750
  23890334.250
  21006943.750
  23344243.750
  23532216.250
 23  2 20 18  0 11.0000000  0 07G04G07G08G09G14G21G27 +3.400,24.5,3.80
  22108415.750
  19152704.250
  19144430.250
  20404505.250
  22153273.250
  21588972.250
  21018438.750
 23  2 20 18 30 14.0000000  0 07G07G08G09G14G21G27G30 +3.400,26.0,3.80
  21071031.250
  21945250.750
  23635995.750
  23572768.250
  23071526.250
  18396452.250
  22544718.250
 23  2 20 19  0 11.0000000  0 05G08G09G14G21G30 +3.800,28.0,3.80
  21025088.250
  23004039.250
  21080298.250
  20842113.750
  20039318.250
 23  2 20 19 30 11.0000000  0 05G08G14G17G21G30 +3.800,24.5,3.80
  21025114.750
  19421582.250
  20051293.750
  19722525.750
  18526743.750
 23  2 20 20  0  5.0000000  0 08G07G13G14G15G17G19G21G30 3.80,22.5,3.80
  19837854.250
  21749198.250
  19583423.750
  23626399.250
  19957736.250
  22774798.250
  20705925.250
  19057350.250
 23  2 20 20 30 11.0000000  0 07G01G14G15G17G19G21G30 +3.800,24.5,3.80
  19189474.250
  18851001.250
  23260942.750
  19086188.250
  21333496.250
  21024657.750
  18940674.750
 23  2 20 21  0 11.0000000  0 06G01G14G17G19G21G30 +3.800,23.5,3.80
  18506606.750
  26088280.250
  21173439.750
  19457963.750
  21024734.250
  18603786.250
 23  2 20 21 30 12.0000000  0 07G01G06G13G14G17G19G30 +3.200,22.5,3.80
  20121808.250
  21030894.750
  22679862.750
  18634832.250
  18760741.250
  19638167.750
  20452350.250
 23  2 20 22  0 11.0000000  0 07G01G03G06G14G17G19G30 +3.480,21.0,3.80
  23261519.750
  23885670.250
  22020468.250
  21018257.750
  21024513.750
  21212365.250
  23712135.250
 23  2 20 22 30 12.0000000  0 04G03G06G14G17 +3.600,19.5,3.80
  23483008.250
  21037481.750
  21447624.250
  21201251.250
 23  2 20 23  0 16.0000000  0 07G03G06G11G14G17G19G24 3.75,18.0,3.80
  22889589.750
  19795274.750
  22466772.750
  21562707.750
  20902548.750
  19902507.250
  22655904.250
 23  2 20 23 30  7.0000000  0 06G11G12G14G17G19G24 3.90,16.5,3.80
  18964285.750
  20691843.250
  20067277.250
  18854800.250
  23391285.750
  20350391.250
 23  2 21  0  0  6.0000000  0 06G06G11G12G17G19G20 4.05,17.5,3.80
  20726956.250
  21744425.750
  23128254.250
  22946089.750
  21116964.250
  23975811.250
 23  2 21  0 30 11.0000000  0 07G06G12G17G19G20G24G25 +4.200,17.0,3.80
  19331561.750
  20438773.250
  21801733.750
  19690589.250
  21029670.750
  23389620.750
  22525558.250
 23  2 21  1  0  9.0000000  0 06G05G06G11G12G20G25 4.18,13.5,3.80
  19319187.250
  22691048.750
  21996971.250
  22618766.250
  22826153.250
  18285898.750
 23  2 21  1 30  5.0000000  0 07G02G06G11G12G19G25G29 4.16,12.5,3.80
  22569067.250
  19694217.750
  18287438.250
  18703477.250
  20011441.750
  19831914.750
  22955043.750
 23  2 21  2  0  6.0000000  0 06G02G05G06G11G12G25 4.14,13.0,3.80
  18214605.750
  21658331.250
  22891684.750
  20897504.750
  21329416.250
  21865213.750
 23  2 21  2 30  6.0000000  0 08G02G05G09G11G12G20G25G29 4.12,9.0,3.80
  19377487.750
  22691845.250
  20617490.250
  23108554.750
  23787110.250
  22240263.750
  23747248.750
  19042334.750
 23  2 21  3  0  5.0000000  0 06G02G05G12G20G25G29 4.10,8.0,3.80
  19159934.250
  22610193.250
  19102130.750
  22915633.750
  18571775.750
  18439391.250
 23  2 21  3 30  6.0000000  0 06G02G05G11G13G18G29 4.08,7.5,3.80
  18674647.250
  22552893.250
  18670655.250
  19200072.750
  21311285.750
  23671628.750
 23  2 21  4  0  6.0000000  0 06G02G05G13G18G20G29 4.06,7.0,3.80
  17992113.250
  22560587.250
  18040800.750
  20185341.750
  18050224.750
  22913799.250
 23  2 21  4 30  5.0000000  0 07G02G05G13G18G20G23G29 4.04,7.5,3.80
  23627648.750
  23074786.750
  23409897.750
  19309723.750
  18929953.250
  20398389.750
  22748854.750
 23  2 21  5  0  5.0000000  0 07G02G05G13G15G18G23G29 4.02,6.0,3.80
  23402864.250
  23802803.250
  23193523.750
  22708918.750
  18487446.750
  19520367.750
  23004557.250
 23  2 21  5 30 17.0000000  0 06G02G13G15G18G23G29 +4.000,6.5,3.80
  19705542.250
  19778933.250
  18739417.750
  20099346.750
  21129275.250
  20024208.750
 23  2 21  6  0  5.0000000  0 07G02G05G10G13G15G18G23 3.93,8.0,3.80
  22758640.250
  18857968.250
  20077650.250
  23307208.250
  21736509.750
  22406298.750
  23428639.250
 23  2 21  6 30  9.0000000  0 07G02G13G18G23G24G27G29 3.87,6.0,3.80
  22891217.250
  18002284.250
  21755471.250
  22687941.250
  18244502.750
  19553979.750
  18843113.750
 23  2 21  7  0 13.0000000  0 05G02G10G15G24G29 +3.800,8.5,3.80
  21056365.250
  21833203.750
  20280177.750
  20888889.750
  23647062.750
 23  2 21  7 30  8.0000000  0 07G02G10G18G23G24G27G32 3.87,10.0,3.80
  19123733.250
  18352462.750
  22585133.250
  22813831.250
  23507793.250
  19519927.750
  19573393.250
 23  2 21  8  0  6.0000000  0 08G02G10G15G18G23G24G27G32 3.93,8.0,3.80
  21170152.750
  18722210.250
  20583253.250
  18152664.750
  23716436.250
  18321852.250
  20690762.250
  19662395.250
 23  2 21  8 30  9.0000000  0 06G10G23G24G27G28G32 4.00,8.0,3.80
  18536179.250
  18154017.250
  18928059.750
  21550381.250
  22597649.250
  19296741.750
 23  2 21  9  0  5.0000000  0 07G10G18G23G24G27G31G32 4.07,8.5,3.80
  18479928.250
  20879128.250
  18786055.750
  19937288.250
  22640656.250
  22634815.750
  19134509.750
 23  2 21  9 30  5.0000000  0 07G10G21G22G25G28G31G32 4.13,8.5,3.80
  18942771.250
  22763807.250
  20632762.250
  22614907.250
  21106021.250
  21953817.250
  19503573.750
 23  2 21 10  0  6.0000000  0 07G10G12G23G25G28G31G32 4.20,8.5,3.80
  19744501.750
  23193763.250
  21495870.750
  22503234.250
  20841306.250
  21481669.750
  20148151.750
 23  2 21 10 30  6.0000000  0 06G01G10G21G22G23G32 4.27,8.0,3.80
  23260843.250
  20563011.250
  23152726.750
  21027054.750
  22956169.750
  20679859.250
 23  2 21 11  0  9.0000000  0 07G10G12G21G22G28G31G32 4.33,9.5,3.80
  22052815.750
  18501119.250
  18040093.250
  21650205.750
  20991451.250
  21107796.250
  21718771.250
 23  2 21 11 30 10.0000000  0 05G01G10G21G28G31 +4.400,10.0,3.80
  23724038.250
  23105187.750
  18496469.250
  21027137.750
  20893871.250
 23  2 21 12  0  5.0000000  0 07G01G03G10G21G22G31G32 4.40,9.5,3.80
  19785670.750
  19825093.750
  19972139.250
  20771953.750
  23380268.750
  22627408.250
  18348530.750
 23  2 21 12 30 11.0000000  0 07G01G03G22G26G28G31G32 4.40,7.5,3.80
  20870187.750
  19287815.750
  23918958.250
  18257960.250
  23846806.250
  23378820.250
  19369144.750
 23  2 21 13  0  7.0000000  0 07G03G16G22G26G28G31G32 4.40,8.0,3.80
  18633556.250
  20167314.250
  18204582.250
  23552612.750
  18516400.750
  23972260.750
  20133540.250
 23  2 21 13 30  6.0000000  0 06G03G16G22G26G28G31 4.40,8.0,3.80
  18412074.750
  19010639.750
  18722878.750
  23290263.750
  19367449.250
  18805095.250
 23  2 21 14  0 15.0000000  0 08G03G04G16G22G26G28G29G31 4.40,11.0,3.80
  19659331.250
  20282584.750
  19145416.750
  20489458.250
  18494479.750
  21347594.750
  23304752.750
  20794787.750
 23  2 21 14 30 11.0000000  0 06G03G04G07G16G22G26 +4.400,10.0,3.80
  21025568.750
  20316501.750
  18714662.750
  19359262.750
  22169111.250
  19797497.250
 23  2 21 15  0  9.0000000  0 07G03G04G09G16G22G26G31 4.28,13.5,3.80
  18610194.750
