     2.00           OBSERVATION DATA    G(GPS)              RINEX VERSION / TYPE
goGPS-java                              17-Apr-24 13:58:59  PGM / RUN BY / DATE
                                                            MARKER NAME
                                                            MARKER NUMBER
                    Lotek Wireless Inc.                     OBSERVER / AGENCY
7                                                           REC # / TYPE / VERS
                                                            ANT # / TYPE
    73993.0000 -5057250.0000  3872763.0000                  APPROX POSITION XYZ
        0.0000        0.0000        0.0000                  ANTENNA: DELTA H / E / N
     2     0                                                WAVELENGTH FACT L1/2
     1    C1                                                # / TYPES OF OBSERV
  2023     2     9    19    54    0.0000000     UTC         TIME OF FIRST OBS
                                                            END OF HEADER
 23  2 10  0  0 13.0000000  0 00 0.35,23.5,3.80
 23  2 10  0 30 13.0000000  0 00 0.39,23.5,3.80
 23  2 10  1  0 13.0000000  0 00 0.44,23.5,3.80
 23  2 10  1 30 13.0000000  0 00 0.48,23.0,3.80
 23  2 10  2  0 13.0000000  0 00 0.52,23.0,3.80
 23  2 10  2 30 13.0000000  0 00 0.56,23.0,3.80
 23  2 10  3  0 13.0000000  0 00 0.61,23.0,3.80
 23  2 10  3 30 13.0000000  0 00 0.65,23.0,3.80
 23  2 10  4  0 13.0000000  0 00 0.69,23.0,3.80
 23  2 10  4 30 13.0000000  0 00 0.73,23.0,3.80
 23  2 10  5  0 13.0000000  0 00 0.78,23.0,3.80
 23  2 10  5 30 13.0000000  0 00 0.82,23.0,3.80
 23  2 10  6  0 13.0000000  0 00 0.86,23.0,3.80
 23  2 10  6 30 13.0000000  0 00 0.91,23.5,3.80
 23  2 10  7  0 13.0000000  0 00 0.95,23.5,3.80
 23  2 10  7 30 13.0000000  0 00 0.99,23.0,3.80
 23  2 10  8  0 13.0000000  0 00 1.03,23.5,3.80
 23  2 10  8 30 13.0000000  0 00 1.08,23.5,3.80
 23  2 10  9  0 13.0000000  0 00 1.12,23.5,3.80
 23  2 10  9 30 13.0000000  0 00 1.16,23.5,3.80
 23  2 10 10  0 13.0000000  0 00 1.20,23.5,3.80
 23  2 10 10 30 13.0000000  0 00 1.25,23.5,3.80
 23  2 10 10 40  6.0000000  0 00 0.00,24.0,3.80,0
 23  2 10 11 40 10.0000000  0 00 0.00,24.0,3.80,0
 23  2 10 12 40 10.0000000  0 00 0.00,24.5,3.80,0
 23  2 10 13 40 10.0000000  0 00 0.00,24.0,3.80,0
 23  2 10 14 40 10.0000000  0 00 0.00,24.0,3.80,0
 23  2 10 15 40 10.0000000  0 00 0.00,24.0,3.80,0
 23  2 10 16 40 10.0000000  0 00 0.00,24.0,3.80,0
 23  2 10 17 40 10.0000000  0 00 0.00,24.0,3.80,0
 23  2 10 18 40 10.0000000  0 00 0.00,24.5,3.80,0
 23  2 10 19 40 10.0000000  0 00 0.00,24.5,3.80,0
 23  2 10 20 40 10.0000000  0 00 0.00,24.5,3.80,0
 23  2 10 21 40 10.0000000  0 00 0.00,24.5,3.80,0
 23  2 10 22 40 10.0000000  0 00 0.00,24.5,3.80,0
 23  2 10 23 40 10.0000000  0 00 0.00,24.5,3.80,0
 23  2 11  0  0 13.0000000  0 04G11G12G14G19 +2.400,18.0,3.80
  21025619.250
  22856611.750
  21423813.750
  19109245.250
 23  2 11  0 30 11.0000000  0 04G06G11G17G19 +2.400,18.5,3.80
  20650369.750
  21979246.250
  22756501.750
  21025957.250
 23  2 11  1  0 11.0000000  0 04G06G11G17G25 +2.400,19.5,3.80
  21025668.750
  21470157.250
  23451066.250
  18767591.750
 23  2 11  1 30  5.0000000  0 07G05G06G11G12G19G20G25 2.46,14.0,3.80
  22043600.750
  18651273.250
  18252539.250
  18999949.750
  18978410.250
  19352515.250
  20789052.750
 23  2 11  2  0  9.0000000  0 07G05G06G11G17G19G20G25 2.52,0.0,3.80
  21171616.750
  19766827.250
  18615125.750
  22506166.750
  20075253.750
  18979379.250
  20383908.750
 23  2 11  2 30  7.0000000  0 06G05G06G09G11G12G25 2.58,-3.0,3.80
  18555151.750
  19083652.750
  21002798.250
  23300090.750
  23700044.750
  18432675.250
 23  2 11  3  0  7.0000000  0 07G02G05G06G11G12G20G29 2.64,-4.0,3.80
  19540416.250
  22902145.250
  19179586.250
  22893680.250
  23456285.750
  22150304.250
  19388314.750
 23  2 11  3 30  5.0000000  0 06G02G05G11G20G25G29 2.70,-4.5,3.80
  22906286.750
  20297334.250
  21354188.750
  20333147.750
  21914618.750
  22351632.750
 23  2 11  4  0  5.0000000  0 06G02G05G11G15G20G29 2.76,-4.5,3.80
  22449649.250
  20153174.750
  22039056.250
  18029458.250
  20907144.250
  21561042.750
 23  2 11  4 30  5.0000000  0 08G02G05G11G12G15G20G25G29 2.82,-5.0,3.80
  19766824.750
  18062137.250
  20535748.750
  22422275.250
  20548484.750
  19403095.750
  21388946.250
  18711852.750
 23  2 11  5  0  5.0000000  0 08G02G05G11G13G15G20G25G29 2.88,-5.5,3.80
  22773515.750
  21879004.250
  18746916.250
  22637393.250
  22822137.250
  23651904.250
  19834304.750
  21801259.750
 23  2 11  5 30  5.0000000  0 07G02G05G13G15G18G20G29 2.94,-5.5,3.80
  19690752.250
  19726436.750
  19453782.750
  19162262.250
  20979694.750
  21784960.750
  19087526.250
 23  2 11  6  0 11.0000000  0 05G02G05G13G18G29 +3.000,-5.5,3.80
  20999175.250
  21974374.250
  20943248.750
  21633355.750
  21026189.750
 23  2 11  6 30  5.0000000  0 06G02G05G13G15G18G29 3.27,-6.0,3.80
  19062903.250
  20869149.250
  19417608.250
  18038209.750
  18970966.750
  19880253.250
 23  2 11  7  0  5.0000000  0 07G05G13G15G18G23G24G29 3.54,-6.5,3.80
  23942239.750
  22380438.750
  20506280.750
  20621077.250
  21610699.750
  23381483.250
  23128102.750
 23  2 11  7 30  5.0000000  0 08G02G10G13G15G18G23G24G29 3.81,-6.5,3.80
  23892214.750
  19176852.750
  19326322.750
  23047793.750
  22257636.250
  23057458.750
  18284984.250
  20246842.750
 23  2 11  8  0  5.0000000  0 06G02G10G15G18G23G24 4.08,-7.0,3.80
  20217491.250
  20006072.250
  19516570.750
  23888079.750
  18308476.250
  19109491.250
 23  2 11  8 30  6.0000000  0 06G10G15G18G23G24G32 4.35,-7.5,3.80
  20378502.250
  21619931.750
  19361946.750
  19182229.750
  19787960.250
  21405488.750
 23  2 11  9  0  5.0000000  0 06G10G15G22G23G24G32 4.62,-7.5,3.80
  20430340.750
  23389072.750
  23202882.750
  19820535.250
  20499426.250
  21240381.750
 23  2 11  9 30  6.0000000  0 07G10G18G22G23G24G28G32 4.89,-8.0,3.80
  18270134.250
  20126622.250
  20606529.250
  18325153.250
  19312383.250
  21819886.250
  18950441.750
 23  2 11 10  0  6.0000000  0 06G10G22G23G24G28G32 5.16,-8.5,3.80
  20199215.250
  22088228.750
  20970971.250
  22407028.250
  22772899.750
  20787152.250
 23  2 11 10 30  5.0000000  0 06G10G22G23G28G31G32 5.43,-8.5,3.80
  19844232.250
  21221254.250
  21339637.750
  21361326.250
  22071318.250
  20304709.750
 23  2 11 11  0  5.0000000  0 07G10G12G22G23G25G28G32 5.70,-8.5,3.80
  23768585.750
  20860992.750
  18511608.250
  19940283.250
  19913615.250
  18194177.750
  17998190.250
 23  2 11 11 30  5.0000000  0 08G01G10G12G22G25G28G31G32 5.97,-9.0,3.80
  21499505.250
  19526545.750
  22111566.250
  19456640.750
  20705256.750
  18855185.250
  19064425.250
  19362085.250
 23  2 11 12  0  5.0000000  0 07G10G21G22G25G28G31G32 6.24,-9.0,3.80
  23425135.250
  19014335.750
  22368213.750
  23738906.250
  21702191.750
  21654347.750
  22711692.750
 23  2 11 12 30  6.0000000  0 06G22G25G26G28G31G32 6.51,-9.0,3.80
  21174797.250
  22977449.750
  23100435.750
  20657589.750
  20392358.250
  21979925.250
 23  2 11 13  0  5.0000000  0 06G03G22G26G28G31G32 6.78,-9.5,3.80
  23800387.250
  22071862.750
  22836458.250
  21861803.250
  21439846.250
  23360155.250
 23  2 11 13 24 29.0000000  0 00 +7.000,-8.5,3.80,1,67075,-5050902,3881259,4,2.0
 23  2 11 13 30  5.0000000  0 07G03G16G22G26G28G31G32 5.47,-8.5,3.80
  22157663.250
  18006717.750
  21412574.250
  21131187.750
  21581451.250
  21067473.250
  23192481.250
 23  2 11 14  0 18.0000000  0 07G03G04G16G22G28G31G32 -2.800,-7.5,3.80
  20955980.750
  22916431.750
  21935939.750
  21024522.250
  21556972.250
  21005409.250
  23287214.750
 23  2 11 14 30  5.0000000  0 07G03G04G16G22G26G28G31 -0.61,-5.0,3.80
  23305007.750
  18345030.750
  23224847.250
  23958505.750
  22163018.250
  18757084.750
  18206410.750
 23  2 11 15  0 14.0000000  0 06G22G26G27G28G29G31 +1.600,-2.0,3.80
  23301983.250
  21058848.250
  24887205.250
  18219134.750
  19806699.250
  23685308.250
 23  2 11 15 30  6.0000000  0 07G03G04G09G26G27G28G31 1.32,0.0,3.80
  19180514.750
  23526699.250
  19935569.250
  23876870.750
  19894688.750
  21290223.750
  20785914.250
 23  2 11 16  0 11.0000000  0 07G03G04G09G16G26G27G31 +1.040,4.5,3.80
  19452086.250
  22368656.250
  18199955.250
  22135031.250
  18065398.750
  18122965.250
  21018315.750
 23  2 11 16 30 10.0000000  0 06G04G07G09G16G26G27 1.02,6.5,3.80
  22162047.750
  19450676.250
  23281991.250
  22454628.250
  19010892.250
  23224604.750
 23  2 11 17  0 13.0000000  0 06G04G07G08G09G16G27 +1.000,7.0,3.80
  20679353.750
  22896797.250
  21638537.250
  21014945.750
  21422583.250
  21051504.250
 23  2 11 17 30 10.0000000  0 06G07G08G09G16G27G30 0.90,11.5,3.80
  22407105.750
  21186708.750
  21157591.750
  22619638.250
  21351942.750
  19331989.250
 23  2 11 18  0 40.0000000  0 03G04G08G09 +0.800,8.5,3.80
  23255626.750
  21535492.750
  22129649.250
 23  2 11 18 30 13.0000000  0 05G08G09G16G21G27 +1.800,7.5,3.80
  21065009.750
  22216333.750
  18856626.250
  23802715.250
  22781085.750
 23  2 11 19  0 11.0000000  0 05G07G08G17G21G30 +1.800,8.0,3.80
  18913951.750
  19574665.750
  23074469.250
  21027461.750
  20537216.750
 23  2 11 19 30 11.0000000  0 05G01G07G09G13G21 +1.800,8.5,3.80
  22060357.250
  19342873.750
  22846962.750
  23296805.750
  21026777.750
 23  2 11 20  0 13.0000000  0 05G08G13G17G21G30 +1.600,8.5,3.80
  22100492.250
  22776944.750
  21574857.750
  21041040.250
  19939461.250
 23  2 11 20 30 11.0000000  0 04G01G07G17G30 +1.800,9.0,3.80
  21234244.750
  21026359.250
  21472442.750
  20433152.750
 23  2 11 21  0 13.0000000  0 05G01G07G17G21G30 +2.000,8.5,3.80
  20095074.750
  21067258.750
  20070403.750
  21739625.750
  19751688.250
 23  2 11 21 30 11.0000000  0 04G01G07G19G21 +1.800,8.5,3.80
  19096015.750
  21025338.250
  20366334.750
  21473908.750
 23  2 11 22  0 12.0000000  0 06G01G03G14G17G19G21 +1.200,8.0,3.80
  18408159.750
  21049024.250
  23092801.250
  25620410.750
  18288443.250
  21277072.250
 23  2 11 22 30 10.0000000  0 04G14G17G19G30 +2.000,7.5,3.80
  21027247.250
  21066040.750
  21416792.250
  23523267.250
 23  2 11 23  0 10.0000000  0 04G03G06G17G19 +2.000,7.0,3.80
  21026719.750
  18730363.250
  18628796.250
  18321070.750
 23  2 11 23 30 10.0000000  0 05G03G06G14G17G19 +2.000,6.0,3.80
  23056722.250
  20118417.750
  21576870.750
  21026071.250
  20136988.250
 23  2 12  0  0 11.0000000  0 04G03G06G14G17 +2.000,4.5,3.80
  23000379.250
  19364351.250
  22099014.250
  21025515.250
 23  2 12  0 30 11.0000000  0 05G03G06G11G19G20 +2.200,2.5,3.80
  19007831.250
  20646327.250
  21856446.250
  21028121.750
  24210385.750
 23  2 12  1  0 11.0000000  0 04G06G17G19G20 +2.200,1.5,3.80
  21027413.750
  23481991.750
  21397600.250
  23081884.250
 23  2 12  1 30 10.0000000  0 06G05G06G11G17G19G20 2.20,0.0,3.80
  23570574.750
  20454526.250
  19944161.250
  23080760.750
  20776320.750
  20941240.250
 23  2 12  2  0 10.0000000  0 06G02G05G17G19G20G25 2.20,0.0,3.80
  20774475.250
  18667531.750
  20291330.250
  23846282.250
  22557409.250
  23960906.250
 23  2 12  2 30 11.0000000  0 04G02G06G19G20 +2.200,-0.5,3.80
  22301235.750
  20627492.750
  21025063.250
  18419893.250
 23  2 12  3  0 13.0000000  0 04G02G06G11G12 +2.200,-1.5,3.80
  21191454.750
  21042064.750
  18697054.250
  19300629.750
 23  2 12  3 30 22.0000000  0 02G09G20 +2.400,-2.0,3.80
  19643871.750
  21025616.750
 23  2 12  4  0 11.0000000  0 05G02G13G15G20G29 +2.400,-2.5,3.80
  22411549.750
  23083083.250
  23876036.750
  21025133.250
  21484635.750
 23  2 12  4 30  9.0000000  0 06G02G05G11G13G15G18 2.47,-3.0,3.80
  20686300.250
  19083456.250
  21619602.750
  20845747.750
  21360068.250
  22971370.750
 23  2 12  5  0  6.0000000  0 06G05G11G13G15G18G20 2.53,-3.0,3.80
  18971196.750
  21873950.250
  19575033.750
  19699996.750
  21527257.750
  20787572.250
 23  2 12  5 30  8.0000000  0 06G05G11G13G15G18G29 2.60,-3.5,3.80
  18699439.250
  21849633.750
  18301719.750
  23934149.250
  19735622.750
  18000229.250
 23  2 12  6  0  7.0000000  0 06G05G13G15G18G20G29 2.67,-4.0,3.80
  22541833.750
  21432140.750
  20523863.250
  21986359.750
  18782113.250
  21572281.250
 23  2 12  6 30  6.0000000  0 06G02G05G13G15G18G23 2.73,-4.0,3.80
  21857100.750
  23767484.250
  22280933.250
  20829657.250
  21662147.750
  22704570.750
 23  2 12  7  0 11.0000000  0 06G02G05G10G15G18G24 +2.800,-4.5,3.80
  21991219.250
  24521167.750
  18404937.750
  21025511.250
  21016040.750
  23679927.250
 23  2 12  7 30 11.0000000  0 05G02G10G18G24G29 +3.000,-4.0,3.80
  19943189.250
  21027232.750
  18206608.250
  20119283.750
  22380442.250
 23  2 12  8  0 10.0000000  0 06G02G10G13G18G24G27 3.00,-4.5,3.80
  18489759.750
  18058721.250
  20397734.750
  22075076.250
  23179868.750
  19089925.750
 23  2 12  8 30 11.0000000  0 07G02G08G10G15G18G24G32 +3.000,-4.5,3.80
  21026113.750
  22057203.750
  18935864.750
  20418957.250
  18093272.250
  18415861.250
  19927343.250
 23  2 12  9  0  9.0000000  0 06G08G10G15G18G23G24 2.96,-4.5,3.80
  22594407.250
  19033379.750
  22222793.250
  19574125.250
  18511152.750
  19220501.750
 23  2 12  9 30  8.0000000  0 06G18G21G23G24G27G28 2.92,-5.0,3.80
  19144880.250
  21640537.250
  23223415.250
  18270842.750
  20978067.750
  20495601.750
 23  2 12 10  0  6.0000000  0 06G10G18G21G23G28G32 2.88,-5.0,3.80
  20399783.250
  17994305.750
  18365711.250
  21271322.750
  22830725.750
  20974646.250
 23  2 12 10 30 11.0000000  0 07G10G12G21G23G25G31G32 +2.840,-5.5,3.80
  18043424.250
  21622819.750
  21383009.250
  19637856.750
  21017859.750
  20088169.250
  18479472.750
 23  2 12 11  0 11.0000000  0 06G10G22G23G25G31G32 +3.400,-5.5,3.80
  21026271.250
  21661414.250
  23281077.750
  23030236.250
  21731022.250
  21207490.250
 23  2 12 11 30  8.0000000  0 08G01G10G12G21G25G28G31G32 3.24,-5.5,3.80
  20045161.250
  18222275.750
  20746126.250
  20327636.250
  19273140.250
  23397853.750
  23571150.750
  17991382.750
 23  2 12 12  0 11.0000000  0 07G10G12G25G26G28G31G32 +3.080,-5.5,3.80
  21018561.750
  23155254.250
  21222183.250
  22749194.250
  19154210.750
  19073349.750
  20218033.750
 23  2 12 12 30 22.0000000  0 07G01G10G21G22G25G28G32 +3.000,-5.0,3.80
  21174904.750
  21222815.250
  22128182.250
  18869682.250
  20755513.750
  18389047.750
  19743108.250
 23  2 12 13  0 11.0000000  0 05G01G03G22G28G32 +3.600,-5.5,3.80
  22484974.750
  21252981.750
  19669465.250
  19510245.750
  21025134.750
 23  2 12 13 30 10.0000000  0 06G01G16G22G28G31G32 +3.800,-5.5,3.80
  22605239.750
  21537590.750
  19179529.750
  19403052.750
  18880055.250
  21027441.750
 23  2 12 14  0 11.0000000  0 06G03G22G26G28G31G32 +3.800,-4.5,3.80
  20863138.250
  21026049.250
  19771242.250
  21600909.250
  18048928.750
  23348142.250
 23  2 12 14 30  9.0000000  0 07G03G04G16G22G26G28G29 3.90,-1.5,3.80
  19392705.750
  20271505.750
  19155480.250
  20113079.750
  18241831.750
  20932567.250
  23053741.250
 23  2 12 15  0 11.0000000  0 05G03G04G16G26G28 +4.000,2.0,3.80
  19043968.750
  18635190.250
  23635870.250
  26208883.750
  21028338.250
 23  2 12 15 30 13.0000000  0 04G04G09G16G28 +3.400,5.0,3.80
  23078920.250
  19414601.750
  22425898.250
  21053793.250
 23  2 12 16  0  9.0000000  0 06G03G07G08G09G16G27 3.53,10.0,3.80
  21293726.250
  21935764.250
  21255896.750
  19770021.250
  23865884.250
  19692149.750
 23  2 12 16 30  8.0000000  0 06G04G07G08G16G26G27 3.67,12.0,3.80
  21708155.250
  18870973.250
  23800319.750
  22067003.250
  18694145.750
  22675336.250
 23  2 12 17  0 18.0000000  0 06G04G07G08G09G16G27 +3.800,12.5,3.80
  20867472.250
  22904381.250
  21635162.250
  21091905.750
  21658947.250
  21147913.250
 23  2 12 17 30 24.0000000  0 05G04G08G09G16G27 +4.200,19.5,3.80
  21589382.250
  20984716.250
  21045479.750
  22634195.250
  21266948.750
 23  2 12 18  0 11.0000000  0 06G04G08G09G14G21G27 +4.000,14.5,3.80
  22888182.250
  21024419.250
  21691176.750
  19209104.250
  18682799.250
  22101421.250
 23  2 12 18 30 11.0000000  0 05G04G08G09G27G30 +4.200,12.5,3.80
  23935861.250
  21027859.250
  22249211.250
  22837021.250
  23222401.250
 23  2 12 19  0 17.0000000  0 06G07G08G14G17G21G30 +3.600,13.0,3.80
  20338621.250
  21127904.250
  22890172.250
  18364184.750
  22390604.750
  21873010.750
 23  2 12 19 30 11.0000000  0 05G01G07G08G21G30 +4.200,13.0,3.80
  21955236.750
  19400704.750
  21081299.250
  21026661.750
  20247788.750
 23  2 12 20  0 15.0000000  0 05G01G07G08G09G21 4.2000,13.0,3.80
  21120282.250
  19816457.250
  22257180.250
  18382226.750
  21053879.250
 23  2 12 20 30 11.0000000  0 04G01G07G14G21 +4.200,13.0,3.80
  20153230.750
  20118782.250
  19983242.250
  21026221.250
 23  2 12 21  0 11.0000000  0 05G01G07G08G17G21 +4.200,13.0,3.80
  19269165.750
  20390069.750
  23562075.750
  19193607.250
  21026050.250
 23  2 12 21 30  5.0000000  0 06G01G07G13G14G19G30 3.90,12.5,3.80
  21485640.250
  23525091.250
  18005712.250
  20736813.750
  22580266.250
  21556526.250
 23  2 12 22  0 15.0000000  0 05G01G03G14G21G30 +3.600,12.5,3.80
  22498735.750
  18921431.750
  21086265.250
  19419462.750
  22817343.250
 23  2 12 22 30 11.0000000  0 07G01G14G17G19G21G24G30 +4.400,12.0,3.80
  23189905.750
  21027783.250
  21044772.250
  21299599.250
  20306332.250
  18254286.750
  23640494.250
 23  2 12 23  0 11.0000000  0 04G03G06G14G17 +4.600,11.0,3.80
  23360307.750
  20978518.750
  21251310.750
  21031037.750
 23  2 12 23 30 16.0000000  0 05G03G06G14G17G19 +4.600,9.5,3.80
  23126145.750
  20092416.250
  21739741.250
  21122617.250
  20159114.250
 23  2 13  0  0 11.0000000  0 04G03G12G14G17 +4.400,7.0,3.80
  23016251.750
  22994925.250
  22182148.750
  21026136.250
 23  2 13  0 30  6.0000000  0 06G06G11G12G17G19G20 4.22,5.5,3.80
  20911854.750
  22003960.250
  23428607.250
  23119736.750
  21297678.250
  18289045.750
 23  2 13  1  0 11.0000000  0 06G06G11G12G17G19G20 +4.040,4.0,3.80
  19177911.750
  19384613.250
  20405854.750
  21659456.750
  19542420.250
  21017858.250
 23  2 13  1 30  5.0000000  0 07G05G06G12G17G19G20G25 2.84,2.5,3.80
  20184246.250
  23329560.750
  23369880.750
  19975176.750
  23647047.250
  23613363.250
  19048214.250
 23  2 13  2  0  6.0000000  0 07G05G06G09G11G17G19G25 1.63,1.5,3.80
  23477190.750
  22614327.750
  19229083.750
  21277473.250
  19385657.250
  22932562.750
  22861166.250
 23  2 13  2 30 34.0000000  0 02G11G20 +0.400,2.0,3.80
  21333422.250
  20907142.250
 23  2 13  3  0 20.0000000  0 06G02G06G09G11G12G19 +0.600,2.5,3.80
  23535869.250
  23596450.750
  18696342.250
  21190408.750
  21838741.250
  21235501.250
 23  2 13  3 30 10.0000000  0 07G05G06G11G13G20G25G29 0.65,2.5,3.80
  22520128.750
  20596915.750
  23829298.750
  20253502.250
  22762754.750
  18395840.250
  18414395.750
 23  2 13  4  0  5.0000000  0 07G02G05G11G12G13G15G20 0.70,2.0,3.80
  23006424.250
  20844663.250
  22910879.250
  18459557.750
  23603169.250
  18369524.750
  21769526.750
 23  2 13  4 30  6.0000000  0 06G05G11G13G15G20G29 0.75,1.5,3.80
  19335197.750
  21928002.750
  20938136.250
  21406541.250
  20803503.250
  19772669.250
 23  2 13  5  0 11.0000000  0 04G05G13G18G20 +0.800,1.5,3.80
  20574764.750
  21025260.250
  22929216.250
  22432110.250
 23  2 13  5 30  9.0000000  0 06G05G13G18G23G26G29 0.85,1.5,3.80
  22742825.750
  22227267.750
  23563501.250
  18625431.750
  20473204.750
  21989329.250
 23  2 13  6  0  6.0000000  0 06G02G05G13G15G18G20 0.90,2.5,3.80
  20650948.750
  21869577.250
  20687002.250
  19703953.250
  21098649.250
  18118323.750
 23  2 13  6 30  9.0000000  0 07G02G05G10G13G15G18G23 0.95,3.0,3.80
  19761300.750
  21772293.750
  23156893.750
  20256609.750
  18734405.750
  19462233.750
  20499064.750
 23  2 13  7  0  5.0000000  0 07G02G05G13G15G18G24G29 1.00,2.5,3.80
  18938650.250
  21535906.250
  19982999.750
  17989728.250
  23857575.250
  20432171.750
  20794788.750
 23  2 13  7 30  6.0000000  0 06G02G05G15G18G24G32 1.05,3.0,3.80
  18499964.750
  21445576.750
  23694354.750
  22664245.250
  18475540.750
  21027426.750
 23  2 13  8  0  5.0000000  0 06G02G10G15G18G23G24 1.10,4.0,3.80
  18732100.750
  18089077.250
  18063567.250
  22238797.250
  22513765.750
  23236917.750
 23  2 13  8 30 10.0000000  0 07G02G08G10G18G24G27G32 1.15,5.0,3.80
  20061215.250
  20907515.750
  23738606.750
  23068789.250
  23293506.750
  19630115.750
  18701697.250
 23  2 13  9  0  7.0000000  0 06G10G15G18G23G24G27 1.20,5.5,3.80
  21889434.250
  19304441.750
  22628825.250
  21453530.750
  22196649.750
  18805448.750
 23  2 13  9 30  6.0000000  0 06G10G23G24G28G31G32 1.25,5.0,3.80
  22138216.250
  22384472.750
  23484909.750
  19431855.250
  20416211.750
  22793746.250
 23  2 13 10  0  9.0000000  0 07G08G10G22G23G24G31G32 1.30,5.0,3.80
  21526307.250
  22440895.250
  18197179.250
  23412851.250
  18984600.250
  19583022.750
  23001761.250
 23  2 13 10 30  9.0000000  0 07G01G10G12G23G25G31G32 1.35,4.5,3.80
  20734541.250
  22786291.250
  20291224.250
  18479061.750
  19637922.750
  18658229.250
  23196680.750
 23  2 13 11  0 16.0000000  0 05G10G12G23G31G32 +1.400,4.0,3.80
  21027248.250
  23967668.750
  23365972.250
  21543898.750
  21161787.750
 23  2 13 11 30 13.0000000  0 06G10G22G25G28G31G32 +0.800,3.0,3.80
  21053019.250
  20726495.750
  21977889.750
  20084791.750
  20222254.750
  20752714.250
 23  2 13 12  0  5.0000000  0 07G10G12G22G25G28G31G32 0.88,2.5,3.80
  19109684.250
  21204540.750
  23754166.250
  19212128.250
  23109051.750
  22997686.250
  18224996.750
 23  2 13 12 30  5.0000000  0 06G10G22G26G28G31G32 0.96,2.0,3.80
  18127604.250
  21622657.250
  23225522.250
  21176215.750
  20861889.750
  22555516.750
 23  2 13 13  0 13.0000000  0 07G03G16G22G26G28G31G32 1.04,1.0,3.80
  20154554.250
  22457893.250
  18710445.750
  19167267.250
  18601725.750
  18147212.250
  20131689.750
 23  2 13 13 30 14.0000000  0 06G03G22G26G28G31G32 +1.120,2.5,3.80
  19603689.250
  19105904.250
  18557431.250
  19380973.750
  18850238.250
  21018315.750
 23  2 13 14  0 11.0000000  0 04G16G22G26G28 +1.600,5.0,3.80
  21486990.750
  21026222.750
  19673257.750
  21641016.750
 23  2 13 14 30 10.0000000  0 07G03G04G16G22G26G28G31 1.62,8.5,3.80
  23853263.250
  18578360.250
  23460732.750
  18635616.750
  22691565.250
  19476544.750
  18928663.750
 23  2 13 15  0 13.0000000  0 00 1.65,14.5,3.80
 23  2 13 15 30 13.0000000  0 00 1.67,17.5,3.80
 23  2 13 16  0 13.0000000  0 00 1.69,19.5,3.80
 23  2 13 16 30 13.0000000  0 00 1.72,21.0,3.80
 23  2 13 17  0 13.0000000  0 00 1.74,21.5,3.80
 23  2 13 17 30 13.0000000  0 00 1.76,22.0,3.80
 23  2 13 18  0 13.0000000  0 00 1.79,22.0,3.80
 23  2 13 18 30 13.0000000  0 00 1.81,22.5,3.80
 23  2 13 19  0 13.0000000  0 00 1.84,22.5,3.80
 23  2 13 19 30 13.0000000  0 00 1.86,23.0,3.80
 23  2 13 20  0 13.0000000  0 00 1.88,23.0,3.80
 23  2 13 20 30 13.0000000  0 00 1.91,23.5,3.80
 23  2 13 21  0 13.0000000  0 00 1.93,23.0,3.80
 23  2 13 21 30 13.0000000  0 00 1.95,23.5,3.80
 23  2 13 22  0 13.0000000  0 00 1.98,23.5,3.80
 23  2 13 22 30 13.0000000  0 06G03G06G14G17G19G24 +2.000,23.0,3.80
  21026431.750
  19151597.750
  18197192.250
  18191384.250
  18354420.250
  21270528.750
 23  2 13 23  0 11.0000000  0 04G06G11G17G24 +2.000,24.5,3.80
  20828086.250
  18072774.750
  21026749.250
  23289752.250
 23  2 13 23 30 21.0000000  0 04G03G06G17G19 +1.400,23.5,3.80
  18217669.250
  21086276.250
  22230378.750
  21196427.250
 23  2 14  0  0 15.0000000  0 05G03G11G14G17G19 +2.000,11.0,3.80
  23085117.750
  21096191.250
  22314670.750
  21074739.250
  19578882.750
 23  2 14  0 30 11.0000000  0 06G06G11G12G17G19G20 +1.560,7.0,3.80
  17844486.750
  18815182.250
  20184980.250
  20098224.750
  18232450.250
  21017904.250
 23  2 14  1  0 10.0000000  0 06G06G11G12G17G19G20 1.88,5.5,3.80
  19311802.250
  19402842.750
  20369167.750
  21817402.750
  19670262.250
  20941102.750
 23  2 14  1 30 11.0000000  0 05G06G11G12G19G20 +2.200,4.0,3.80
  20714408.250
  19989650.750
  20602060.250
  21028199.250
  20785034.250
 23  2 14  2  0  8.0000000  0 06G05G11G12G19G20G25 2.20,3.5,3.80
  21306034.750
  19289738.250
  19704278.250
  21044193.250
  19379411.250
  20782780.250
 23  2 14  2 30  5.0000000  0 06G05G06G11G12G19G20 2.20,3.0,3.80
  19642719.750
  20924129.250
  18918542.250
  19357834.750
  21365938.750
  18432251.250
 23  2 14  3  0 11.0000000  0 05G05G06G11G12G20 +2.200,2.5,3.80
  19872761.250
  22793695.750
  20331449.250
  21025681.750
  19451357.750
 23  2 14  3 30  5.0000000  0 06G02G05G11G12G20G29 2.11,2.0,3.80
  18537071.750
  22013571.250
  23439101.750
  18561397.750
  22354376.250
  23817529.250
 23  2 14  4  0  5.0000000  0 06G02G05G12G15G25G29 2.01,1.5,3.80
  22337234.750
  20251503.750
  18019426.750
  23586009.250
  23116225.750
  21347401.250
 23  2 14  4 30 11.0000000  0 07G02G05G12G13G15G20G29 +1.920,1.5,3.80
  21018075.750
  19628623.250
  24338148.750
  21064805.750
  21482984.750
  21157438.750
  19959121.250
 23  2 14  5  0  5.0000000  0 07G02G11G13G15G20G23G29 2.15,1.5,3.80
  23726528.750
  20186679.250
  23514842.750
  23515266.250
  19107286.250
  20477909.250
  22869576.750
 23  2 14  5 30 40.0000000  0 04G02G05G13G29 2.38,1.5,3.80
  21533514.750
  21982612.750
  21340634.250
  21174049.750
 23  2 14  6  0 10.0000000  0 05G05G13G15G18G29 +2.600,1.0,3.80
  22020797.750
  20769497.750
  19709065.750
  21027617.250
  21023205.250
 23  2 14  6 30 10.0000000  0 05G02G13G15G18G29 +2.600,1.0,3.80
  21057440.250
  21027085.750
  19434644.750
  20053069.750
  21627093.750
 23  2 14  7  0 12.0000000  0 06G02G05G10G13G18G23 +2.160,0.5,3.80
  18354296.250
  21018608.750
  20424168.750
  19477010.750
  23164482.250
  18097244.250
 23  2 14  7 30 10.0000000  0 06G02G18G23G24G29G32 2.29,1.0,3.80
  18905750.750
  22971551.250
  23637852.250
  18670757.250
  21498119.750
  21173784.250
 23  2 14  8  0  7.0000000  0 08G02G10G15G18G23G24G27G32 2.42,1.0,3.80
  23207426.750
  22340490.750
  22553615.250
  20639109.250
  20836205.750
  21526700.750
  23538879.750
  23546737.250
 23  2 14  8 30  6.0000000  0 06G10G15G18G23G24G32 2.54,1.0,3.80
  19279227.750
  21229112.250
  18787189.250
  18311591.750
  18915886.250
  20207346.250
 23  2 14  9  0 10.0000000  0 07G10G18G22G23G24G27G32 2.67,1.5,3.80
  22556975.250
  23504548.750
  19140834.250
  22211904.250
  22994223.250
  19628311.250
  23307178.250
 23  2 14  9 30 11.0000000  0 07G10G18G22G23G24G31G32 +2.800,2.5,3.80
  20381619.250
  22873585.750
  22527026.250
  20728036.250
  21890490.750
  18509483.250
  21024953.250
 23  2 14 10  0 11.0000000  0 07G10G18G21G23G28G31G32 +2.440,4.0,3.80
  21018160.750
  25002969.250
  18811877.250
  22091482.250
  23156469.250
  23986142.250
  21563807.750
 23  2 14 10 30  5.0000000  0 07G10G12G21G23G28G31G32 3.29,5.5,3.80
  19816308.750
  23238741.250
  22986619.750
  21598527.250
  20881854.750
  21504543.250
  20198678.250
 23  2 14 11  0  9.0000000  0 06G01G10G12G22G28G31 4.15,6.0,3.80
  23753254.750
  21121695.750
  17997916.250
  21546196.750
  21087550.250
  21456869.750
 23  2 14 11 30 13.0000000  0 00 +5.000,7.0,3.80,1,67018,-5050822,3881213,5,3.6
 23  2 14 14  0 16.0000000  0 06G03G04G16G22G26G31 -3.000,8.5,3.80
  20554019.750
  22181109.250
  21128338.750
  20893985.250
  19445830.750
  20989529.750
 23  2 14 14 30  5.0000000  0 06G03G16G22G26G28G31 -2.93,8.5,3.80
  22260840.250
  21720367.250
  23098516.250
  21093165.750
  23957059.750
  23410451.750
 23  2 14 15  0  9.0000000  0 06G03G04G16G26G28G31 -2.87,9.5,3.80
  19755986.250
  18970938.750
  18048723.750
  18513087.750
  21807353.750
  21284980.750
 23  2 14 15 30 17.0000000  0 06G03G04G07G16G27G31 -2.800,10.5,3.80
  21236282.250
  18988629.750
  23208252.250
  18457435.750
  21112217.250
  22852908.250
 23  2 14 16  0 15.0000000  0 01G03 +1.000,10.5,3.80
  21075077.750
 23  2 14 16 30 30.0000000  0 02G08G27 0.94,10.5,3.80
  22275280.250
  21313041.250
 23  2 14 17  0 10.0000000  0 06G04G07G08G09G16G27 +0.880,13.0,3.80
  20906749.250
  22582819.750
  21309412.250
  20922165.250
  21778546.750
  21018315.250
 23  2 14 17 30 11.0000000  0 06G04G07G08G09G16G27 +1.400,15.0,3.80
  21756127.750
  21909503.750
  20803223.750
  21026940.250
  22826004.750
  21298785.750
 23  2 14 18  0 10.0000000  0 04G04G07G09G27 +1.400,14.0,3.80
  22372189.250
  20818237.750
  21026655.250
  21488494.750
 23  2 14 18 30  8.0000000  0 07G04G07G08G09G16G21G30 1.40,14.5,3.80
  23266204.750
  19990984.750
  20129964.750
  21483332.750
  18185323.750
  22362968.750
  21955888.750
 23  2 14 19  0  9.0000000  0 06G07G08G09G17G21G30 1.40,14.5,3.80
  18932656.750
  19966142.750
  21730807.250
  22679694.750
  20867861.750
  20290954.750
 23  2 14 19 30 11.0000000  0 05G07G09G17G21G30 +1.400,15.5,3.80
  18438888.750
  22372712.250
  21024779.250
  19952435.250
  19079257.250
 23  2 14 20  0 10.0000000  0 04G01G17G21G30 +1.400,16.5,3.80
  20707504.250
  21024702.750
  20891249.250
  19613218.750
 23  2 14 20 30  7.0000000  0 06G01G14G17G19G21G30 1.47,16.5,3.80
  18449142.750
  18270493.250
  18606387.750
  21355108.250
  19571099.750
  23837088.750
 23  2 14 21  0  5.0000000  0 06G01G07G14G17G19G30 1.53,15.0,3.80
  23885584.750
  19290054.750
  23482475.250
  23698035.750
  19858125.750
  23705800.250
 23  2 14 21 30 11.0000000  0 04G01G06G17G19 +1.600,12.0,3.80
  20305679.750
  22887084.750
  19555215.750
  21026810.250
 23  2 14 22  0 12.0000000  0 06G01G06G14G17G19G30 +1.120,9.5,3.80
  20651643.250
  21205697.750
  19038300.250
  19144533.750
  19903994.250
  21018500.750
 23  2 14 22 30 11.0000000  0 04G06G17G19G30 +1.600,9.5,3.80
  21025988.750
  20233754.750
  20304484.750
  23100159.750
 23  2 14 23  0 18.0000000  0 05G03G06G11G14G19 +1.400,9.5,3.80
  21148832.250
  18594128.250
  21764233.750
  19254019.250
  18381349.750
 23  2 14 23 30  7.0000000  0 06G03G06G11G14G17G19 1.50,9.0,3.80
  18750999.750
  21531674.750
  18067979.750
  23527571.250
  22777514.250
  21679642.750
 23  2 15  0  0 20.0000000  0 05G06G11G17G19G20 +1.600,9.0,3.80
  19457537.750
  21183477.750
  21350886.750
  19799614.250
  23817802.750
 23  2 15  0 30 11.0000000  0 05G06G11G17G19G20 +1.800,9.0,3.80
  18055022.250
  18905078.750
  20350350.750
  18443273.250
  21027087.750
 23  2 15  1  0  8.0000000  0 06G06G11G12G17G19G20 1.80,9.5,3.80
  18363205.250
  18339045.250
  19251271.750
  20890840.250
  18715226.750
  19780535.250
 23  2 15  1 30 10.0000000  0 06G05G09G11G12G19G20 1.80,10.5,3.80
  19313736.250
  20441586.750
  22186766.250
  22760767.750
  23326121.250
  22883282.750
 23  2 15  2  0  8.0000000  0 06G05G09G12G19G20G25 1.80,10.5,3.80
  21657800.750
  23666770.250
  20225966.250
  21673940.250
  19824713.750
  21228966.250
 23  2 15  2 30 11.0000000  0 05G05G06G12G19G20 +1.800,11.0,3.80
  21112026.750
  22642013.250
  21025488.750
  23110024.750
  20011096.750
 23  2 15  3  0  7.0000000  0 06G05G06G11G12G20G25 1.80,11.5,3.80
  21202709.250
  18326449.750
  21805094.750
  22548886.750
  20887237.750
  22406264.750
 23  2 15  3 30 11.0000000  0 04G02G05G11G12 +1.800,11.5,3.80
  20773714.250
  18296842.750
  19838172.250
  21024865.750
 23  2 15  4  0  6.0000000  0 06G02G05G12G20G25G29 1.71,12.0,3.80
  19051618.750
  23042578.750
  20957433.250
  18131514.250
  20019948.250
  18035939.250
 23  2 15  4 30 10.0000000  0 07G02G11G13G15G20G25G29 1.61,11.5,3.80
  18947327.750
  20368117.750
  18944191.750
  19311658.250
  19252948.250
  21352595.250
  23893543.750
 23  2 15  5  0 11.0000000  0 06G02G13G15G18G23G29 +1.520,12.0,3.80
  21824194.750
  21597453.250
  21531347.750
  23385686.250
  24479384.750
  21018273.750
 23  2 15  5 30 11.0000000  0 05G02G13G15G20G29 +2.000,12.5,3.80
  21026326.750
  20855208.250
  20271292.750
  23734258.750
  20743946.250
 23  2 15  6  0  9.0000000  0 06G02G05G13G15G18G29 1.80,12.5,3.80
  19246940.250
  20704696.750
  19393398.250
  18258361.250
  19497859.750
  19700893.750
 23  2 15  6 30  8.0000000  0 07G02G05G13G15G18G24G29 1.60,12.5,3.80
  23902768.250
  20106158.250
  18549741.750
  22885891.750
  23394228.250
  20447435.750
  19190842.250
 23  2 15  7  0 15.0000000  0 04G15G18G23G29 +1.400,12.5,3.80
  20564560.250
  20183089.250
  21085706.750
  23540703.750
 23  2 15  7 30 10.0000000  0 06G02G10G18G23G27G29 1.47,12.5,3.80
  21920908.750
  22410950.250
  19896673.750
  20511259.750
  23156419.750
  18587623.750
 23  2 15  8  0  9.0000000  0 07G10G15G18G23G24G27G32 1.53,12.0,3.80
  20093648.750
  20544246.750
  18541201.250
  18657204.750
  19320315.750
  21385704.750
  21256355.750
 23  2 15  8 30 12.0000000  0 05G02G10G18G24G27 +1.600,12.0,3.80
  23819876.750
  21033986.750
  20729774.750
  20761916.250
  23181660.250
 23  2 15  9  0 11.0000000  0 06G10G18G22G24G27G28 +2.200,11.0,3.80
  21026403.250
  22181122.750
  23542623.750
  21597172.250
  18252606.250
  18970443.750
 23  2 15  9 30  5.0000000  0 06G10G18G23G28G31G32 2.20,11.0,3.80
  18875109.250
  21570415.750
  19316818.250
  21894601.250
  22853619.750
  19507253.250
 23  2 15 10  0 11.0000000  0 06G10G12G18G23G28G32 +2.200,10.5,3.80
  21025697.750
  18960091.250
  25200002.750
  22198566.250
  23017447.250
  21555302.750
 23  2 15 10 30  6.0000000  0 06G10G21G22G28G31G32 2.00,10.5,3.80
  20369911.750
  23454754.750
  21409927.250
  21283882.750
  21875353.250
  20721635.250
 23  2 15 11  0 11.0000000  0 06G10G21G22G28G31G32 +1.800,10.5,3.80
  20869447.250
  23334993.750
  21182949.750
  20684231.250
  21017904.250
  20903946.750
 23  2 15 11 30  8.0000000  0 07G10G12G21G22G25G28G32 1.95,10.0,3.80
  22835568.750
  19195166.250
  18698846.750
  22245678.250
  23519827.750
  21580617.750
  22391182.750
 23  2 15 12  0  9.0000000  0 07G01G10G22G25G28G31G32 2.10,10.0,3.80
  21681333.750
  21240752.250
  19582714.750
  21142252.750
  18973694.750
  18800978.250
  20175420.250
 23  2 15 12 30  8.0000000  0 06G03G10G22G28G31G32 2.25,9.5,3.80
  19042593.250
  19643394.250
  22815652.750
  22450866.750
  22091050.750
  23878752.250
 23  2 15 13  0 11.0000000  0 05G16G22G26G31G32 +2.400,9.5,3.80
  22802357.250
  19474740.250
  19637287.250
  18986792.750
  21026587.250
 23  2 15 13 30 10.0000000  0 07G01G03G16G22G26G31G32 2.40,9.5,3.80
  21222474.750
  23826837.750
  19246948.250
  23555198.250
  22762957.250
  23385687.250
  19597054.250
 23  2 15 14  0 10.0000000  0 06G04G16G22G26G28G31 2.40,10.5,3.80
  22487087.750
  21417140.750
  21407291.750
  19868453.750
  22095776.750
  21537565.250
 23  2 15 14 30 11.0000000  0 06G03G16G22G26G28G31 +2.400,12.0,3.80
  20130389.750
  19425750.750
  21025202.750
  18953658.250
  21900218.750
  21355580.250
 23  2 15 15  0 12.0000000  0 05G03G04G22G26G31 +2.400,13.5,3.80
  21024831.250
  20038067.750
  22197722.250
  19771728.250
  22583586.750
 23  2 15 15 30 11.0000000  0 04G03G04G16G27 +2.600,15.5,3.80
  23468746.250
  21027259.750
  20559972.750
  23067355.750
 23  2 15 16  0 13.0000000  0 06G03G04G08G09G26G27 2.60,16.5,3.80
  23354926.750
  19579003.750
  22365826.750
  21031457.250
  21941041.750
  20958179.750
 23  2 15 16 30 10.0000000  0 06G03G04G08G09G26G27 2.60,19.0,3.80
  20204918.750
  21405527.250
  22974404.750
  22103062.750
  18764514.750
  22089349.750
 23  2 15 17  0 11.0000000  0 06G04G07G08G09G16G27 +2.600,18.0,3.80
  21117632.250
  22598219.750
  21331330.250
  21026397.250
  22025339.250
  21144722.250
 23  2 15 17 30  9.0000000  0 06G04G07G08G09G16G27 2.67,19.0,3.80
  23036175.750
  22964034.750
  21908084.750
  22215362.750
  18117456.750
  22513431.750
 23  2 15 18  0  6.0000000  0 06G04G07G08G09G27G30 2.73,21.0,3.80
  18367697.250
  22574007.250
  22048164.750
  22949263.750
  23436082.750
  18964504.250
 23  2 15 18 30 22.0000000  0 06G07G08G09G16G27G30 +2.800,22.5,3.80
  19530336.750
  19795345.750
  21216333.750
  23925046.750
  21869278.750
  21414092.250
 23  2 15 19  0 11.0000000  0 06G07G08G09G17G21G30 +2.200,21.5,3.80
  18049466.750
  19208545.250
  21018546.750
  21648950.250
  19924246.250
  19312952.750
 23  2 15 19 30  6.0000000  0 06G07G08G09G17G21G30 2.35,24.0,3.80
  23301986.250
  19316384.750
  21368453.250
  19724581.750
  18764971.750
  23837804.750
 23  2 15 20  0  9.0000000  0 06G01G07G08G17G21G30 2.50,26.5,3.80
  18825646.750
  18047733.250
  20725027.250
  19131044.750
  19137919.250
  23794480.250
 23  2 15 20 30  6.0000000  0 07G01G07G14G17G19G21G30 2.65,27.0,3.80
  18371621.750
  18835048.750
  18180038.750
  18494755.250
  21165950.750
  19617649.750
  23822501.250
 23  2 15 21  0 11.0000000  0 06G01G14G17G19G21G30 +2.800,25.5,3.80
  21154024.750
  20694662.750
  20901116.750
  22962130.250
  23226029.250
  21027608.750
 23  2 15 21 30 11.0000000  0 05G01G14G17G19G30 +3.000,22.0,3.80
  20842449.750
  19840649.250
  19998592.750
  21370793.250
  21031100.750
 23  2 15 22  0 11.0000000  0 06G01G06G14G17G19G30 +2.800,26.0,3.80
  22649923.250
  22908869.750
  20932957.750
  21026580.250
  21688048.250
  23038280.250
 23  2 15 22 30 12.0000000  0 06G06G11G14G17G19G30 +2.400,21.5,3.80
  21681568.750
  19245679.250
  21119858.750
  21056967.750
  21036716.750
  24059636.250
 23  2 15 23  0 11.0000000  0 06G06G11G14G17G19G24 +2.800,18.5,3.80
  21180129.750
  24279164.750
  22025748.750
  21661422.250
  21025779.750
  23748687.250
 23  2 15 23 30 11.0000000  0 05G03G06G11G17G19 +2.800,16.0,3.80
  21905192.750
  18594062.750
  21025031.750
  19945015.250
  18779822.750
 23  2 16  0  0 19.0000000  0 05G06G11G17G19G20 2.80,13.5,3.80
  20780157.250
  22390340.750
  22740150.750
  21136540.250
  24968896.750
 23  2 16  0 30  9.0000000  0 06G06G11G12G17G19G20 2.80,12.0,3.80
  23159951.750
  23889983.250
  19152860.750
  19497203.750
  23546869.250
  19932959.750
 23  2 16  1  0 11.0000000  0 05G06G11G12G19G20 +2.800,10.5,3.80
  19824086.750
  19682691.750
  20540624.250
  20169317.750
  21023541.250
 23  2 16  1 30  9.0000000  0 06G05G09G11G12G19G20 2.90,9.5,3.80
  21621557.250
  22862666.750
  18671905.750
  19210429.250
  19912056.250
  19269676.750
 23  2 16  2  0 11.0000000  0 06G05G11G12G19G20G25 +3.000,9.5,3.80
  22678879.250
  21026799.250
  21424470.750
  22977783.750
  20943401.250
  22349198.250
 23  2 16  2 30  8.0000000  0 06G02G05G06G11G12G20 3.03,9.0,3.80
  22254344.250
  19655471.750
  21421030.750
  19273961.750
  19762335.250
  18661107.250
 23  2 16  3  0  7.0000000  0 06G02G05G11G12G20G29 3.07,10.5,3.80
  18909085.250
  22251012.250
  22996224.750
  23793874.750
  22042917.250
  18460599.750
 23  2 16  3 30 10.0000000  0 08G02G05G06G11G12G13G25G29 3.10,9.0,3.80
  21784447.250
  19354781.750
  23896527.750
  21004113.750
  22258809.250
  22717477.250
  21597418.250
  20972051.750
 23  2 16  4  0  5.0000000  0 06G02G05G12G15G25G29 3.13,9.5,3.80
  18336036.750
  22412612.250
  20468584.750
  19366057.250
  19495263.250
  23294815.250
 23  2 16  4 30  9.0000000  0 07G02G05G11G15G18G20G29 3.17,9.5,3.80
  21136793.750
  19973277.750
  22720441.750
  21402244.750
  23163844.750
  21609783.250
  20102133.750
 23  2 16  5  0 11.0000000  0 07G02G11G13G15G18G20G29 +3.200,10.0,3.80
  21777227.750
  18564469.750
  21541132.250
  21407941.250
  23260727.250
  23484405.750
  21027256.750
 23  2 16  5 30 12.0000000  0 05G02G13G18G20G29 +2.600,10.0,3.80
  21175604.250
  21034037.250
  22032620.250
  18033897.250
  20984978.750
 23  2 16  6  0 12.0000000  0 04G05G13G18G29 +3.200,10.0,3.80
  22449983.750
  21083690.750
  21025456.250
  21444838.250
 23  2 16  6 30 11.0000000  0 05G02G05G15G18G29 +3.200,9.5,3.80
  21641334.250
  23929849.750
  20633507.750
  21025239.250
  23042476.250
 23  2 16  7  0 10.0000000  0 07G02G05G10G15G18G23G29 2.90,9.5,3.80
  23794307.250
  20577865.750
  19514863.250
  22904825.750
  22400911.250
  23275077.750
  19961398.250
 23  2 16  7 30 12.0000000  0 05G10G15G18G23G24 +2.600,9.0,3.80
  23431426.250
  22410600.250
  21031617.750
  21589773.250
  22504918.250
 23  2 16  8  0 12.0000000  0 07G02G10G15G18G23G24G32 +3.000,8.5,3.80
  21237317.250
  19916870.750
  20608316.250
  18520585.250
  18550689.750
  19191303.250
  21037483.250
 23  2 16  8 30 11.0000000  0 06G02G10G15G18G24G32 +2.920,7.5,3.80
  18041289.750
  21018039.250
  23441617.750
  20902072.250
  20842249.250
  21889142.750
 23  2 16  9  0 11.0000000  0 05G10G18G22G23G24 +3.400,7.0,3.80
  21025918.250
  22389899.750
  23478980.250
  20863831.250
  21735614.750
 23  2 16  9 30  9.0000000  0 07G10G18G23G24G28G31G32 3.43,7.0,3.80
  22588605.250
  19500767.750
  23131147.750
  18423678.250
  19471537.750
  20415323.250
  23209124.750
 23  2 16 10  0 10.0000000  0 06G10G22G23G28G31G32 3.46,7.5,3.80
  19910629.250
  21446587.750
  21182708.250
  21754829.250
  22536660.750
  20422904.750
 23  2 16 10 30  6.0000000  0 06G10G12G23G28G31G32 3.49,7.0,3.80
  21887300.750
  19158251.750
  23854771.750
  22649067.250
  23208264.750
  22205796.750
 23  2 16 11  0 11.0000000  0 04G10G25G28G31 3.51,6.0,3.80
  21025890.250
  22499603.250
  20690153.750
  18595003.750
 23  2 16 11 30  5.0000000  0 06G10G22G25G28G31G32 3.54,5.0,3.80
  23850116.250
  23124429.250
  18421744.750
  22453760.250
  22487142.250
  23329790.750
 23  2 16 12  0  5.0000000  0 06G10G25G26G28G31G32 3.57,5.0,3.80
  19425432.250
  19233800.750
  19912823.750
  23024764.750
  22823279.750
  18269597.750
 23  2 16 12 30 11.0000000  0 06G10G22G26G28G31G32 +3.600,5.5,3.80
  18717051.250
  21726585.750
  22841224.250
  21406459.250
  21025395.750
  22855558.750
 23  2 16 13  0  5.0000000  0 06G03G16G22G26G31G32 3.50,5.5,3.80
  21753483.250
  23829977.750
  20712319.750
  20734512.250
  20263498.750
  22327643.750
 23  2 16 13 30 16.0000000  0 05G03G16G22G28G31 +3.400,5.5,3.80
  21290487.750
  22584917.250
  21130712.750
  21554108.250
  21005419.250
 23  2 16 14  0 10.0000000  0 05G04G16G22G28G31 +3.800,6.0,3.80
  21894867.750
  20810992.250
  21027313.750
  21749468.750
  21190959.250
 23  2 16 14 30  9.0000000  0 07G03G04G16G22G26G28G31 3.58,6.0,3.80
  22907901.250
  23120784.750
  22046645.250
  23853687.250
  21722557.750
  18745652.250
  18203031.750
 23  2 16 15  0 11.0000000  0 07G03G04G16G26G27G28G31 +3.360,6.5,3.80
  22201144.250
  21018133.250
  20185744.250
  20938240.250
  23544960.750
  18305250.750
  23783698.750
 23  2 16 15 30 11.0000000  0 06G03G04G09G16G27G31 +3.400,6.5,3.80
  23652168.250
  21018130.750
  23040287.750
  20616628.250
  22972338.250
  25259634.250
 23  2 16 16  0 11.0000000  0 06G03G04G08G09G16G27 +3.800,7.5,3.80
  23605772.250
  19670033.750
  22302726.250
  21024066.750
  19788389.250
  20954801.250
 23  2 16 16 30 11.0000000  0 04G08G09G16G27 +4.000,8.5,3.80
  21825335.750
  21027139.750
  21038917.750
  21027895.250
 23  2 16 17  0 16.0000000  0 05G04G07G09G16G27 +4.200,9.0,3.80
  21319428.750
  22595799.750
  21121201.250
  22259689.750
  21262953.250
 23  2 16 17 30 16.0000000  0 06G04G07G08G09G16G27 +3.520,8.5,3.80
  21327711.750
  21018209.750
  20020824.250
  20414540.750
  22408678.750
  20739952.250
 23  2 16 18  0 11.0000000  0 04G04G07G08G09 +4.000,8.0,3.80
  22508471.250
  20474134.250
  20047100.250
  21026265.250
 23  2 16 18 30 28.0000000  0 07G01G04G07G08G09G16G21 +3.600,8.0,3.80
  22835822.250
  22510798.250
  18770101.750
  19158901.750
  20641924.750
  23356501.250
  21018142.250
 23  2 16 19  0 11.0000000  0 05G01G08G09G17G21 +4.000,8.0,3.80
  22817871.250
  21024964.750
  22875394.250
  23189669.250
  21556066.250
 23  2 16 19 30 29.0000000  0 05G01G08G14G21G30 +3.400,8.0,3.80
  21790132.250
  22047292.250
  21335966.750
  21321194.750
  20340709.750
 23  2 16 20  0 22.0000000  0 01G17 +3.600,8.0,3.80
  21069394.750
 23  2 16 20 30 14.0000000  0 05G01G07G17G21G30 +3.600,8.0,3.80
  20441173.250
  21071891.750
  20524636.250
  21814262.750
  19959990.750
 23  2 16 21  0 40.0000000  0 03G01G17G30 +3.400,8.0,3.80
  21545799.750
  21216352.250
  21474164.750
 23  2 16 21 30 40.0000000  0 04G01G03G19G30 +3.400,7.5,3.80
  21326783.250
  24434319.250
  21635215.750
  21552684.750
 23  2 16 22  0 13.0000000  0 00 3.80,7.5,3.80
 23  2 16 22 30 12.0000000  0 04G03G11G17G30 +4.200,10.0,3.80
  23589956.250
  18994386.250
  21024554.750
  18153630.250
 23  2 16 23  0 26.0000000  0 06G03G06G11G17G19G24 +4.200,11.0,3.80
  23387505.750
  20653330.750
  23668595.250
  21281491.250
  20567313.250
  23292636.750
 23  2 16 23 30 23.0000000  0 04G03G17G19G24 +4.200,12.0,3.80
  18413158.250
  22451203.250
  21223226.750
  24047644.250
 23  2 17  0  0 24.0000000  0 05G06G11G17G19G20 +0.200,12.5,3.80
  19763416.750
  21253525.750
  21781785.750
  20132250.250
  23762823.250
 23  2 17  0 30  8.0000000  0 06G06G12G17G19G20G24 0.30,11.5,3.80
  22104148.250
  23925298.750
  18468248.250
  22485724.250
  18661931.750
  19976441.750
 23  2 17  1  0 11.0000000  0 05G06G12G17G20G24 +0.400,13.5,3.80
  21070156.750
  21025227.250
  23033489.250
  21455790.250
  24667599.750
 23  2 17  1 30 11.0000000  0 05G05G11G12G17G19 +0.400,12.5,3.80
  23289000.250
  20517671.750
  21024923.250
  18245011.750
  21854037.750
 23  2 17  2  0  6.0000000  0 06G05G09G11G12G19G25 0.50,11.0,3.80
  18811158.250
  21087250.750
  23331498.250
  23727591.250
  19376125.750
  18583230.750
 23  2 17  2 30 11.0000000  0 07G02G05G09G11G12G19G20 +0.600,10.0,3.80
  23653802.750
  21027094.750
  18350938.250
  20813491.250
  21332500.250
  23548288.250
  20141751.250
 23  2 17  3  0  7.0000000  0 08G05G06G11G12G13G19G20G25 0.60,9.0,3.80
  23879492.250
  21387091.250
  18765438.250
  19618601.250
  21951132.750
  22183541.750
  23776282.250
  19340545.250
 23  2 17  3 30  5.0000000  0 06G02G05G11G12G20G29 0.60,8.0,3.80
  22511996.250
  20130518.750
  21878936.750
  23200161.250
  20754575.750
  21656933.750
 23  2 17  4  0  6.0000000  0 06G02G11G12G13G20G29 0.60,7.5,3.80
  18126018.750
  18666190.250
  20478382.250
  18426354.250
  23520315.250
  23067492.750
 23  2 17  4 30 11.0000000  0 05G05G11G13G20G29 +0.600,6.5,3.80
  20073171.250
  22862103.250
  21024956.250
  21758168.750
  20105423.250
 23  2 17  5  0  7.0000000  0 07G02G05G11G13G15G18G23 0.66,5.5,3.80
  20215153.750
  20086732.250
  23149148.250
  19971553.250
  19772371.750
  21624178.250
  22692612.750
 23  2 17  5 30  9.0000000  0 06G02G05G13G18G20G23 0.71,5.5,3.80
  20838716.750
  21658482.750
  20728809.750
  21609877.250
  23830062.750
  22649150.250
 23  2 17  6  0  9.0000000  0 06G05G13G15G18G23G29 0.77,4.5,3.80
  22916193.250
  21503316.750
  20219616.250
  21288261.250
  22327938.250
  21913425.250
 23  2 17  6 30  8.0000000  0 06G02G05G10G15G24G29 0.83,4.0,3.80
  21483742.250
  23854015.250
  18289530.750
  20488133.750
  23638532.250
  22995529.250
 23  2 17  7  0  6.0000000  0 06G02G05G10G15G24G29 0.89,3.5,3.80
  21610973.250
  18444434.750
  23155283.750
  20744336.750
  22279481.750
  23865514.750
 23  2 17  7 30  6.0000000  0 06G02G10G18G24G27G32 0.94,3.5,3.80
  21683435.750
  21770490.750
  19481310.250
  20845307.250
  22630567.250
  23186319.250
 23  2 17  8  0 11.0000000  0 05G02G10G18G23G24 +1.000,2.5,3.80
  23863793.750
  22325827.250
  21081598.250
  21027542.750
  21648006.250
 23  2 17  8 30  9.0000000  0 07G08G10G18G23G24G27G32 0.78,2.5,3.80
  21862071.750
  18470802.750
  18538019.750
  23740040.750
  18391877.250
  20892216.750
  19315713.750
 23  2 17  9  0 11.0000000  0 07G10G18G22G23G24G27G32 +0.560,2.0,3.80
  19452419.250
  21018654.750
  21843144.750
  19379563.250
  20301082.750
  22986660.750
  20155523.250
 23  2 17  9 30  6.0000000  0 06G10G22G23G25G28G32 0.78,1.5,3.80
  20474881.750
  22430188.250
  21111780.250
  18595460.750
  23214312.250
  21085200.750
 23  2 17 10  0 11.0000000  0 06G10G22G23G25G28G31 +1.000,1.5,3.80
  21024420.750
  22488363.750
  22392317.750
  24296063.250
  22719558.750
  23475440.750
 23  2 17 10 30 19.0000000  0 06G10G21G22G23G28G31 1.10,1.5,3.80
  20002792.750
  22918896.750
  20858732.750
  22061759.750
  20607221.750
  21131689.750
 23  2 17 11  0 11.0000000  0 04G10G23G25G32 +1.200,1.0,3.80
  21026088.250
  23668444.250
  22370669.750
  20951158.250
 23  2 17 11 30  8.0000000  0 06G01G10G21G23G25G32 1.27,1.0,3.80
  19936704.250
  18811470.250
  20514762.750
  21885437.750
  19265363.250
  18215072.250
 23  2 17 12  0  8.0000000  0 07G01G10G12G21G22G26G32 1.33,0.5,3.80
  23317682.250
  23097495.750
  19048936.750
  18211519.750
  21136026.750
  23265541.750
  21851362.750
 23  2 17 12 30 13.0000000  0 05G01G22G26G28G31 +1.400,0.5,3.80
  18339538.750
  21701794.250
  22654902.250
  21427898.750
  21027159.250
 23  2 17 12 49 53.0000000  0 00 +4.000,1.0,3.80,1,70071,-5052891,3878687,6,3.8
 23  2 17 15  0  6.0000000  0 06G03G07G09G22G27G31 -1.20,7.5,3.80
  19735219.750
  22728508.750
  20863342.250
  20956452.250
  20814557.750
  21335269.250
 23  2 17 15 30 11.0000000  0 07G03G04G08G16G22G26G27 -2.400,9.0,3.80
  22378800.750
  19567085.750
  23078582.750
  19225012.750
  23725219.750
  21026694.250
  21422194.250
 23  2 17 16  0 13.0000000  0 05G04G08G09G26G27 +1.200,12.0,3.80
  19871254.750
  22336127.750
  21132396.250
  22540097.250
  21053866.250
 23  2 17 16 30  5.0000000  0 07G04G07G08G09G16G26G27 1.30,11.5,3.80
  21203866.750
  23644188.250
  22410682.250
  21696976.750
  21861216.750
  18780024.250
  21703019.750
 23  2 17 17  0 19.0000000  0 07G04G07G08G09G16G27G30 +1.400,23.5,3.80
  21211514.250
  22286305.250
  21047582.250
  20912127.750
  22181571.750
  21075987.250
  19261054.250
 23  2 17 17 30  8.0000000  0 07G04G07G08G09G16G27G30 1.30,24.0,3.80
  21600613.250
  21070447.250
  20131498.250
  20605678.250
  22683856.750
  20955679.750
  23741996.250
 23  2 17 18  0 16.0000000  0 07G04G07G08G09G14G21G27 +1.200,22.0,3.80
  22096760.750
  19827994.250
  19499964.750
  20553835.250
  22992367.250
  22442064.250
  21091860.750
 23  2 17 18 30 13.0000000  0 06G04G08G09G14G21G30 +1.200,20.0,3.80
  22954623.750
  19517431.250
  21054493.250
  21742913.750
  21204911.250
  20745549.750
 23  2 17 19  0 11.0000000  0 05G01G07G08G09G30 +1.800,19.5,3.80
  20656773.250
  23731997.250
  19139275.250
  21028094.250
  18808875.250
 23  2 17 19 30 11.0000000  0 04G01G07G14G21 +1.800,21.0,3.80
  21384599.750
  19679193.750
  20977852.250
  21026770.250
 23  2 17 20  0 11.0000000  0 05G07G13G17G21G30 +1.800,26.0,3.80
  21492233.250
  23760663.750
  22192737.250
  22488190.250
  21026434.750
 23  2 17 20 30 13.0000000  0 07G01G07G14G17G19G21G30 +1.800,31.5,3.80
  21016183.250
  21803538.250
  20784018.250
  21061560.750
  23568609.250
  22508008.250
  20596668.250
 23  2 17 21  0 11.0000000  0 06G01G07G13G14G17G30 +1.800,26.5,3.80
  19233670.250
  21026569.250
  21696965.750
  18651283.750
  18843871.750
  19204667.750
 23  2 17 21 30 15.0000000  0 06G01G03G06G14G19G30 +1.200,22.5,3.80
  19315745.750
  22234398.250
  21083728.750
  18128074.250
  19449455.750
  19570349.750
 23  2 17 22  0 11.0000000  0 05G03G06G17G19G30 +1.800,20.0,3.80
  22664103.250
  21024601.750
  19499463.250
  19969337.750
  21782604.750
 23  2 17 22 30 25.0000000  0 05G03G11G14G17G30 +2.000,18.0,3.80
  23773265.750
  25036886.750
  21414273.250
  21284895.750
  18561865.750
 23  2 17 23  0  8.0000000  0 06G03G06G11G14G19G24 2.00,15.5,3.80
  18749026.250
  21929709.750
  18876352.750
  23145084.250
  21887959.750
  18615791.750
 23  2 17 23 30 11.0000000  0 06G06G11G14G17G19G24 +2.000,13.0,3.80
  18515458.750
  20739527.250
  21028143.250
  20055124.750
  18766518.750
  21615551.250
 23  2 18  0  0 11.0000000  0 06G03G06G11G17G19G24 2.00,10.5,3.80
  23061429.250
  18848084.750
  20226857.250
  20923266.750
  19224911.750
  22374088.250
 23  2 18  0 30 10.0000000  0 07G06G11G12G17G19G20G24 2.00,8.0,3.80
  21986914.750
  22475812.750
  23623205.250
  18387257.250
  22365771.250
  18339610.250
  19909816.250
 23  2 18  1  0 11.0000000  0 06G06G11G12G17G20G24 +2.000,6.0,3.80
  20634666.250
  20267910.250
  21025531.750
  23214522.250
  21405678.250
  18872245.250
 23  2 18  1 30  8.0000000  0 06G02G05G06G19G20G25 1.93,4.0,3.80
  22807234.250
  20755604.250
  19286642.250
  19594777.250
  18561857.750
  19984538.750
 23  2 18  2  0  8.0000000  0 07G02G05G09G11G12G20G25 1.87,2.5,3.80
  21447861.250
  19023081.750
  21438679.750
  23724712.250
  18127638.750
  23480092.250
  18899193.250
 23  2 18  2 30  7.0000000  0 07G02G05G06G11G12G19G20 1.80,1.5,3.80
  19175616.250
  22525787.250
  18753511.750
  22472512.750
  23026043.750
  19306746.250
  21747350.250
 23  2 18  3  0  5.0000000  0 06G05G06G11G12G25G29 1.73,0.5,3.80
  19421539.250
  23108171.750
  20436079.750
  21348403.750
  21003750.750
  21488272.750
 23  2 18  3 30  8.0000000  0 07G02G05G11G13G15G20G25 1.67,0.0,3.80
  18242677.250
  21916672.250
  23765276.750
  19009856.250
  19843618.750
  22631744.250
  18401011.250
 23  2 18  4  0 15.0000000  0 05G11G13G15G20G25 +1.600,-0.5,3.80
  22227422.750
  21751183.250
  22324182.250
  21087920.750
  23069061.250
 23  2 18  4 30 10.0000000  0 06G05G11G15G18G20G29 2.00,-1.5,3.80
  19620368.750
  22451434.750
  20618042.250
  22438171.250
  21351605.250
  19558082.750
 23  2 18  5  0 11.0000000  0 04G02G11G18G23 +2.400,-2.0,3.80
  19698884.250
  22796242.250
  21025304.250
  22084100.250
 23  2 18  5 30 23.0000000  0 06G05G11G13G20G23G29 +2.200,-3.0,3.80
  22191403.250
  19482109.750
  21168659.750
  18380360.250
  22947027.750
  21243628.750
 23  2 18  6  0  6.0000000  0 07G02G05G13G15G18G23G29 4.31,-3.5,3.80
  20091883.750
  21881477.750
  20426900.250
  19070405.250
  20045017.750
  21082084.750
  20886340.250
 23  2 18  6  9 46.0000000  0 00 +5.000,-3.5,3.80,1,70082,-5052873,3878682,6,1.4
 23  2 18  6 30 11.0000000  0 05G02G10G23G24G29 -2.400,-3.5,3.80
  18382942.750
  21025761.750
  18548320.750
  20340959.250
  20006990.750
 23  2 18  7  0  9.0000000  0 08G02G05G10G13G15G18G23G24 -1.52,-4.0,3.80
  18629041.750
  21505194.250
  19984003.750
  20044093.250
  23779516.750
  23030999.250
  23840019.250
  19086787.750
 23  2 18  7 30  5.0000000  0 06G02G10G18G23G24G32 -0.64,-3.5,3.80
  18310746.750
  18186234.750
  22016699.250
  22456218.250
  23270580.750
  19552398.250
 23  2 18  8  0  5.0000000  0 06G02G10G18G23G24G32 0.24,-4.5,3.80
  23832756.750
  22071164.750
  20986856.750
  20843416.250
  21452646.750
  23114421.750
 23  2 18  8 30  6.0000000  0 06G10G18G23G24G27G32 1.12,-5.0,3.80
  19641999.250
  19902857.750
  18998808.250
  19671474.750
  22205580.250
  20464195.750
 23  2 18  9  0 11.0000000  0 06G10G18G22G24G27G32 +2.000,-5.0,3.80
  19250070.250
  21028262.250
  21578743.750
  20247297.750
  22942755.750
  19940077.750
 23  2 18  9 30 11.0000000  0 06G10G22G25G28G31G32 +1.520,-5.0,3.80
  18422646.750
  20311490.250
  22432383.250
  21017991.750
  21927520.750
  19021116.750
 23  2 18 10  0 19.0000000  0 06G10G21G23G25G28G31 +1.600,-4.5,3.80
  21163547.750
  18617596.750
  22633065.250
  18310169.250
  22704760.250
  23432474.750
 23  2 18 10 30 11.0000000  0 05G10G25G28G31G32 +2.200,-5.0,3.80
  20781299.250
  22964137.750
  21238702.750
  21730264.750
  21027635.250
 23  2 18 11  0  9.0000000  0 07G10G21G22G23G25G28G32 2.25,-5.0,3.80
  18903465.750
  21126467.750
  18873178.750
  21615532.250
  20119995.750
  18275928.250
  18767690.250
 23  2 18 11 30  7.0000000  0 07G01G10G21G22G25G28G31 2.30,-5.0,3.80
  20323717.250
  19331352.750
  20954027.250
  18328762.750
  19673284.750
  23653932.250
  23619004.250
 23  2 18 12  0  7.0000000  0 06G01G10G21G22G28G31 2.35,-5.5,3.80
  23934774.250
  23823653.750
  18858494.250
  21705199.750
  21175616.750
  20918583.250
 23  2 18 12 30 11.0000000  0 07G01G10G21G22G26G31G32 +2.400,-5.5,3.80
  22479213.750
  23070036.250
  23510880.250
  19771019.750
  20568165.250
  19125726.750
  21026502.750
 23  2 18 13  0  8.0000000  0 07G01G03G16G21G28G31G32 2.50,-5.0,3.80
  18945138.750
  22418956.250
  18300120.750
  19911687.250
  21784824.250
  21269254.250
  23374549.250
 23  2 18 13 30 10.0000000  0 05G16G22G26G29G31 +2.600,-5.0,3.80
  21026989.250
  20034773.750
  18903869.750
  23762594.250
  19994658.750
 23  2 18 14  0 27.0000000  0 06G03G04G22G26G28G31 +2.000,0.0,3.80
  22233547.750
  23319025.250
  22875198.750
  21087628.250
  23665695.250
  23108983.250
 23  2 18 14 30 22.0000000  0 02G28G29 1.90,4.5,3.80
  21116046.250
  22729448.750
 23  2 18 15  0 40.0000000  0 04G16G26G28G31 +1.800,8.5,3.80
  25902783.750
  18563096.250
  21970220.750
  21459081.750
 23  2 18 15 30 18.0000000  0 07G03G04G07G09G16G26G27 +2.800,10.5,3.80
  22375499.250
  19369746.250
  23348854.750
  21225697.750
  19102501.750
  21018112.750
  21132914.250
 23  2 18 16  0  9.0000000  0 08G03G04G07G08G09G16G26G27 2.80,13.5,3.80
  23194296.750
  18961129.250
  22267428.250
  21272081.250
  20117802.250
  19218176.750
  21771579.750
  20054646.750
 23  2 18 16 30 11.0000000  0 05G04G08G09G16G27 +2.800,15.0,3.80
  20005138.750
  21026845.250
  20383025.750
  20718361.250
  20412148.250
 23  2 18 17  0 17.0000000  0 04G04G08G09G27 +2.400,17.5,3.80
  21340024.750
  20992493.750
  20941503.250
  21128930.250
 23  2 18 17 30 11.0000000  0 04G04G07G08G16 +2.800,20.0,3.80
  21026675.250
  20262223.750
  19389882.750
  22119056.750
 23  2 18 18  0 11.0000000  0 05G04G08G09G21G27 +2.800,21.5,3.80
  23752111.250
  21025957.250
  22151442.750
  23810551.750
  22712459.750
 23  2 18 18 30 20.0000000  0 05G04G08G09G14G21 +2.400,22.5,3.80
  23208215.250
  19680097.750
  21274901.250
  21704273.750
  21178118.250
 23  2 18 19  0  6.0000000  0 07G01G07G08G09G14G21G30 2.30,22.5,3.80
  21720457.250
  18955003.250
  20475143.250
  22399235.750
  20979636.750
  20650035.250
  19929651.250
 23  2 18 19 30 16.0000000  0 02G01G21 +2.200,24.5,3.80
  21102306.250
  20869554.250
 23  2 18 20  0 11.0000000  0 07G01G07G08G13G14G17G21 +2.800,25.0,3.80
  21199596.750
  20952323.250
  23821577.750
  23094416.750
  21024195.250
  21456814.750
  21901935.250
 23  2 18 20 30 13.0000000  0 00 2.86,21.5,3.80
 23  2 18 21  0 13.0000000  0 00 2.91,22.0,3.80
