     2.00           OBSERVATION DATA    G(GPS)              RINEX VERSION / TYPE
goGPS-java                              17-Apr-24 14:02:40  PGM / RUN BY / DATE
                                                            MARKER NAME
                                                            MARKER NUMBER
                    Lotek Wireless Inc.                     OBSERVER / AGENCY
7                                                           REC # / TYPE / VERS
                                                            ANT # / TYPE
    73993.0000 -5057250.0000  3872763.0000                  APPROX POSITION XYZ
        0.0000        0.0000        0.0000                  ANTENNA: DELTA H / E / N
     2     0                                                WAVELENGTH FACT L1/2
     1    C1                                                # / TYPES OF OBSERV
  2023     2    21     2    25   32.0000000     UTC         TIME OF FIRST OBS
                                                            END OF HEADER
 23  2 21  2 30 13.0000000  0 00 0.29,23.5,3.80
 23  2 21  3  0 13.0000000  0 00 2.12,23.5,3.80
 23  2 21  3 30  7.0000000  0 07G02G05G11G12G13G15G20 3.95,21.5,3.80
  22645058.250
  20534591.250
  22652569.250
  18257868.250
  23185696.750
  23925813.250
  21502417.750
 23  2 21  4  0 21.0000000  0 04G02G20G25G29 +5.800,17.0,3.80
  22175884.250
  22243691.750
  24325726.250
  21104994.250
 23  2 21  4 30 11.0000000  0 07G02G11G13G15G18G20G29 +0.960,17.0,3.80
  19720659.250
  22109478.250
  19508977.750
  19534764.250
  21397644.250
  21018499.250
  18847803.750
 23  2 21  5  0 10.0000000  0 07G02G05G13G15G18G20G29 0.98,17.0,3.80
  20588056.750
  20986151.250
  20381221.250
  19901161.250
  21665975.750
  23068065.250
  20197782.250
 23  2 21  5 30 20.0000000  0 04G02G13G18G29 +1.000,17.0,3.80
  20787602.250
  20858603.750
  21177991.250
  21114499.250
 23  2 21  6  0  9.0000000  0 06G02G13G15G18G23G29 1.20,17.0,3.80
  23758942.750
  18304988.750
  22734314.250
  23401307.750
  18431005.750
  18914220.250
 23  2 21  6 30 11.0000000  0 04G02G10G13G23 +1.400,16.5,3.80
  18879727.250
  21024560.250
  19975226.750
  18670793.750
 23  2 21  7  0 11.0000000  0 06G10G13G15G18G23G27 +1.400,16.5,3.80
  21024337.750
  21855924.750
  19462808.250
  18359493.250
  19039546.250
  21701706.250
 23  2 21  7 30 11.0000000  0 05G10G15G18G27G32 +1.400,16.5,3.80
  19856622.250
  19978141.750
  18100014.750
  21024438.750
  21088234.750
 23  2 21  8  0  9.0000000  0 07G10G15G18G23G24G27G32 1.50,16.5,3.80
  18313500.250
  20171607.750
  23749906.250
  23307889.250
  23911759.750
  20285956.250
  19263448.250
 23  2 21  8 30 11.0000000  0 04G10G22G23G24 +1.600,16.5,3.80
  21027088.250
  23607016.250
  20646299.750
  21419006.250
 23  2 21  9  0 11.0000000  0 04G10G18G22G32 +1.600,16.5,3.80
  21026900.250
  23442728.750
  23177785.250
  21685837.750
 23  2 21  9 30 11.0000000  0 04G10G22G28G32 +1.600,16.5,3.80
  21026749.750
  22720382.250
  23199754.750
  21588116.750
 23  2 21 10  0 11.0000000  0 07G10G12G21G23G28G31G32 +1.120,16.5,3.80
  19272965.250
  22718354.250
  22472027.750
  21028840.250
  20376318.250
  21017853.250
  19673262.250
 23  2 21 10 30 22.0000000  0 02G22G32 +1.000,17.0,3.80
  21123381.750
  20776756.750
 23  2 21 11  0 16.0000000  0 05G12G21G22G28G31 +1.000,16.5,3.80
  21559979.750
  21106403.750
  18716235.250
  18063103.750
  18180965.750
 23  2 21 11 30 11.0000000  0 06G01G10G21G22G28G32 +1.600,16.5,3.80
  21025945.750
  20415058.750
  21798278.750
  18964852.250
  18330222.750
  19469741.750
 23  2 21 12  0  8.0000000  0 06G01G21G22G25G31G32 1.30,16.5,3.80
  20146490.250
  21136774.250
  23735655.750
  19728654.750
  22985694.750
  18705520.250
 23  2 21 12 30 28.0000000  0 07G03G21G22G25G26G31G32 +1.000,17.0,3.80
  22698681.250
  25329980.250
  21343509.250
  24097739.750
  21680929.750
  20805149.750
  22795805.250
 23  2 21 13  0 22.0000000  0 05G03G16G22G28G31 +1.600,16.5,3.80
  21221661.250
  22763205.250
  20799464.750
  21109554.750
  20570008.750
 23  2 21 13 30 19.0000000  0 02G26G29 +1.200,16.5,3.80
  21162142.250
  20020249.250
 23  2 21 14  0 12.0000000  0 06G03G04G16G26G29G31 +1.600,16.5,3.80
  20422890.750
  21041552.250
  19916180.750
  19253585.750
  24056104.250
  21547223.250
 23  2 21 14 30 14.0000000  0 07G03G04G16G22G26G27G28 +1.600,14.0,3.80
  21079847.750
  20366531.750
  19412809.250
  22223387.250
  19848071.250
  23029002.750
  23135724.750
 23  2 21 15  0 11.0000000  0 05G07G16G26G27G31 +1.800,15.5,3.80
  25802708.250
  21027331.750
  22449561.250
  23726383.750
  19390181.250
 23  2 21 15 30 13.0000000  0 05G04G08G26G27G31 +1.400,18.0,3.80
  21055905.750
  24026999.750
  23213390.750
  22549966.750
  26130982.250
 23  2 21 16  0  6.0000000  0 07G03G04G07G08G09G16G27 1.60,20.0,3.80
  21507301.750
  22874833.250
  19806411.250
  18680134.250
  23726898.250
  23344797.250
  23683913.750
 23  2 21 16 30 11.0000000  0 05G04G07G08G09G16 +1.800,21.0,3.80
  20962327.250
  22700602.750
  21427880.250
  21026506.250
  21837441.250
 23  2 21 17  0 11.0000000  0 04G07G09G27G30 +1.800,21.5,3.80
  21944163.750
  21026559.750
  21289078.750
  24767051.750
 23  2 21 17 30 21.0000000  0 04G08G09G21G27 +1.400,22.0,3.80
  19946841.750
  20750090.250
  23371492.250
  21205554.750
 23  2 21 18  0 22.0000000  0 02G04G14 1.40,24.0,3.80
  18319106.250
  18057380.750
 23  2 21 18 30 13.0000000  0 04G07G08G14G27 +1.400,26.0,3.80
  18632359.250
  19623804.750
  21053589.750
  22130800.250
 23  2 21 19  0  5.0000000  0 07G01G08G09G14G17G21G30 1.53,28.5,3.80
  20662289.750
  20244650.750
  22269385.250
  20088952.250
  21049571.750
  19907468.750
  19055315.250
 23  2 21 19 30  6.0000000  0 06G01G07G08G13G14G30 1.67,29.5,3.80
  21521448.750
  20522463.750
  23081415.250
  23199523.750
  21262718.750
  20406259.250
 23  2 21 20  0 11.0000000  0 06G07G14G17G19G21G30 +1.800,28.5,3.80
  21468688.250
  21024836.750
  21384715.750
  18134599.750
  22280721.250
  20577000.250
 23  2 21 20 30 10.0000000  0 07G01G07G13G14G19G21G30 1.87,28.0,3.80
  18634336.750
  20019198.250
  20998701.250
  18246541.750
  20642023.250
  20569050.750
  18446677.750
 23  2 21 21  0  5.0000000  0 07G01G06G14G17G19G21G30 1.93,27.0,3.80
  20974402.750
  23636940.250
  20088987.250
  20262910.250
  21755869.250
  23560358.250
  21123287.750
 23  2 21 21 30 11.0000000  0 06G01G03G06G14G17G30 +2.000,25.5,3.80
  22496261.250
  24545154.250
  23136256.750
  20914011.250
  21027870.750
  22868444.250
 23  2 21 22  0 10.0000000  0 04G03G06G17G30 +2.000,23.5,3.80
  22956191.750
  21027442.750
  20184397.250
  23023990.250
 23  2 21 22 30  8.0000000  0 07G01G03G06G14G17G19G24 2.00,21.5,3.80
  22955984.750
  21879194.750
  19353786.250
  19952722.750
  19650305.750
  19124138.250
  21860365.250
 23  2 21 23  0 10.0000000  0 04G03G11G17G19 +2.000,19.5,3.80
  24068706.750
  23467001.250
  22096234.250
  21027315.250
 23  2 21 23 30 10.0000000  0 06G06G11G12G17G19G24 +1.520,18.0,3.80
  21018391.750
  22799146.750
  18476976.750
  22876704.750
  21358967.750
  18355662.250
 23  2 22  0  0 11.0000000  0 05G06G11G12G19G24 +2.000,17.0,3.80
  21026550.250
  21922111.250
  23241179.250
  21418111.750
  24772098.750
 23  2 22  0 30 11.0000000  0 06G06G11G12G17G19G20 +2.000,16.0,3.80
  19532944.250
  19544871.750
  20463505.750
  22032303.250
  19889162.750
  21026121.250
 23  2 22  1  0  9.0000000  0 06G05G06G11G12G19G20 1.78,15.0,3.80
  20960743.250
  18602268.750
  23798398.250
  18382034.250
  18915684.250
  18539708.250
 23  2 22  1 30 11.0000000  0 07G06G11G12G17G19G20G25 +1.560,14.5,3.80
  22114231.250
  20614597.250
  21018276.750
  18880256.750
  22447653.750
  20649723.250
  22063901.750
 23  2 22  2  0  7.0000000  0 07G05G06G09G11G12G20G29 1.65,13.5,3.80
  18229661.250
  19703313.750
  21215696.250
  23629827.750
  18088490.750
  23101377.250
  20806921.750
 23  2 22  2 30  9.0000000  0 06G02G05G11G12G20G29 1.74,13.5,3.80
  22811732.250
  20139128.250
  20700535.250
  21431941.750
  19793196.250
  22415055.750
 23  2 22  3  0  5.0000000  0 07G02G05G11G13G20G25G29 1.83,13.0,3.80
  22595217.250
  20097081.250
  21597548.750
  23634492.250
  20497206.250
  22173295.250
  21824699.250
 23  2 22  3 30  5.0000000  0 08G02G05G11G12G13G20G25G29 1.93,13.0,3.80
  20296852.750
  18264025.250
  20459554.750
  22127780.250
  20765253.750
  19307707.250
  21190370.250
  19272692.250
 23  2 22  4  0  5.0000000  0 07G02G05G11G13G15G20G29 2.02,13.0,3.80
  22271458.750
  20958217.750
  23625602.750
  22283200.750
  22670149.750
  22499492.750
  21207817.750
 23  2 22  4 30  5.0000000  0 08G02G05G13G15G18G20G23G29 2.11,13.5,3.80
  22294163.750
  21872065.750
  22070278.750
  22028558.750
  23893137.250
  23759328.750
  18977461.250
  21467158.750
 23  2 22  5  0 11.0000000  0 04G02G18G23G29 +2.200,13.5,3.80
  21027129.250
  22013168.250
  23044978.750
  20720357.250
 23  2 22  5 30  9.0000000  0 06G05G10G13G15G18G23 2.16,13.5,3.80
  18549622.750
  21277759.750
  23237041.250
  22126853.250
  23402902.250
  18436953.750
 23  2 22  6  0  7.0000000  0 08G02G05G10G13G15G18G23G24 2.11,13.5,3.80
  23823455.250
  20015482.250
  20987034.250
  18446407.750
  22804566.250
  23358724.750
  18376529.750
  20431693.750
 23  2 22  6 30 10.0000000  0 06G10G13G15G18G23G24 2.07,14.0,3.80
  18735097.250
  23943013.750
  21852964.250
  21521212.250
  22425567.250
  23918054.250
 23  2 22  7  0  9.0000000  0 08G02G10G13G15G18G23G27G32 2.02,14.0,3.80
  20174650.750
  20740815.250
  21844805.750
  19410187.250
  18187109.250
  18815577.750
  21466217.250
  22290759.750
 23  2 22  7 30  5.0000000  0 07G02G10G15G23G24G27G32 1.98,14.0,3.80
  21716920.250
  20711706.250
  21073632.250
  19246509.750
  19922074.250
  21967700.750
  21898466.250
 23  2 22  8  0 10.0000000  0 07G08G10G15G22G23G27G32 1.93,14.5,3.80
  18235215.750
  20985680.250
  23089851.250
  23935394.250
  20068768.250
  23085512.250
  21902331.750
 23  2 22  8 30  8.0000000  0 06G08G10G22G24G27G32 1.89,15.0,3.80
  23330529.750
  19556779.250
  22068700.250
  20085412.750
  22723113.750
  20303710.750
 23  2 22  9  0 11.0000000  0 06G10G12G22G24G28G32 +1.840,15.0,3.80
  21018191.750
  19552653.250
  23099059.250
  22640823.750
  24057769.750
  21661158.750
 23  2 22  9 30  6.0000000  0 06G10G21G23G25G31G32 2.50,15.5,3.80
  20844997.250
  18576442.250
  21986027.750
  18414647.750
  23694932.750
  21387057.750
 23  2 22 10  0  6.0000000  0 06G10G22G23G28G31G32 3.17,16.0,3.80
  18292520.750
  19350177.750
  20142943.750
  19242384.750
  19852503.750
  18660529.750
 23  2 22 10 30  8.0000000  0 07G01G10G21G22G23G28G32 3.84,16.5,3.80
  22635815.250
  20107699.750
  22601295.750
  20453442.750
  22584876.750
  19965522.250
  20165401.250
 23  2 22 10 37 28.0000000  0 00 +4.000,17.5,3.80,1,66968,-5051692,3880233,4,2.6
 23  2 22 14  0 13.0000000  0 00 -1.75,18.5,3.80
 23  2 22 14 30 16.0000000  0 06G03G04G22G27G28G31 -2.600,19.0,3.80
  21926190.250
  21024187.250
  23100781.250
  23616842.250
  24011473.750
  23484971.750
 23  2 22 15  0 21.0000000  0 01G04 +1.200,19.5,3.80
  21092498.250
 23  2 22 15 30 13.0000000  0 06G03G04G09G16G26G27 +1.000,20.0,3.80
  21036665.750
  25719091.750
  18822173.250
  23353783.250
  19650421.750
  18731172.250
 23  2 22 16  0 11.0000000  0 05G04G08G09G16G27 +1.400,20.0,3.80
  20485429.250
  22107768.250
  21229842.750
  21025010.750
  21199836.250
 23  2 22 16 30 17.0000000  0 05G04G07G09G16G27 +0.800,20.5,3.80
  19594321.250
  21137782.250
  19550262.750
  20516055.750
  19656460.250
 23  2 22 17  0 22.0000000  0 02G09G27 1.07,21.5,3.80
  19659977.750
  19951057.250
 23  2 22 17 30 22.0000000  0 01G08 1.33,24.0,3.80
  21576653.750
 23  2 22 18  0 11.0000000  0 07G07G08G09G16G21G27G30 +1.600,23.5,3.80
  19409653.250
  19634714.250
  21028038.750
  23756225.250
  21741639.250
  21678488.250
  21316830.750
 23  2 22 18 30  5.0000000  0 07G01G07G08G09G14G21G30 1.60,24.5,3.80
  18338321.250
  21056354.750
  22171136.750
  23960231.750
  23387536.750
  22946884.250
  22343785.750
 23  2 22 19  0 11.0000000  0 04G01G07G08G30 +1.600,27.0,3.80
  22572540.250
  20471198.250
  22442687.250
  21026554.250
 23  2 22 19 30 11.0000000  0 06G01G07G08G13G19G30 +1.600,25.5,3.80
  21847565.750
  21027036.250
  23669537.250
  23569037.750
  19305358.750
  20796463.250
 23  2 22 20  0  9.0000000  0 06G01G07G13G19G21G30 1.60,24.5,3.80
  22685992.250
  23115671.750
  18776202.250
  19501332.250
  23892601.250
  22120637.250
 23  2 22 20 30  5.0000000  0 06G01G07G17G19G21G30 1.60,24.5,3.80
  18925739.250
  20439335.250
  18699654.250
  20771050.750
  20962536.750
  18782326.750
 23  2 22 21  0  7.0000000  0 06G07G14G17G19G21G30 1.60,24.0,3.80
  22250164.750
  18939756.250
  19103807.250
  20494092.250
  22573451.250
  20094741.750
 23  2 22 21 30 11.0000000  0 05G01G06G17G19G30 +1.600,22.0,3.80
  20688442.750
  21025178.750
  19097790.250
  19781492.250
  21073515.250
 23  2 22 22  0 11.0000000  0 04G01G14G17G19 +1.600,20.5,3.80
  23518902.250
  21082276.750
  21025739.750
  21031855.750
 23  2 22 22 30 11.0000000  0 07G03G06G11G14G17G19G24 +1.600,19.0,3.80
  22847019.750
  20232687.250
  23379732.750
  21025504.250
  23669239.750
  20064340.750
  22792875.250
 23  2 22 23  0  8.0000000  0 06G03G06G11G14G17G19 1.60,18.0,3.80
  18384203.750
  21105566.250
  23589156.250
  23226868.250
  22417973.750
  21283986.750
 23  2 22 23 30 12.0000000  0 05G03G06G11G19G20 +1.600,17.5,3.80
  18652104.250
  20668964.250
  22332873.750
  21024585.250
  24940211.250
 23  2 23  0  0  8.0000000  0 06G06G11G12G17G19G20 1.86,16.5,3.80
  18508262.250
  19284200.750
  20547838.250
  20812195.250
  18898757.250
  21360306.750
 23  2 23  0 30 12.0000000  0 05G06G11G17G19G20 2.13,16.0,3.80
  19738534.250
  19634023.250
  22257952.750
  20087993.750
  21016027.250
 23  2 23  1  0  6.0000000  0 07G05G09G11G12G17G20G25 2.39,15.5,3.80
  18408678.250
  19627855.250
  21416681.250
  21960023.250
  18975479.250
  22055361.250
  23490357.250
 23  2 23  1 30  8.0000000  0 08G02G05G06G09G11G12G20G25 2.65,15.0,3.80
  22810424.250
  20482225.250
  20370319.250
  22595770.250
  18784909.250
  19181240.750
  18734989.750
  20150067.250
 23  2 23  2  0  6.0000000  0 06G05G06G12G19G20G29 2.92,14.0,3.80
  18237310.750
  19949294.750
  18290085.750
  20435956.750
  23214965.250
  20787428.750
 23  2 23  2 30  6.0000000  0 06G05G11G12G20G25G29 3.18,13.5,3.80
  20348039.750
  21050739.250
  21834704.750
  20106959.750
  21644571.250
  22560926.250
 23  2 23  3  0  6.0000000  0 08G02G05G06G12G13G20G25G29 3.45,13.5,3.80
  22973170.750
  20520890.750
  19034522.250
  23369451.750
  23931753.250
  21015738.750
  22718654.750
  22155050.250
 23  2 23  3 30  6.0000000  0 07G02G05G11G13G20G25G29 3.71,12.5,3.80
  22823294.750
  20875363.250
  23146230.750
  23219331.250
  21994027.750
  23907299.750
  21776650.750
 23  2 23  4  0  6.0000000  0 06G02G13G15G18G20G29 3.97,12.5,3.80
  22590849.250
  22555064.250
  22889606.250
  18655523.250
  22986449.250
  21540977.250
 23  2 23  4 30  9.0000000  0 07G02G05G13G15G18G20G29 4.24,12.0,3.80
  22379198.250
  22089582.250
  22143901.750
  22035163.750
  23900073.250
  18013589.250
  21607596.250
 23  2 23  5  0  6.0000000  0 06G05G13G15G20G23G29 4.50,12.0,3.80
  20673423.750
  19857084.750
  19225701.750
  22791168.250
  21937830.250
  19792831.250
 23  2 23  5 30 10.0000000  0 06G02G10G13G15G18G29 4.76,11.5,3.80
  22033930.250
  20074865.750
  22220179.250
  21035046.250
  22227833.750
  22576025.250
 23  2 23  5 57  0.0000000  0 00 +5.000,12.0,3.80,1,66976,-5051723,3880241,4,0.8
 23  2 23  7  0  5.0000000  0 07G02G15G18G23G24G27G32 2.25,11.5,3.80
  20341955.250
  19596893.750
  18265040.750
  18841404.750
  19780261.250
  21487588.750
  22210924.750
 23  2 23  7 30  5.0000000  0 07G02G10G15G18G24G27G32 0.93,11.0,3.80
  20919654.750
  19694727.750
  20288020.250
  18233813.750
  18949221.250
  21045937.750
  20841042.750
 23  2 23  8  0  5.0000000  0 07G02G10G15G18G22G24G32 -0.38,11.0,3.80
  23644068.250
  20722045.750
  23050283.750
  20527461.250
  23609630.750
  20510372.750
  21612526.750
 23  2 23  8 30  9.0000000  0 06G08G10G18G22G23G27 -1.69,11.0,3.80
  23601309.250
  19740764.750
  21020928.250
  22191859.750
  19544220.250
  23060128.250
 23  2 23  9  0 11.0000000  0 06G08G18G22G23G31G32 -3.000,10.5,3.80
  22786448.250
  21026174.750
  20216377.250
  18707169.250
  22064661.250
  18829201.250
 23  2 23  9 30 10.0000000  0 07G21G22G23G24G25G28G32 -2.38,11.0,3.80
  21694627.250
  19598263.750
  19295718.250
  21043715.250
  21497670.250
  19930737.750
  18578160.250
 23  2 23 10  0  5.0000000  0 07G10G12G21G23G28G31G32 -1.76,11.0,3.80
  21378497.250
  18680289.250
  18407444.750
  23320934.750
  22179626.250
  22757962.250
  21714089.750
 23  2 23 10 30  5.0000000  0 07G10G12G22G23G28G31G32 -1.14,11.0,3.80
  21206790.750
  23975036.750
  21442500.750
  23759716.750
  20918386.250
  21234571.250
  21210793.250
 23  2 23 11  0  6.0000000  0 06G01G21G22G28G31G32 -0.52,11.0,3.80
  22660080.250
  23166094.250
  20678244.250
  20007841.250
  20055468.750
  20866371.750
 23  2 23 11 30  8.0000000  0 07G10G22G25G26G28G31G32 0.10,11.5,3.80
  21886137.750
  20131334.250
  21712342.250
  22470406.250
  19536946.250
  19344912.250
  20761710.250
 23  2 23 12  0 11.0000000  0 06G03G21G22G26G31G32 +0.720,11.5,3.80
  23150112.250
  18571647.250
  21018389.250
  22173468.250
  20307040.250
  22114994.750
 23  2 23 12 30 11.0000000  0 07G01G03G22G26G28G31G32 +1.200,12.5,3.80
  18083670.750
  22058801.250
  20973166.250
  21025524.750
  21002473.750
  20508011.250
  22551696.250
 23  2 23 13  0 19.0000000  0 07G03G04G16G22G26G31G32 +1.000,14.0,3.80
  22149664.250
  18368184.750
  23434261.750
  21947546.750
  21057775.250
  21807995.250
  18006015.750
 23  2 23 13 30 17.0000000  0 06G04G22G26G28G31G32 1.00,15.0,3.80
  21839191.750
  20891189.250
  19282295.250
  21607501.750
  21043809.750
  23390474.250
 23  2 23 14  0 20.0000000  0 07G03G04G16G22G26G28G31 +1.000,18.0,3.80
  20774418.750
  21056884.750
  19937176.750
  21711128.750
  19594309.750
  22599000.750
  22050298.750
 23  2 23 14 30 29.0000000  0 08G03G04G16G22G26G27G28G31 0.90,21.0,3.80
  22238082.250
  21126145.250
  20256076.250
  23444444.250
  20990596.750
  23647974.250
  18349901.250
  23821991.250
 23  2 23 15  0 11.0000000  0 07G03G04G08G09G16G26G27 +0.800,18.5,3.80
  21602385.750
  19050955.250
  22716056.750
  21103140.750
  18618170.250
  20278090.250
  21017680.250
 23  2 23 15 30 33.0000000  0 02G04G26 +0.600,17.5,3.80
  18804543.750
  21295205.750
 23  2 23 16  0 21.0000000  0 02G04G16 +1.400,20.0,3.80
  20457211.750
  21065078.750
 23  2 23 16 30 11.0000000  0 04G07G09G16G27 +0.800,21.0,3.80
  22403962.750
  20903929.250
  22017223.750
  21035072.750
 23  2 23 17  0 12.0000000  0 05G07G09G16G27G30 +1.400,24.0,3.80
  21026955.750
  20376286.250
  22369579.750
  20696995.250
  23762515.250
 23  2 23 17 30  5.0000000  0 08G04G07G08G09G14G16G21G27 1.23,22.5,3.80
  20832238.250
  18891237.750
  18437058.250
  19386128.750
  22126678.750
  21915227.250
  21589225.250
  19893623.250
 23  2 23 18  0  9.0000000  0 06G08G09G14G21G27G30 1.05,27.5,3.80
  23264316.750
  18723090.750
  19739777.750
  19198865.250
  19393544.250
  18755827.250
 23  2 23 18 30 11.0000000  0 06G01G08G09G17G21G27 +0.880,34.0,3.80
  21070474.750
  19185514.250
  21018524.250
  21460302.750
  19774371.750
  21813887.750
 23  2 23 19  0 11.0000000  0 04G01G17G21G30 +1.400,37.5,3.80
  20649555.250
  21026000.250
  20129806.750
  19168608.250
 23  2 23 19 30  8.0000000  0 06G01G07G13G14G19G21 1.40,39.0,3.80
  23137453.250
  22491824.250
  18912773.750
  22921879.250
  20524209.750
  23534517.750
 23  2 23 20  0  9.0000000  0 06G01G07G14G17G19G21 1.40,41.5,3.80
  19696830.250
  20289547.250
  19489080.250
  19802838.250
  22392475.250
  21025996.750
 23  2 23 20 30 10.0000000  0 07G01G07G14G17G19G21G30 1.40,36.5,3.80
  20803819.250
  22445709.250
  20306603.250
  20515695.250
  22492597.250
  22944511.250
  20711830.750
 23  2 23 21  0 11.0000000  0 06G01G03G13G14G19G30 +1.400,27.0,3.80
  20816734.750
  18010360.250
  23380778.750
  19749987.750
  21201053.750
  21025231.750
 23  2 23 21 30 11.0000000  0 05G13G14G19G21G24 +1.400,24.5,3.80
  19340110.750
  21024600.750
  21702718.250
  19873740.750
  24825034.750
 23  2 23 22  0 16.0000000  0 05G11G14G17G19G24 +1.600,20.5,3.80
  19257460.750
  21280463.750
  21199296.750
  21117569.750
  23963310.750
 23  2 23 22 30 21.0000000  0 06G03G06G14G17G19G24 +1.600,19.5,3.80
  23873832.250
  21170272.250
  22153408.750
  21751911.250
  21068326.750
  23798427.750
 23  2 23 23  0 22.0000000  0 07G03G06G11G14G17G19G24 +1.400,19.5,3.80
  22074154.250
  18701219.750
  21075836.750
  20995739.250
  20116757.250
  18919691.750
  21736764.750
 23  2 23 23 30 11.0000000  0 04G11G14G17G20 +1.600,14.0,3.80
  18485381.750
  20398237.250
  18923687.250
  21026321.750
 23  2 24  0  0 31.0000000  0 05G06G12G17G19G24 +1.000,11.0,3.80
  21383760.750
  23236358.750
  23718672.250
  21768659.250
  19244808.750
 23  2 24  0 30 11.0000000  0 04G06G12G17G20 +1.600,13.5,3.80
  21026489.750
  21619793.750
  23564279.250
  22089636.750
 23  2 24  1  0 11.0000000  0 06G05G06G09G12G19G20 +1.600,15.0,3.80
  23296950.250
  21492833.750
  18638184.250
  20997111.750
  21804040.250
  21025353.250
 23  2 24  1 30  8.0000000  0 07G05G06G12G19G20G25G29 1.63,15.0,3.80
  22613809.250
  22766368.750
  21489838.750
  23123872.750
  20963043.750
  22379847.750
  19242866.750
 23  2 24  2  0  7.0000000  0 07G02G05G06G09G12G19G20 1.66,14.5,3.80
  21247672.750
  18616977.250
  20564119.250
  21897370.250
  18866729.750
  21080258.750
  23701937.250
 23  2 24  2 30 10.0000000  0 06G02G06G11G20G25G29 1.69,13.5,3.80
  19226725.250
  20039493.250
  23409328.250
  22431433.750
  17993145.750
  18713216.250
 23  2 24  3  0  9.0000000  0 06G02G11G12G13G25G29 1.71,13.0,3.80
  21136246.750
  20451254.250
  21760144.250
  22013287.750
  21054711.750
  20272888.750
 23  2 24  3 30  8.0000000  0 07G02G12G13G15G18G20G25 1.74,12.0,3.80
  18871999.250
  21159497.750
  19197708.750
  19827293.750
  21337784.250
  18205078.250
  20149144.750
 23  2 24  4  0  5.0000000  0 07G02G05G11G13G20G25G29 1.77,11.0,3.80
  18379401.750
  23294042.250
  20058090.250
  18300799.750
  18941343.250
  21089527.750
  23344636.750
 23  2 24  4 30 11.0000000  0 04G05G13G15G20 +1.800,10.0,3.80
  21027498.750
  20943192.750
  20766068.750
  22977093.750
 23  2 24  5  0  9.0000000  0 07G02G05G11G13G20G23G29 1.80,9.5,3.80
  21574123.750
  22367615.250
  19605407.750
  21453165.250
  18503590.250
  23406241.250
  21452100.750
 23  2 24  5 30 11.0000000  0 04G05G13G18G23 +1.800,9.0,3.80
  21026941.250
  19610099.250
  19454470.750
  20480024.750
 23  2 24  6  0 11.0000000  0 04G02G05G10G29 1.80,8.0,3.80
  21024722.250
  23389686.250
  23876589.250
  22520256.750
 23  2 24  6 30 11.0000000  0 05G15G18G23G24G29 +1.800,7.0,3.80
  17903317.750
  23319053.750
  18168778.750
  19514456.750
  21026122.750
 23  2 24  7  0  5.0000000  0 06G02G10G18G24G27G32 1.87,6.0,3.80
  20151545.250
  20309307.250
  23977933.750
  19384986.250
  21145375.750
  21756070.250
 23  2 24  7 30 13.0000000  0 06G02G10G15G18G23G24 1.93,5.5,3.80
  23726345.250
  22262993.750
  23105882.750
  20967382.750
  20939928.250
  21572020.250
 23  2 24  8  0 10.0000000  0 06G10G15G18G24G27G32 +2.000,4.5,3.80
  21027075.250
  23597874.250
  21031055.750
  20920206.250
  23400809.750
  21890643.750
 23  2 24  8 30 10.0000000  0 07G10G18G22G23G24G27G32 2.00,3.5,3.80
  18402770.250
  19897112.250
  20790564.250
  18301783.250
  19210159.250
  21882854.750
  19119030.750
 23  2 24  9  0  5.0000000  0 06G10G18G22G24G28G32 2.00,3.0,3.80
  18736668.750
  21771355.750
  20692229.250
  20680518.750
  21506548.750
  19356976.250
 23  2 24  9 30 11.0000000  0 05G10G21G25G31G32 +2.000,2.0,3.80
  20519192.750
  24074464.750
  23839862.250
  23023034.750
  21024983.750
 23  2 24 10  0 11.0000000  0 06G10G12G21G22G23G28 +2.000,1.5,3.80
  18086722.250
  21305960.750
  21024234.750
  18961924.750
  20122935.250
  18733187.750
 23  2 24 10 30  5.0000000  0 07G10G12G21G22G23G31G32 2.61,0.5,3.80
  18439714.750
  21142738.750
  20767705.250
  18559757.250
  21067248.250
  18282473.750
  18385814.750
 23  2 24 11  0 11.0000000  0 07G01G10G21G22G25G28G31 3.23,0.0,3.80
  20585038.750
  19422979.750
  21147956.250
  18601398.250
  19903034.250
  23924534.750
  23936644.250
 23  2 24 11 30  8.0000000  0 07G03G10G21G22G25G26G32 3.84,0.0,3.80
  18002794.750
  22809101.750
  23943755.250
  20898247.250
  22541818.750
  23073342.750
  21590670.250
 23  2 24 12  0  7.0000000  0 08G01G03G10G22G25G28G31G32 4.45,0.0,3.80
  21740535.250
  21124824.750
  22219806.250
  19139648.250
  21408145.750
  18849148.250
  18452810.750
  20299326.250
 23  2 24 12 26 59.0000000  0 00 +5.000,0.0,3.80,1,66976,-5051720,3880246,4,1.4
 23  2 24 16 30  9.0000000  0 07G04G07G08G09G16G27G30 -2.12,8.5,3.80
  21155820.250
  22315201.250
  21070481.750
  20910736.750
  22160286.250
  21063148.250
  19308000.750
 23  2 24 17  0 16.0000000  0 04G07G08G14G27 -3.000,14.0,3.80
  22007576.750
  21049557.750
  25531772.750
  21844975.750
 23  2 24 17 30  8.0000000  0 06G07G08G09G14G16G21 -2.73,21.0,3.80
  23727738.750
  23364248.750
  18392027.750
  20917768.750
  20974879.250
  20359688.750
 23  2 24 18  0  5.0000000  0 07G01G07G08G09G14G21G30 -2.47,25.5,3.80
  23586301.750
  19598361.250
  20055308.750
  21563506.750
  22351303.750
  21800466.750
  21356985.750
 23  2 24 18 30 11.0000000  0 04G08G17G27G30 -2.200,29.0,3.80
  19027218.250
  21027104.750
  21711061.750
  18767821.750
 23  2 24 19  0 11.0000000  0 05G01G07G08G14G21 +1.800,26.5,3.80
  21427457.250
  19674655.750
  21849901.750
  21002597.750
  21027297.250
 23  2 24 19 30  6.0000000  0 07G07G13G14G17G19G21G30 1.80,19.5,3.80
  18115970.250
  20407347.750
  18387940.250
  18878551.750
  21891415.750
  19111568.750
  23664703.250
 23  2 24 20  0  5.0000000  0 06G01G14G17G19G21G30 1.80,24.0,3.80
  20453076.750
  20223029.250
  20518728.750
  23028755.250
  21900781.750
  20010542.750
 23  2 24 20 30  5.0000000  0 07G01G13G14G17G19G21G30 1.80,28.0,3.80
  22743218.250
  19193799.250
  22177890.750
  22379461.250
  18269100.250
  18977863.250
  22699341.750
 23  2 24 21  0 14.0000000  0 07G01G03G06G13G14G17G19 +1.800,24.0,3.80
  22242894.750
  19234711.750
  18089167.750
  24806108.750
  21081001.750
  21232021.250
  22422771.250
 23  2 24 21 30 11.0000000  0 04G14G17G19G30 +1.800,17.5,3.80
  20952133.750
  21025891.750
  21518628.750
  23265522.250
 23  2 24 22  0 11.0000000  0 05G01G06G17G19G24 +1.800,13.5,3.80
  23944717.750
  21534094.750
  21192379.750
  21025423.750
  23846245.750
 23  2 24 22 30 11.0000000  0 04G06G11G17G19 +1.800,14.0,3.80
  20319891.250
  23309826.750
  21025410.750
  20269854.750
 23  2 24 23  0 11.0000000  0 04G06G11G17G19 +1.800,14.5,3.80
  20777279.250
  23052030.250
  22281149.250
  21024899.250
 23  2 24 23 30 11.0000000  0 04G06G14G17G19 1.8400,9.5,3.80
  21008654.250
  18618882.250
  23050843.750
  21386262.750
 23  2 25  0  0 10.0000000  0 07G06G11G12G17G19G20G24 1.88,4.5,3.80
  20173002.250
  20705128.750
  21862172.750
  22536569.750
  20554136.750
  22596957.750
  18079652.250
 23  2 25  0 30 10.0000000  0 06G06G11G12G17G19G20 1.92,3.0,3.80
  21674518.750
  21343558.250
  22110171.250
  18223864.750
  22005388.250
  22516946.750
 23  2 25  1  0  6.0000000  0 07G06G09G11G12G17G19G20 1.96,2.0,3.80
  18707243.750
  21688577.250
  23602920.250
  18089817.250
  21375321.750
  19012261.250
  18042275.750
 23  2 25  1 30 11.0000000  0 07G02G05G06G11G12G19G20 +2.000,7.5,3.80
  18396528.750
  21966237.750
  22383974.250
  20630235.250
  21025678.750
  22757133.250
  20415326.250
 23  2 25  2  0 29.0000000  0 06G06G09G11G12G19G29 +2.000,9.5,3.80
  20110145.250
  21356134.250
  23829557.250
  18386362.250
  20662193.750
  20396593.250
 23  2 25  2 30 11.0000000  0 06G02G05G11G20G25G29 +1.600,12.0,3.80
  22109536.750
  19466144.250
  20437160.250
  19431610.750
  21018462.250
  21536329.250
 23  2 25  3  0 14.0000000  0 04G13G15G25G29 +2.000,11.0,3.80
  22774495.250
  23621029.250
  22085551.750
  21077603.750
 23  2 25  3 30  6.0000000  0 07G02G05G12G13G15G20G29 2.10,9.5,3.80
  22275379.250
  20507986.250
  18794041.250
  22529569.250
  23122927.750
  21762561.250
  21197300.750
 23  2 25  4  0 11.0000000  0 06G05G13G15G20G25G29 +2.200,8.5,3.80
  19960921.750
  20799476.750
  21026517.250
  21648174.750
  23835288.250
  19918268.250
 23  2 25  4 30  6.0000000  0 06G13G15G18G20G23G29 2.20,7.5,3.80
  21593394.250
  21353064.250
  23206055.250
  23780353.750
  18258116.250
  21195118.250
 23  2 25  5  0 11.0000000  0 07G02G11G13G15G18G23G29 +2.200,7.0,3.80
  20306319.750
  18483353.250
  20219755.250
  19439988.750
  21025929.250
  22051277.750
  20288743.250
 23  2 25  5 30 22.0000000  0 05G05G10G18G23G29 +2.400,6.5,3.80
  22226641.750
  24228559.750
  20441428.250
  21468628.750
  21236154.750
 23  2 25  6  0 11.0000000  0 04G02G10G18G23 +2.200,6.0,3.80
  21025549.750
  23728543.750
  20244816.250
  21228095.750
 23  2 25  6 30 10.0000000  0 06G02G10G13G18G23G24 2.33,5.5,3.80
  21992955.250
  23417807.250
  23380166.750
  20438453.750
  21252351.250
  22522018.250
 23  2 25  7  0  7.0000000  0 07G02G10G23G24G27G29G32 2.47,5.5,3.80
  18989518.750
  18940645.750
  23183268.250
  18019960.750
  19842297.750
  21841359.250
  20338791.750
 23  2 25  7 30 13.0000000  0 05G10G18G23G24G27 +2.600,5.0,3.80
  22185507.750
  21049781.750
  20930663.250
  21545574.250
  23757444.250
 23  2 25  8  0 11.0000000  0 05G08G18G24G27G32 +2.400,5.0,3.80
  24264741.750
  21026993.750
  20822705.750
  23351496.750
  21672728.750
 23  2 25  8 30 11.0000000  0 06G10G18G22G23G28G32 +2.400,4.5,3.80
  21025792.250
  22732681.750
  23358598.750
  21016157.250
  24620534.750
  21732772.750
 23  2 25  9  0 31.0000000  0 02G21G32 2.40,5.0,3.80
  19472636.250
  21998525.750
 23  2 25  9 30 11.0000000  0 07G10G22G23G25G28G31G32 +2.400,4.5,3.80
  19622347.250
  21024396.750
  21062151.750
  22814853.750
  21209838.250
  21958299.750
  20110837.750
 23  2 25 10  0  9.0000000  0 07G10G21G23G25G28G31G32 2.47,4.5,3.80
  22261880.250
  19126750.250
  18389200.250
  18493692.750
  22765092.750
  23277005.250
  22524615.750
 23  2 25 10 30 10.0000000  0 07G10G12G23G25G28G31G32 2.53,4.0,3.80
  18198085.750
  20831390.250
  20897516.750
  19448544.750
  23610983.250
  23854719.750
  18081817.750
 23  2 25 11  0 11.0000000  0 06G01G10G21G22G28G32 +2.600,4.0,3.80
  22061535.250
  21026770.250
  22679232.250
  20065394.250
  19395404.750
  20370074.250
 23  2 25 11 30  8.0000000  0 06G01G10G21G22G26G28 2.40,4.0,3.80
  22720764.250
  22570980.250
  23634790.250
  20503026.750
  22517703.750
  19964559.250
 23  2 25 12  0 11.0000000  0 07G01G22G25G26G28G31G32 +2.200,3.5,3.80
  22482699.250
  19796351.250
  22160992.750
  20638543.250
  19554082.250
  19139600.250
  21018435.250
 23  2 25 12 30  7.0000000  0 07G01G03G16G22G26G31G32 2.40,3.5,3.80
  20609110.750
  18159189.750
  20031049.750
  23322420.250
  23101816.750
  22939526.250
  19030186.750
 23  2 25 13  0 13.0000000  0 05G16G22G28G31G32 +2.600,3.5,3.80
  19915451.750
  18884422.250
  19381278.250
  18821359.250
  21061589.250
 23  2 25 13 30 10.0000000  0 06G03G04G16G22G26G32 1.24,3.5,3.80
  19504915.750
  20649774.250
  19504568.250
  20133575.750
  18361826.250
  22738162.750
 23  2 25 13 57 31.0000000  0 00 +0.000,4.5,3.80,1,74587,-5049825,3882502,4,2.2
 23  2 25 14  0 12.0000000  0 04G03G04G22G31 +2.800,4.5,3.80
  20012250.750
  19931331.750
  21044837.250
  21394776.250
 23  2 25 14 30 10.0000000  0 07G03G04G07G09G16G26G28 2.87,6.0,3.80
  23021225.250
  21521575.750
  19833287.750
  23956959.250
  20755934.750
  21754436.750
  19163368.750
 23  2 25 15  0 10.0000000  0 06G07G09G16G26G27G31 2.93,6.0,3.80
  23296769.750
  21199413.250
  19027821.750
  20907512.750
  21112215.250
  23848913.750
 23  2 25 15 30 11.0000000  0 05G04G08G09G16G27 +3.000,7.5,3.80
  19834185.250
  22191515.750
  21027300.250
  20088650.250
  20956842.750
 23  2 25 16  0 11.0000000  0 06G04G08G09G16G26G27 +3.000,8.5,3.80
  21027459.750
  22110648.750
  21448890.250
  21757268.750
  18691355.250
  21470060.250
 23  2 25 16 30  8.0000000  0 06G04G07G08G09G16G27 2.90,9.0,3.80
  23185958.750
  18137970.250
  22913443.750
  22836162.750
  18229491.250
  23014979.250
 23  2 25 17  0 13.0000000  0 05G09G14G16G27G30 +2.800,10.5,3.80
  21041017.750
  18883970.250
  23223368.750
  21413481.750
  18042598.250
 23  2 25 17 30 12.0000000  0 06G04G07G08G09G27G30 +3.000,11.5,3.80
  21221115.250
  18807973.750
  18553010.250
  19653659.250
  20210985.750
  21025817.250
 23  2 25 18  0 12.0000000  0 04G08G09G21G27 +3.000,12.5,3.80
  21025948.750
  22598679.750
  22589098.250
  23307496.250
 23  2 25 18 30 27.0000000  0 05G01G07G08G09G21 +3.000,15.0,3.80
  22403145.250
  19609439.750
  21100389.250
  23006941.250
  21308294.250
 23  2 25 19  0 11.0000000  0 06G01G07G08G17G21G30 +3.000,15.0,3.80
  20646623.750
  19073461.250
  21351841.250
  21024652.750
  20372934.750
  19312446.750
 23  2 25 19 30 11.0000000  0 06G01G07G08G17G21G30 +2.640,14.5,3.80
  21018184.750
  20728370.250
  23573941.250
  21298059.750
  21681171.750
  20178403.750
 23  2 25 20  0 15.0000000  0 04G01G07G14G17 +3.200,15.5,3.80
  21002561.250
  21911429.250
  20752535.750
  21027268.250
 23  2 25 20 30 12.0000000  0 06G13G14G17G19G21G30 +3.000,16.0,3.80
  23959823.250
  20846712.750
  21041890.750
  22829597.750
  23804898.250
  21482583.750
 23  2 25 21  0 15.0000000  0 02G01G30 +3.200,17.0,3.80
  21102175.750
  21382026.750
 23  2 25 21 30 15.0000000  0 04G01G06G14G19 +3.400,17.5,3.80
  22661906.750
  22102579.750
  20658991.750
  21102064.250
 23  2 25 22  0 40.0000000  0 02G17G19 +2.400,18.5,3.80
  21324248.750
  21058946.750
 23  2 25 22 30 12.0000000  0 04G03G06G11G24 +3.000,18.0,3.80
  23918856.250
  21040484.750
  23946594.250
  23765998.750
 23  2 25 23  0 11.0000000  0 04G06G11G14G19 +3.200,18.0,3.80
  21026131.750
  23194209.750
  23660777.250
  21298519.750
 23  2 25 23 30 11.0000000  0 05G06G11G17G19G20 +3.200,17.5,3.80
  19718003.250
  21025644.750
  21819051.250
  20102917.750
  23444024.750
 23  2 26  0  0  9.0000000  0 06G06G11G12G17G19G20 3.23,17.0,3.80
  23545616.250
  23956846.250
  19054064.250
  19950132.250
  23925196.750
  19770652.250
 23  2 26  0 30  6.0000000  0 07G05G06G11G12G17G20G25 3.27,15.5,3.80
  22614604.750
  19368083.750
  18925186.750
  19639897.750
  21938465.750
  20007630.250
  21469477.750
 23  2 26  1  0  7.0000000  0 08G05G06G09G11G12G19G20G25 3.30,14.5,3.80
  18437870.250
  23176577.250
  20012530.250
  21975907.250
  22431534.750
  23491846.750
  22322329.750
  23749951.250
 23  2 26  1 30  7.0000000  0 07G05G06G11G12G19G25G29 3.33,13.5,3.80
  23908004.750
  18584076.750
  22747065.750
  23149005.250
  18974615.250
  23878733.250
  20529134.750
 23  2 26  2  0  5.0000000  0 06G11G12G19G20G25G29 3.37,12.5,3.80
  21168048.250
  21750400.250
  18090420.250
  20409362.250
  21884853.250
  23543089.250
 23  2 26  2 30 11.0000000  0 04G02G05G12G20 +3.400,11.5,3.80
  21027439.750
  18409517.250
  20479776.750
  18481771.750
 23  2 26  3  0  6.0000000  0 06G02G05G11G13G20G29 3.32,10.5,3.80
  22126828.250
  19846379.750
  21754251.750
  22844685.250
  20609039.750
  21183639.250
 23  2 26  3 30  6.0000000  0 06G02G05G11G13G15G29 3.24,9.5,3.80
  22425493.750
  20760506.750
  23231694.750
  22620374.750
  23165700.250
  21339532.750
 23  2 26  4  0  6.0000000  0 08G02G05G13G15G18G20G23G29 3.16,9.0,3.80
  18498420.750
  23658113.750
  18347551.250
  18512473.250
  20351709.250
  19395502.250
  21467465.750
  23519988.250
 23  2 26  4 30  6.0000000  0 06G02G05G15G18G23G29 3.08,8.5,3.80
  22422389.750
  22528303.750
  21870090.250
  23703377.750
  18742719.750
  21847341.750
 23  2 26  5  0 11.0000000  0 06G05G15G18G20G23G29 +3.000,8.0,3.80
  21445502.750
  19494862.250
  21017979.750
  23599857.250
  22037065.750
  20476876.250
 23  2 26  5 30  8.0000000  0 08G02G05G10G13G15G18G23G29 3.20,7.5,3.80
  23806115.750
  19691121.750
  21449393.750
  18191737.250
  22781774.750
  23696142.250
  18720088.750
  18700981.250
 23  2 26  6  0 13.0000000  0 05G02G10G13G18G29 +3.400,7.0,3.80
  19302225.750
  21832280.750
  20228273.750
  18411574.250
  21025389.750
 23  2 26  6 30 11.0000000  0 04G02G18G23G24 +3.600,6.5,3.80
  21027985.750
  19369721.250
  20143500.750
  21348966.750
 23  2 26  7  0  8.0000000  0 07G02G10G15G18G24G27G32 3.36,6.0,3.80
  22561858.750
  22291319.250
  21873518.750
  20216490.250
  21397555.250
  23264668.750
  23637328.750
 23  2 26  7 30 11.0000000  0 07G02G10G15G18G24G27G32 +3.120,6.0,3.80
  23905727.250
  21984950.250
  23302077.750
  21018365.250
  21418012.250
  23667415.250
  23015063.250
 23  2 26  8  0  6.0000000  0 06G08G10G18G23G24G32 3.36,5.5,3.80
  23763369.250
  20260545.250
  20653519.250
  19676810.750
  20372664.250
  21077668.750
 23  2 26  8 30 29.0000000  0 06G08G18G22G24G27G32 +3.600,6.0,3.80
  24743193.250
  22522038.750
  22847658.750
  21704651.750
  24397773.750
  21276517.250
 23  2 26  8 41 59.0000000  0 00 +7.000,6.0,3.80,1,66973,-5051736,3880248,4,1.2
 23  2 26 14  0 22.0000000  0 01G03 -3.000,6.0,3.80
  21119141.750
 23  2 26 14 30 31.0000000  0 06G03G04G16G22G26G31 -3.000,7.0,3.80
  20037140.250
  18333332.750
  26011269.750
  21326736.750
  18766314.250
  21669618.250
 23  2 26 15  0 10.0000000  0 06G03G04G08G16G26G27 -1.01,8.0,3.80
  22432775.250
  19318059.250
  22611897.750
  19102864.750
  21084002.250
  21025451.750
 23  2 26 15 30 11.0000000  0 04G04G09G16G27 +1.000,10.0,3.80
  19933049.250
  21024607.250
  20260899.250
  20962795.750
 23  2 26 16  0 29.0000000  0 05G04G09G16G26G27 +0.400,11.0,3.80
  20556254.250
  20864981.750
  21349888.250
  18322500.750
  20906234.750
 23  2 26 16 30 17.0000000  0 05G04G07G08G09G27 +0.600,12.0,3.80
  21376233.750
  22096609.250
  20915964.250
  20917503.750
  21126649.750
 23  2 26 17  0 19.0000000  0 05G04G07G09G16G27 +0.600,12.5,3.80
  21891706.250
  20960842.750
  20765471.250
  23034515.250
  21164959.750
 23  2 26 17 30 11.0000000  0 05G04G08G09G14G27 +1.200,13.0,3.80
  23824996.250
  21026850.750
  22197295.250
  24249912.750
  22776820.750
 23  2 26 18  0  5.0000000  0 07G01G07G08G09G14G21G30 1.20,13.5,3.80
  20014570.250
  22265391.750
  22970806.250
  18600416.750
  18871550.250
  18361166.250
  23846595.250
 23  2 26 18 30 22.0000000  0 01G07 1.20,14.0,3.80
  23670621.750
 23  2 26 19  0  5.0000000  0 06G01G07G14G17G21G30 1.20,14.5,3.80
  18971981.250
  23561117.750
  18624423.250
  19337501.750
  18813864.750
  23685071.250
 23  2 26 19 30 11.0000000  0 07G01G07G08G14G17G19G21 +1.200,14.5,3.80
  20774839.250
  20658480.750
  23548570.750
  20596849.250
  21025175.750
  23905836.250
  21561373.250
 23  2 26 20  0 12.0000000  0 07G01G07G14G17G19G21G30 +1.200,15.0,3.80
  21054465.250
  22117496.750
  20760841.250
  21024756.750
  23364911.750
  22738032.250
  20732019.750
 23  2 26 20 30 12.0000000  0 06G01G07G14G19G21G30 +1.200,15.0,3.80
  21043442.250
  23056633.250
  20335013.250
  22215942.250
  23452615.750
  21092569.250
 23  2 26 21  0  6.0000000  0 06G01G06G13G14G17G30 1.30,14.5,3.80
  22287515.750
  23580056.750
  18854018.750
  20935400.250
  21071100.750
  22595214.250
 23  2 26 21 30 11.0000000  0 05G01G06G17G19G30 +1.400,14.5,3.80
  22799953.750
  21950062.250
  20723767.750
  21027526.250
  23251879.750
 23  2 26 22  0 20.0000000  0 04G01G14G17G19 +0.600,14.5,3.80
  17999524.250
  21179855.250
  20976470.250
  20634914.750
 23  2 26 22 30  8.0000000  0 06G03G06G11G14G17G19 1.10,13.5,3.80
  20041832.750
  23072000.250
  19896754.250
  18609267.250
  18021754.750
  23114860.250
 23  2 26 23  0 11.0000000  0 04G03G11G17G19 +1.600,13.5,3.80
  23006770.250
  21414236.250
  21030759.250
  19652339.250
 23  2 26 23 30 11.0000000  0 06G06G11G14G17G19G20 +1.400,13.0,3.80
  21026444.250
  22214214.250
  18932464.250
  23176923.750
  21416520.250
  18566410.250
 23  2 27  0  0 13.0000000  0 05G06G17G19G20G24 +1.400,12.5,3.80
  20652134.750
  23079347.250
  21026219.750
  22657377.250
  24648261.750
 23  2 27  0 30  5.0000000  0 07G05G06G11G12G17G19G20 1.27,11.5,3.80
  21293566.250
  18315663.750
  23759538.750
  18433178.250
  20900629.750
  18641410.750
  18746360.250
 23  2 27  1  0  9.0000000  0 07G02G05G11G12G19G20G25 1.13,11.5,3.80
  23945387.250
  21778148.750
  19498858.250
  19933338.750
  21114449.250
  19751608.250
  21177537.250
 23  2 27  1 30 11.0000000  0 06G02G05G06G11G12G20 +1.000,11.0,3.80
  23528829.250
  21017979.250
  21945675.750
  20034163.250
  20447408.750
  19668166.250
 23  2 27  2  0  6.0000000  0 06G05G11G12G19G20G29 1.12,10.5,3.80
  22316225.750
  22533133.250
  23157532.750
  19552598.750
  21725916.250
  18709463.250
 23  2 27  2 30 10.0000000  0 06G05G11G12G20G25G29 1.24,10.5,3.80
  21000526.750
  22230708.250
  23255957.250
  21171359.250
  22795224.250
  22911476.250
 23  2 27  3  0  6.0000000  0 08G02G05G11G12G13G15G25G29 1.36,10.0,3.80
  22033023.750
  19820392.250
  21816939.250
  23335472.250
  22673238.250
  23457807.750
  22483444.250
  21055320.250
 23  2 27  3 30  9.0000000  0 07G02G05G11G13G15G25G29 1.48,10.0,3.80
  20911975.750
  19350437.250
  21880564.750
  21046143.250
  21546057.750
  22771348.750
  19823064.750
 23  2 27  4  0 11.0000000  0 04G02G11G15G29 +1.600,10.0,3.80
  21963419.250
  18137503.250
  21887469.750
  21026532.250
 23  2 27  4 30  7.0000000  0 06G02G05G11G13G23G29 3.86,10.0,3.80
  18101429.250
  18339547.250
  21451554.250
  23871125.750
  20327148.250
  23598218.250
 23  2 27  4 31 59.0000000  0 00 +4.000,10.5,3.80,1,66974,-5051725,3880244,6,2.2
 23  2 27 17 30 12.0000000  0 06G04G07G08G21G27G30 -2.000,21.5,3.80
  23962300.250
  21079899.750
  21043005.250
  23553064.750
  22884072.750
  23156232.750
 23  2 27 18  0 11.0000000  0 07G01G07G08G09G14G21G30 -1.800,22.0,3.80
  22128040.750
  18520098.750
  19350270.750
  21028684.250
  21042993.750
  20549428.750
  20011591.250
 23  2 27 18 30 10.0000000  0 06G08G09G14G17G21G30 -2.00,22.5,3.80
  20852030.750
  22828076.750
  20978710.750
  22026940.750
  20734877.750
  19933224.250
 23  2 27 19  0 15.0000000  0 02G07G14 -2.200,24.0,3.80
  20177562.750
  21091254.750
 23  2 27 19 30 20.0000000  0 07G01G07G08G13G14G17G19 -2.200,24.5,3.80
  21181367.750
  21241550.750
  18184483.250
  23154725.750
  21005089.750
  21405360.750
  18218989.250
 23  2 27 20  0 13.0000000  0 06G01G07G17G19G21G30 -2.400,25.5,3.80
  21052591.250
  22262356.250
  20970171.750
  23224607.250
  22846583.250
  20786493.250
 23  2 27 20 30 11.0000000  0 06G01G14G17G19G21G30 -1.800,26.0,3.80
  21027320.250
  20242643.750
  20424631.750
  22023081.750
  23516412.250
  21118659.750
 23  2 27 21  0  6.0000000  0 06G01G06G14G17G19G30 -1.80,26.5,3.80
  20109671.750
  21119761.250
  18658747.250
  18785166.250
  19686826.750
  20444219.750
 23  2 27 21 30 11.0000000  0 04G01G03G06G30 -1.80,27.0,3.80
  22167593.250
  22870784.750
  21024127.250
  22631262.250
 23  2 27 22  0 12.0000000  0 06G03G06G11G14G17G19 -1.800,27.0,3.80
  23461346.250
  21043249.250
  18381451.750
  21397288.250
  21151837.750
  20731753.750
 23  2 27 22 30 22.0000000  0 06G03G06G11G14G17G24 -2.200,26.5,3.80
  21220627.250
  18160591.250
  20885536.750
  19882189.750
  19225923.250
  21000496.250
 23  2 27 23  0 13.0000000  0 05G03G06G11G14G17 -1.800,25.5,3.80
  23018645.750
  19272991.750
  21220583.750
  22230498.250
  21025865.750
 23  2 27 23 30 17.0000000  0 05G06G11G12G19G20 -1.600,25.0,3.80
  21065916.250
  22130677.750
  23507313.750
  21459153.250
  18407367.250
 23  2 28  0  0 16.0000000  0 05G06G12G17G19G24 -1.800,24.0,3.80
  20657454.250
  21808260.250
  23108757.750
  21025525.750
  18703063.250
 23  2 28  0 30 11.0000000  0 05G05G06G11G17G20 -1.800,22.5,3.80
  23507383.250
  20806315.750
  20144355.250
  23405418.250
  21024863.750
 23  2 28  1  0 11.0000000  0 06G02G05G06G12G19G25 -2.160,21.5,3.80
  23628156.750
  21405396.750
  20692335.250
  19721873.250
  21018602.750
  20890659.250
 23  2 28  1 30 10.0000000  0 07G02G05G06G09G12G19G25 -1.600,20.0,3.80
  23575221.750
  21027701.750
  22201056.250
  23834730.750
  20643695.750
  22633258.250
  21211958.750
 23  2 28  2  0 11.0000000  0 05G05G06G11G12G20 -1.600,19.5,3.80
  21027427.250
  23856369.750
  21397299.250
  22068016.750
  20544466.750
 23  2 28  2 30  6.0000000  0 06G02G05G11G12G20G29 -1.72,18.5,3.80
  20243998.750
  23682028.250
  19032054.750
  20120964.750
  23947912.250
  19514169.250
 23  2 28  3  0  8.0000000  0 07G02G05G11G12G15G25G29 -1.84,17.5,3.80
  21459171.750
  19319849.750
  21400626.250
  22988685.250
  22775822.250
  22092838.750
  20450692.750
 23  2 28  3 30  6.0000000  0 06G02G05G11G13G15G20 -1.96,16.5,3.80
  22434450.750
  20977113.750
  23560814.750
  22513329.250
  22967243.750
  22420397.250
 23  2 28  4  0  9.0000000  0 07G02G05G13G15G18G23G29 -2.08,15.5,3.80
  23339309.250
  22754986.750
  23136806.750
  23180038.250
  19052059.750
  20133672.250
  22444079.750
 23  2 28  4 30 17.0000000  0 04G02G13G23G29 -2.200,14.5,3.80
  21352536.250
  21142567.250
  23484769.250
  20936960.750
 23  2 28  5  0  9.0000000  0 06G02G13G15G18G23G29 -0.52,14.0,3.80
  19318501.250
  19373008.750
  18363236.750
  19752260.250
  20769079.250
  19610965.250
 23  2 28  5 27  2.0000000  0 00 +1.000,14.0,3.80,1,66970,-5051719,3880265,6,2.4
 23  2 28 14  0 32.0000000  0 05G16G22G26G27G31 -1.600,6.5,3.80
  20918114.750
  23706011.250
  21332434.750
  24569081.250
  24066200.250
 23  2 28 14 30 13.0000000  0 00 -1.53,8.5,3.80
 23  2 28 15  0  6.0000000  0 06G03G04G07G09G16G26 -1.47,13.0,3.80
  18980101.750
  21510067.250
  19265292.250
  23126675.250
  21444691.250
  23614220.750
 23  2 28 15 30 13.0000000  0 05G04G07G09G26G27 -1.400,14.0,3.80
  20171906.750
  23123092.750
  21055356.750
  23358027.250
  21015212.250
 23  2 28 16  0 10.0000000  0 06G04G08G09G16G26G27 -1.20,13.0,3.80
  22218485.750
  22753353.250
  22321772.250
  23110625.250
  20139636.250
  22402428.250
 23  2 28 16 30 12.0000000  0 05G07G08G09G27G30 -1.000,18.5,3.80
  18187939.250
  23065007.750
  23237136.750
  23495115.250
  21025833.750
 23  2 28 17  0 17.0000000  0 06G04G07G08G16G27G30 -1.200,24.5,3.80
  23158814.250
  21771799.750
  21113703.750
  18313005.250
  22340019.750
  18257050.750
 23  2 28 17 30 14.0000000  0 05G07G08G09G27G30 -1.000,23.0,3.80
  21079799.250
  21153314.250
  22457626.750
  23087169.250
  23087207.250
 23  2 28 18  0 11.0000000  0 06G08G09G14G21G27G30 -1.000,24.0,3.80
  20020138.250
  21742032.750
  21512127.250
  21025715.250
  22509909.250
  20472597.750
 23  2 28 18 30 11.0000000  0 06G01G07G08G17G21G30 -1.000,30.0,3.80
  21516856.250
  19200991.750
  21026295.750
  21915569.750
  20730847.250
  19892304.250
 23  2 28 19  0  5.0000000  0 07G01G07G08G14G17G21G30 -1.10,31.0,3.80
  18302391.750
  23249245.250
  19787341.750
  18037424.250
  18658108.250
  18400102.750
  23160117.250
 23  2 28 19 30 12.0000000  0 05G01G07G08G17G21 -1.200,30.5,3.80
  20816695.250
  21040510.750
  18032275.750
  21017459.750
  21861784.250
 23  2 28 20  0  6.0000000  0 06G01G07G14G19G21G30 -1.10,32.0,3.80
  20436460.750
  21780710.250
  20064737.750
  22469274.750
  22339593.250
  20223982.750
 23  2 28 20 30 11.0000000  0 05G01G06G14G17G30 -1.000,29.5,3.80
  21712081.750
  18427077.750
  20847325.750
  21024542.250
  21839484.250
 23  2 28 21  0 14.0000000  0 05G06G14G17G19G30 -1.200,26.5,3.80
  21427851.750
  19166562.250
  19286054.750
  20087158.750
  21077521.750
 23  2 28 21 30 35.0000000  0 04G06G14G17G30 -1.600,31.0,3.80
  22302005.750
  21454971.250
  21438330.250
  24242326.250
 23  2 28 22  0  6.0000000  0 06G06G11G14G17G19G24 -1.20,26.5,3.80
  20887356.750
  18159123.250
  21425496.250
  21142406.750
  20646030.750
  23395931.750
 23  2 28 22 30 11.0000000  0 05G03G06G11G17G19 -0.800,22.5,3.80
  18179854.250
  21026964.750
  23658934.750
  22199307.250
  21162532.250
 23  2 28 23  0 16.0000000  0 06G03G06G11G12G17G19 -0.600,20.5,3.80
  18629652.250
  20781794.250
  22611224.250
  18295687.750
  22607070.750
  21121887.250
 23  2 28 23 30  9.0000000  0 06G06G11G12G17G19G20 -0.70,18.5,3.80
  21103827.250
  22048927.750
  23380931.250
  23336547.750
  21497233.250
  18242191.250
 23  3  1  0  0 11.0000000  0 05G06G11G12G17G19 -0.800,17.5,3.80
  20041188.750
  20094553.250
  21026116.750
  22506489.750
  20399037.250
 23  3  1  0 30 11.0000000  0 06G05G06G11G12G20G25 -1.240,16.0,3.80
  23431664.750
  21014190.750
  20246038.250
  20833995.750
  21017986.250
  22482571.250
 23  3  1  1  0 11.0000000  0 05G02G05G06G11G20 -0.800,16.0,3.80
  23312171.250
  21025336.750
  20590098.250
  19113002.250
  19178308.250
 23  3  1  1 30 16.0000000  0 07G02G05G06G09G11G12G20 -0.600,15.0,3.80
  23873276.250
  21281773.250
  22710372.250
  18245113.250
  20651694.750
  21099073.750
  20142191.750
 23  3  1  2  0 11.0000000  0 05G02G11G20G25G29 -0.800,15.0,3.80
  18097743.750
  21921515.750
  21025398.750
  22550042.250
  23688628.750
 23  3  1  2 30  6.0000000  0 06G02G05G11G13G20G25 -0.75,14.5,3.80
  19348288.750
  22818198.750
  18283257.750
  20392791.250
  23181748.250
  18859802.250
 23  3  1  3  0 10.0000000  0 07G05G11G13G15G20G25G29 -0.70,14.5,3.80
  23705438.750
  19868196.250
  20247199.750
  20966303.250
  18713697.750
  20590550.250
  18738117.250
 23  3  1  3 30 10.0000000  0 06G02G05G13G15G20G29 -0.65,14.5,3.80
  20196982.250
  18848448.250
  20208577.750
  20612336.750
  20347696.750
  19115646.250
 23  3  1  4  0 11.0000000  0 07G02G05G11G13G20G23G29 -0.600,15.5,3.80
  21258041.250
  20802336.750
  23739631.750
  21027388.250
  22646551.750
  23954765.250
  20408329.250
 23  3  1  4 30  5.0000000  0 07G02G05G13G15G18G23G29 -0.57,15.5,3.80
  21652434.250
  22151828.750
  21457141.750
  20923960.750
  22686014.250
  23698331.750
  21315098.750
 23  3  1  5  0 10.0000000  0 06G02G05G10G18G23G29 -0.54,15.5,3.80
  22895262.250
  18312652.750
  21114207.250
  23237674.750
  18255820.250
  23296122.750
 23  3  1  5 30  6.0000000  0 06G02G13G15G18G23G29 -0.51,14.5,3.80
  17993325.250
  18592652.750
  22971321.750
  23576731.750
  18586453.750
  19232077.250
 23  3  1  6  0  8.0000000  0 07G02G10G15G18G23G24G27 -0.49,13.5,3.80
  19131852.750
  21173583.250
  18217173.250
  23931746.750
  18844297.750
  20352907.750
  21683639.250
 23  3  1  6 30  5.0000000  0 06G02G10G15G18G23G27 -0.46,12.5,3.80
  20095029.750
  20755321.250
  19334750.250
  18154319.750
  18802314.250
  21461430.250
 23  3  1  7  0  5.0000000  0 06G10G15G18G23G24G27 -0.43,13.0,3.80
  20254211.750
  20525208.750
  18580488.250
  18758491.250
  19437344.250
  21475688.750
 23  3  1  7 30 11.0000000  0 05G02G10G22G23G27 -0.400,13.5,3.80
  21572691.250
  18976658.250
  21910724.750
  18026107.750
  21029617.750
 23  3  1  8  0 16.0000000  0 04G10G18G23G24 -1.200,12.0,3.80
  21426884.750
  22419931.250
  21105814.250
  21910627.250
 23  3  1  8 30 13.0000000  0 05G18G22G23G24G32 -1.200,12.5,3.80
  22932829.750
  22474035.750
  20772478.750
  21968318.750
  21049777.750
 23  3  1  9  0 10.0000000  0 06G10G22G23G28G31G32 -0.960,12.0,3.80
  21018315.250
  22641743.250
  22124518.750
  23069656.250
  23950146.750
  21573460.750
 23  3  1  9 30  6.0000000  0 07G10G12G21G22G23G25G32 -0.91,11.0,3.80
  19202848.250
  22604231.750
  22346251.750
  20282155.250
  21021880.750
  21879866.750
  19591170.750
 23  3  1 10  0  5.0000000  0 06G10G21G22G25G28G32 -0.85,11.0,3.80
  18969924.750
  21502984.750
  19354967.250
  20665872.250
  18875845.250
  19057075.750
 23  3  1 10 30 13.0000000  0 07G01G10G12G21G22G25G32 -0.800,10.5,3.80
  20628250.750
  19127431.250
  21542719.750
  21056459.250
  18632956.250
  19880606.750
  18746677.750
 23  3  1 11  0 12.0000000  0 07G01G10G22G25G26G31G32 -0.800,10.0,3.80
  22571514.750
  22030936.750
  20493176.250
  21978879.750
  23028568.250
  19727523.750
  21037869.250
 23  3  1 11 30  5.0000000  0 07G01G10G21G22G26G28G31 -0.70,10.5,3.80
  19094610.250
  19340783.750
  20094203.750
  22651386.750
  18009562.750
  22256657.250
  21910360.750
 23  3  1 12  0 10.0000000  0 07G01G03G04G22G26G28G31 -0.60,11.0,3.80
  19351951.750
  23632593.250
  20298181.750
  22355124.250
  22582549.750
  22314135.750
  21825979.250
 23  3  1 12 30  6.0000000  0 06G03G04G22G26G28G31 -0.50,9.5,3.80
  22388358.250
  18713745.250
  22039162.250
  21298253.750
  22378862.250
  21813407.750
 23  3  1 13  0 11.0000000  0 05G03G16G26G29G31 -0.400,11.5,3.80
  20573755.750
  21044469.250
  19449419.750
  18324388.250
  21025394.750
 23  3  1 13 30 11.0000000  0 05G03G22G26G28G31 -0.400,13.0,3.80
  22190243.250
  23075818.250
  21024697.250
  23935988.250
  23349182.750
 23  3  1 14  0 13.0000000  0 07G03G04G16G22G26G28G31 -0.200,14.5,3.80
  22836968.750
  22008750.250
  21063538.750
  18031673.250
  21612642.750
  18933964.250
  18367582.750
 23  3  1 14 30 14.0000000  0 07G04G16G22G26G27G28G31 -0.400,17.0,3.80
  20092837.250
  19569690.750
  23732945.250
  21080365.250
  22170215.250
  18533432.750
  17988558.750
 23  3  1 15  0 11.0000000  0 07G03G04G07G08G09G16G26 -0.720,18.5,3.80
  21018315.750
  23373727.250
  21035498.250
  20252221.750
  18897381.250
  23387682.750
  19651968.750
 23  3  1 15 30  6.0000000  0 06G04G07G08G09G16G27 -0.76,20.0,3.80
  19703150.250
  22517909.250
  21390940.250
  20484070.250
  20243056.750
  20456205.250
 23  3  1 16  0 12.0000000  0 05G04G07G09G16G27 -0.800,23.5,3.80
  20093845.750
  21693346.250
  20090701.250
  21034932.250
  20193592.250
 23  3  1 16 30 13.0000000  0 05G04G07G09G16G27 +0.000,23.5,3.80
  21068067.750
  21147028.750
  20330483.750
  22212857.750
  20615456.750
 23  3  1 17  0 12.0000000  0 04G07G08G09G27 +0.000,24.0,3.80
  21047466.750
  20475326.250
  21324665.750
  21803954.750
 23  3  1 17 30 18.0000000  0 04G07G08G14G30 -0.800,25.0,3.80
  20953478.250
  21144489.250
  23855337.750
  22883950.250
 23  3  1 18  0 11.0000000  0 04G07G08G21G30 -0.200,26.0,3.80
  19949026.250
  21026470.250
  21847457.750
  21262185.750
 23  3  1 18 30  6.0000000  0 06G01G07G14G17G21G30 -0.20,26.5,3.80
  23713293.250
  21564189.250
  23179983.750
  18116361.750
  23037919.250
  22151137.750
 23  3  1 19  0 11.0000000  0 06G01G07G08G13G14G17 -0.200,26.0,3.80
  19278912.750
  18413677.250
  21026320.250
  20997326.750
  19043140.750
  19623549.750
 23  3  1 19 30  5.0000000  0 07G01G07G13G14G17G21G30 -0.20,25.5,3.80
  20777338.250
  21164458.250
  22856970.750
  20597981.750
  20946406.250
  21944737.250
  20193417.250
 23  3  1 20  0 11.0000000  0 04G01G17G21G30 -0.200,23.5,3.80
  21025080.750
  20827411.750
  23035252.750
  20866924.250
 23  3  1 20 30 14.0000000  0 05G01G06G14G17G19 -0.200,24.5,3.80
  21025137.250
  23472950.750
  20072939.250
  20244474.750
  21646977.750
 23  3  1 21  0 18.0000000  0 04G01G06G17G19 -0.800,24.5,3.80
  21992343.750
  22397070.750
  20435236.750
  21138475.250
 23  3  1 21 30 20.0000000  0 04G14G17G19G24 -0.600,24.0,3.80
  21183132.750
  21139701.250
  21169746.750
  24061430.750
 23  3  1 22  0 11.0000000  0 04G14G17G19G24 +0.000,23.0,3.80
  21938582.750
  21604294.750
  21027687.750
  23768251.750
 23  3  1 22 30 17.0000000  0 07G03G06G11G14G17G19G24 -0.400,22.0,3.80
  23021344.250
  19778599.750
  22309698.750
  21844249.750
  21057225.250
  19953522.250
  22740598.250
 23  3  1 23  0  7.0000000  0 08G03G06G11G12G14G17G19G24 -0.43,19.5,3.80
  22098045.750
  18163111.250
  19880884.250
  21518382.250
  21419777.750
  20053363.250
  18518183.250
  21542768.250
 23  3  1 23 30  8.0000000  0 07G03G06G11G12G17G19G24 -0.45,18.0,3.80
  18870857.250
  20227055.250
  21050508.750
  22326221.250
  22497896.250
  20619563.750
  18014398.750
 23  3  2  0  0 11.0000000  0 07G06G11G12G19G20G24G25 -0.480,17.5,3.80
  20204625.750
  20140882.750
  21017908.250
  20555650.250
  21560033.750
  18334732.250
  23060356.250
 23  3  2  0 30  6.0000000  0 07G04G05G06G11G12G17G19 -0.46,16.5,3.80
  22763894.250
  20750039.250
  18601714.750
  23726867.250
  18282217.250
  21217717.750
  18911807.750
 23  3  2  1  0  5.0000000  0 08G04G05G06G09G12G17G20G29 -0.45,16.5,3.80
  18395925.250
  21055523.750
  20880328.250
  23138771.750
  19713837.750
  23615346.250
  19298385.750
  23672841.250
 23  3  2  1 30  5.0000000  0 07G02G05G09G11G12G20G25 -0.43,16.5,3.80
  18043860.250
  21420156.750
  18521883.250
  20950661.750
  21421956.250
  20380324.750
  21834641.250
 23  3  2  2  0  7.0000000  0 07G02G05G11G13G20G25G29 -0.42,16.0,3.80
  18791055.750
  22098348.750
  22760152.750
  20316701.750
  21826620.250
  23368440.750
  18328585.750
 23  3  2  2 30  6.0000000  0 06G05G11G12G13G20G29 -0.40,16.0,3.80
  23123687.250
  18697902.250
  19919686.750
  20572894.750
  23580714.250
  18781605.750
 23  3  2  3  0  5.0000000  0 07G02G05G11G12G13G15G29 -0.38,16.5,3.80
  20501806.250
  18519204.250
  20751566.750
  22474070.750
  20903125.750
  21586962.250
  19442585.750
 23  3  2  3 30  6.0000000  0 06G02G05G11G18G25G29 -0.37,16.5,3.80
  21559393.750
  20323638.250
  23001131.750
  23654865.250
  17995464.250
  20491036.750
 23  3  2  4  0  5.0000000  0 06G02G05G13G15G20G26 -0.35,17.0,3.80
  22723204.250
  22395083.250
  22480641.750
  22395000.750
  18274421.250
  20421229.750
 23  3  2  4 30  5.0000000  0 06G05G13G15G18G23G29 -0.34,18.5,3.80
  18878125.750
  18078572.750
  23466914.750
  19192546.250
  20201525.750
  18000776.250
