     2.00           OBSERVATION DATA    G(GPS)              RINEX VERSION / TYPE
goGPS-java                              17-Apr-24 14:00:46  PGM / RUN BY / DATE
                                                            MARKER NAME
                                                            MARKER NUMBER
                    Lotek Wireless Inc.                     OBSERVER / AGENCY
7                                                           REC # / TYPE / VERS
                                                            ANT # / TYPE
    73993.0000 -5057250.0000  3872763.0000                  APPROX POSITION XYZ
        0.0000        0.0000        0.0000                  ANTENNA: DELTA H / E / N
     2     0                                                WAVELENGTH FACT L1/2
     1    C1                                                # / TYPES OF OBSERV
  2023     2    21    18    55    6.0000000     UTC         TIME OF FIRST OBS
                                                            END OF HEADER
 23  2 21 19 30 13.0000000  0 00 0.25,23.5,3.80
 23  2 21 20  0 22.0000000  0 01G21 0.47,24.0,3.80
  19004054.750
 23  2 21 20 30 13.0000000  0 00 0.69,25.5,3.80
 23  2 21 21  0 13.0000000  0 00 0.90,26.0,3.80
 23  2 21 21 30 13.0000000  0 00 1.12,26.5,3.80
 23  2 21 22  0 22.0000000  0 01G17 1.34,25.5,3.80
  22647497.750
 23  2 21 22 30 22.0000000  0 01G17 1.55,25.0,3.80
  23716773.250
 23  2 21 23  0  8.0000000  0 07G06G11G12G14G17G19G24 1.77,23.5,3.80
  23444642.250
  20031426.250
  21933959.750
  19393767.750
  18656777.250
  23585144.750
  20356645.250
 23  2 21 23 30  5.0000000  0 06G06G11G12G17G19G24 1.98,16.0,3.80
  19424501.750
  21208187.250
  22881182.250
  21281023.750
  19764266.250
  22756535.750
 23  2 22  0  0 11.0000000  0 05G06G11G17G19G20 +2.200,12.5,3.80
  21025372.750
  21921542.750
  23291839.250
  21416792.250
  24080255.750
 23  2 22  0 30 11.0000000  0 05G06G12G17G19G20 +2.200,11.0,3.80
  19530076.250
  20460542.250
  22029943.250
  19886540.250
  21024623.250
 23  2 22  1  0 11.0000000  0 05G06G09G11G19G20 +2.200,9.5,3.80
  21025625.750
  18494796.250
  20225293.750
  21339606.250
  20962320.250
 23  2 22  1 30 15.0000000  0 07G05G06G09G11G12G19G20 2.27,9.5,3.80
  22956007.250
  22582805.250
  21041789.250
  21082012.250
  21486045.250
  22917234.250
  21116540.750
 23  2 22  2  0  5.0000000  0 08G02G05G06G11G12G19G20G25 2.33,9.5,3.80
  23846078.250
  21271258.250
  22741722.750
  20673006.250
  21128316.250
  23202269.250
  20145749.250
  21578847.250
 23  2 22  2 30 12.0000000  0 06G05G06G12G19G20G25 +2.400,10.0,3.80
  19751334.750
  22832825.750
  21047399.250
  23536235.250
  19406384.750
  20926457.750
 23  2 22  3  0 11.0000000  0 04G02G05G11G29 +2.200,10.5,3.80
  22018852.750
  19522436.250
  21025186.750
  21246882.750
 23  2 22  3 30  6.0000000  0 06G02G05G11G13G15G20 2.20,10.5,3.80
  23864356.250
  21832273.250
  18032063.250
  18337836.750
  19044135.250
  22875846.750
 23  2 22  4  0  5.0000000  0 06G05G11G13G15G20G29 2.20,11.5,3.80
  21049772.250
  23717390.750
  22375582.750
  22762962.750
  22590777.250
  21299544.250
 23  2 22  4 30  5.0000000  0 07G02G05G13G15G18G20G29 2.20,12.5,3.80
  20236579.750
  19814446.250
  20013392.250
  19972165.750
  21835425.750
  21701594.250
  19410237.750
 23  2 22  5  0  5.0000000  0 07G02G05G13G15G18G20G29 2.20,13.5,3.80
  19771552.750
  20302730.250
  19590451.750
  19034225.750
  20759643.250
  22404639.250
  19463329.750
 23  2 22  5 30 11.0000000  0 04G02G05G13G15 +2.200,13.5,3.80
  20897231.750
  22333582.750
  21024803.750
  19914413.250
 23  2 22  6  0  7.0000000  0 07G02G05G10G13G15G23G29 2.20,13.0,3.80
  19834135.750
  22021294.250
  22993500.250
  20452128.750
  18814891.250
  20382696.750
  21096975.750
 23  2 22  6 30  8.0000000  0 07G02G05G10G13G15G18G29 2.20,13.5,3.80
  20233313.250
  22957324.750
  22196411.250
  21405711.750
  19316474.250
  18985987.750
  22285032.250
 23  2 22  7  0 11.0000000  0 06G02G10G15G18G23G27 +2.200,14.5,3.80
  23013675.250
  23576838.750
  22248013.250
  21024560.250
  21651978.750
  18306512.750
 23  2 22  7 30  5.0000000  0 07G02G10G15G18G23G24G27 2.12,15.0,3.80
  22295249.250
  21288629.250
  21650263.250
  19680099.250
  19823382.250
  20499608.250
  22544687.250
 23  2 22  8  0  5.0000000  0 07G02G15G18G23G24G27G32 2.04,15.5,3.80
  19112953.250
  18516343.250
  22037118.750
  21494584.750
  22109735.250
  18514758.750
  23331358.250
 23  2 22  8 30  6.0000000  0 07G10G18G22G23G24G27G32 1.96,16.0,3.80
  22602449.750
  23678339.750
  19120160.250
  22314932.750
  23130024.250
  19772349.750
  23350298.250
 23  2 22  9  0  7.0000000  0 07G08G10G18G22G23G24G32 1.88,16.5,3.80
  21539444.750
  23050152.750
  19676725.750
  19136984.750
  23461370.750
  18674002.750
  23693741.250
 23  2 22  9 30 11.0000000  0 06G10G21G22G23G24G28 +1.800,17.0,3.80
  21018120.250
  18747310.250
  22634454.750
  22161581.250
  23845186.250
  23041271.750
 23  2 22 10  0  5.0000000  0 07G10G22G23G25G28G31G32 2.73,17.5,3.80
  23671129.750
  18733181.750
  19525739.250
  20310152.250
  18626554.750
  19236984.250
  18042979.750
 23  2 22 10 30 10.0000000  0 07G01G10G12G21G22G31G32 3.66,17.5,3.80
  21790596.250
  19264799.750
  22097130.750
  21757113.250
  19609073.250
  19473103.250
  19321259.250
 23  2 22 11  0  6.0000000  0 07G01G10G12G21G25G28G32 4.59,17.5,3.80
  22422925.750
  20982746.250
  23364744.250
  22871729.250
  21700998.750
  19774034.250
  20566603.250
 23  2 22 11 13 22.0000000  0 00 +5.000,18.5,3.80,1,67062,-5050911,3881258,4,4.0
 23  2 22 13 30 17.0000000  0 05G03G16G26G28G31 -3.200,18.5,3.80
  20047477.750
  20507588.250
  18930881.750
  21129637.250
  20565614.250
 23  2 22 14  0  8.0000000  0 06G03G16G22G26G28G31 -1.88,19.0,3.80
  22286923.750
  21625887.250
  23179874.750
  21117825.750
  18051024.250
  23494859.750
 23  2 22 14 30  9.0000000  0 07G03G16G22G26G27G28G31 -0.55,19.5,3.80
  18195849.250
  22376601.250
  19380014.250
  22953445.250
  19901639.250
  20283946.250
  19756240.250
 23  2 22 15  0 39.0000000  0 05G09G16G22G26G27 +0.800,20.5,3.80
  22135953.250
  19530648.250
  23746940.750
  21085093.750
  22075426.750
 23  2 22 15 30  5.0000000  0 06G04G07G08G16G26G27 0.94,19.5,3.80
  19171189.250
  22815210.250
  22012202.750
  19196965.250
  21486195.250
  20586083.250
 23  2 22 16  0 10.0000000  0 06G04G07G08G16G26G27 1.08,19.5,3.80
  20683801.250
  23455431.250
  22315342.250
  21219511.250
  18020720.250
  21404067.750
 23  2 22 16 30 18.0000000  0 02G04G08 1.22,21.0,3.80
  20872245.750
  21150334.250
 23  2 22 17  0 30.0000000  0 06G04G07G08G09G16G27 +1.360,22.5,3.80
  21806940.750
  21787639.750
  20732681.750
  21018306.750
  22908798.750
  21312118.750
 23  2 22 17 30  6.0000000  0 07G04G07G08G09G14G16G27 1.32,24.0,3.80
  21366514.250
  19660075.250
  19113180.750
  19986703.750
  22944845.250
  22455486.750
  20467924.750
 23  2 22 18  0  7.0000000  0 06G07G08G09G14G21G30 1.27,23.5,3.80
  20987703.250
  21210394.750
  22603716.250
  23867267.750
  23321792.750
  22896093.250
 23  2 22 18 30 14.0000000  0 06G07G08G14G17G21G27 1.23,24.5,3.80
  19187936.250
  20306595.250
  21515858.750
  22851148.750
  21076675.750
  22877106.250
 23  2 22 19  0 11.0000000  0 05G01G08G13G21G30 1.18,23.5,3.80
  21159312.750
  21027577.250
  22534765.750
  20522401.750
  19612244.750
 23  2 22 19 30  8.0000000  0 07G01G07G08G13G17G21G30 1.14,22.0,3.80
  20252071.750
  19428946.250
  22068808.250
  21971732.250
  20575131.750
  20519281.750
  19199454.750
 23  2 22 20  0  5.0000000  0 07G01G07G13G14G17G21G30 1.09,21.5,3.80
  21199784.750
  21627299.250
  23284556.250
  21008494.750
  21343826.250
  22403540.750
  20633483.750
 23  2 22 20 30 10.0000000  0 06G01G07G13G14G21G30 1.05,22.0,3.80
  23066013.250
  18587513.750
  19457049.750
  22620670.750
  19108318.250
  22924418.250
 23  2 22 21  0 17.0000000  0 05G01G13G14G19G21 +1.000,21.0,3.80
  21133842.250
  23684694.750
  20154251.750
  21705149.750
  23793496.250
 23  2 22 21 30 12.0000000  0 06G01G06G14G17G19G21 +1.000,16.0,3.80
  21947060.750
  22285215.750
  20258936.750
  20356679.250
  21040648.250
  18969343.750
 23  2 22 22  0 11.0000000  0 04G01G06G17G19 +1.200,14.5,3.80
  23519125.750
  21699333.750
  21026635.750
  21033218.750
 23  2 22 22 30 11.0000000  0 04G03G06G17G24 +1.200,13.5,3.80
  23202517.250
  20589447.250
  21026697.750
  23148460.750
 23  2 22 23  0 15.0000000  0 05G03G06G11G17G19 +0.800,13.5,3.80
  24188719.750
  20912775.750
  23394253.250
  22227082.750
  21091379.250
 23  2 22 23 30 22.0000000  0 01G24 0.80,13.5,3.80
  18269937.750
 23  2 23  0  0 16.0000000  0 06G06G11G12G17G19G20 +0.800,13.0,3.80
  18806405.250
  19579286.250
  20840258.250
  21111637.750
  19196734.750
  21653575.750
 23  2 23  0 30 11.0000000  0 05G06G11G12G17G19 +1.200,13.0,3.80
  20265384.750
  20162021.750
  21026308.250
  22785239.750
  20615162.750
 23  2 23  1  0  9.0000000  0 06G06G11G12G17G19G20 1.20,12.0,3.80
  21093425.250
  20191090.250
  20734143.250
  23747321.250
  21405680.250
  20829754.750
 23  2 23  1 30  6.0000000  0 06G05G06G09G11G12G25 1.20,11.5,3.80
  21346452.750
  21230117.250
  23457021.750
  19645866.250
  20042821.250
  21011914.750
 23  2 23  2  0  9.0000000  0 08G02G06G09G11G12G19G20G25 1.20,11.5,3.80
  22263988.750
  21372076.250
  22791033.250
  19232421.750
  19713608.750
  21860075.250
  18641401.750
  20083263.250
 23  2 23  2 30  7.0000000  0 07G02G05G06G11G12G20G25 1.20,11.5,3.80
  19536560.250
  22865510.250
  20143946.250
  23567418.250
  18356968.750
  22623955.750
  18166147.250
 23  2 23  3  0 11.0000000  0 05G02G05G11G20G29 +1.200,10.5,3.80
  21866363.250
  19415598.250
  21026958.250
  19911707.250
  21047207.250
 23  2 23  3 30 12.0000000  0 05G05G13G15G20G29 +0.800,10.5,3.80
  21037134.750
  23378595.250
  18051271.750
  22157033.750
  21935895.750
 23  2 23  4  0  6.0000000  0 06G02G05G11G18G20G29 0.93,10.5,3.80
  22139078.750
  20940489.750
  23655989.750
  18204027.750
  22534048.750
  21089562.250
 23  2 23  4 30  5.0000000  0 06G02G05G15G18G20G29 1.07,10.5,3.80
  20574932.250
  20282704.750
  20233525.250
  22097227.750
  22201806.250
  19802912.250
 23  2 23  5  0 11.0000000  0 04G05G13G20G23 +1.200,10.5,3.80
  21026592.250
  20208887.250
  23144767.750
  22287714.750
 23  2 23  5 30 11.0000000  0 05G05G13G18G23G29 +1.200,10.5,3.80
  21026476.250
  19660702.750
  19667788.750
  20696226.750
  20018012.250
 23  2 23  6  0 13.0000000  0 04G05G13G15G18 +0.800,10.0,3.80
  23905467.250
  22321033.750
  20615485.250
  21053924.250
 23  2 23  6 30 11.0000000  0 05G05G10G15G23G27 +1.200,10.0,3.80
  18709156.250
  23705966.750
  21026118.250
  21446884.250
  18233961.750
 23  2 23  7  0  6.0000000  0 07G02G10G13G15G18G23G27 1.20,10.0,3.80
  19636665.250
  20000685.250
  21362364.250
  18890567.250
  23552993.250
  18131724.750
  20777718.750
 23  2 23  7 30  9.0000000  0 06G02G10G15G23G24G27 1.20,9.5,3.80
  20277574.750
  19043667.250
  19644561.250
  23644223.750
  18300348.250
  20398364.750
 23  2 23  8  0  8.0000000  0 06G02G15G18G23G24G32 1.20,9.5,3.80
  19172470.250
  18576819.250
  22050051.750
  21401165.250
  22029291.250
  23128494.750
 23  2 23  8 30 11.0000000  0 05G10G18G22G24G32 +1.200,9.5,3.80
  21024999.250
  22312291.750
  23475650.250
  21691489.250
  21756774.250
 23  2 23  9  0 11.0000000  0 05G10G18G22G24G32 +1.200,10.0,3.80
  21025059.750
  23858994.750
  23043861.250
  22808705.250
  21657077.250
 23  2 23  9 30 11.0000000  0 07G18G21G22G23G24G28G32 +0.800,10.5,3.80
  23766313.250
  23113269.750
  21017827.750
  20716232.250
  22463379.250
  21350852.750
  19997585.250
 23  2 23 10  0  5.0000000  0 06G22G23G25G28G31G32 0.80,10.0,3.80
  22652639.750
  23626151.750
  18189873.750
  22484959.750
  23063473.250
  22018309.250
 23  2 23 10 30 11.0000000  0 07G10G12G21G22G25G28G32 +0.800,10.5,3.80
  21016570.750
  23782111.250
  23425342.750
  21248765.750
  22533478.250
  20724568.750
  21018269.250
 23  2 23 11  0  6.0000000  0 07G12G21G22G25G28G31G32 0.80,11.0,3.80
  20560979.250
  20038851.750
  23546366.750
  18830244.250
  22876578.250
  22924413.250
  23734489.750
 23  2 23 11 30  9.0000000  0 06G10G22G25G28G31G32 0.80,11.5,3.80
  19374997.250
  23613981.250
  19199289.750
  23020043.750
  22828101.250
  18248891.250
 23  2 23 12  0 11.0000000  0 06G22G25G26G28G31G32 +0.800,12.0,3.80
  21018223.250
  23192387.750
  22174689.750
  20683179.750
  20307078.250
  22115087.750
 23  2 23 12 30 15.0000000  0 06G03G22G26G28G31G32 +1.000,12.5,3.80
  22148600.750
  21065329.250
  21116536.750
  21095165.250
  20600622.750
  22645172.750
 23  2 23 13  0 11.0000000  0 05G03G04G28G31G32 +1.200,13.0,3.80
  21366071.750
  23579153.250
  21577175.750
  21025032.750
  23229100.250
 23  2 23 13 30 16.0000000  0 02G22G31 1.20,13.5,3.80
  20972450.250
  21117593.750
 23  2 23 14  0 11.0000000  0 05G03G04G16G22G28 +1.200,13.5,3.80
  20743109.250
  21024608.750
  19918769.750
  21689428.250
  22569709.250
 23  2 23 14 30 11.0000000  0 06G03G09G22G26G28G31 +0.800,14.5,3.80
  22265827.250
  23723416.250
  23480821.250
  21018360.750
  18380410.250
  23851085.750
 23  2 23 15  0 23.0000000  0 05G04G09G16G26G27 +1.200,16.0,3.80
  20009457.750
  22051302.750
  19584991.250
  21248652.250
  21986889.250
 23  2 23 15 30 28.0000000  0 02G03G04 1.14,18.0,3.80
  19202190.750
  21312844.750
 23  2 23 16  0  6.0000000  0 06G04G07G08G16G26G27 1.07,18.0,3.80
  19955808.750
  22580252.250
  21412111.750
  20555878.250
  23401051.250
  20584945.250
 23  2 23 16 30  9.0000000  0 06G04G07G08G16G26G27 1.01,18.5,3.80
  21768432.750
  23110437.250
  21867588.750
  22726294.250
  19827348.250
  21751293.750
 23  2 23 17  0  6.0000000  0 06G04G08G09G16G27G30 0.95,20.5,3.80
  23929077.250
  22698800.250
  23059759.250
  19049634.750
  23377368.250
  20443549.250
 23  2 23 17 30  9.0000000  0 06G04G08G09G16G27G30 0.89,22.5,3.80
  19407974.250
  23005200.250
  23956229.250
  20488810.750
  18466820.750
  19804587.250
 23  2 23 18  0 10.0000000  0 06G07G08G09G21G27G30 0.82,24.5,3.80
  18519764.250
  18862528.250
  20318704.250
  20793259.750
  20987358.750
  20348966.750
 23  2 23 18 30 11.0000000  0 07G07G08G09G14G21G27G30 +0.760,24.5,3.80
  19189023.250
  20428244.250
  22263008.750
  21427660.750
  21018159.250
  23056220.250
  20378611.250
 23  2 23 19  0 11.0000000  0 06G01G07G08G13G17G21 +0.760,25.0,3.80
  21538899.750
  19608872.250
  21683000.750
  22957120.750
  21915630.750
  21018225.250
 23  2 23 19 30  6.0000000  0 06G01G07G08G13G21G30 0.87,26.0,3.80
  23621432.250
  22974482.750
  19688247.250
  19395370.250
  18020821.250
  22636211.750
 23  2 23 20  0  6.0000000  0 07G01G07G08G13G17G21G30 0.98,24.0,3.80
  18485015.250
  19076440.250
  22147332.250
  20616715.750
  18591898.750
  19811932.750
  23977444.750
 23  2 23 20 30  6.0000000  0 06G01G07G13G14G19G30 1.09,21.0,3.80
  19978037.750
  21625261.750
  22396038.250
  19475625.750
  21664811.250
  19886390.250
 23  2 23 21  0 11.0000000  0 05G01G07G14G17G21 +1.200,17.0,3.80
  22093343.250
  18525510.250
  21026055.250
  21183973.750
  18820408.750
 23  2 23 21 30 14.0000000  0 04G06G17G19G30 +1.200,15.0,3.80
  22830871.250
  21080777.250
  21667437.250
  23197364.250
 23  2 23 22  0  8.0000000  0 06G01G03G06G14G17G30 1.20,13.0,3.80
  19891334.250
  19875476.750
  23778542.250
  23355648.250
  23266825.250
  20376920.750
 23  2 23 22 30 11.0000000  0 04G03G14G17G24 +1.200,11.5,3.80
  23154607.250
  21435803.250
  21026498.250
  23067961.750
 23  2 23 23  0 11.0000000  0 08G03G06G11G12G14G17G19G24 1.25,10.5,3.80
  18585115.750
  21213194.250
  23594756.750
  19447270.750
  23509639.750
  22624034.250
  21425525.250
  18241213.750
 23  2 23 23 30  8.0000000  0 06G03G06G11G12G17G19 1.31,9.5,3.80
  23630125.750
  19558293.250
  21107898.250
  22689009.750
  21545542.750
  19925500.750
 23  2 24  0  0 30.0000000  0 05G06G11G17G19G20 +1.360,8.5,3.80
  20630681.250
  21274880.750
  22972970.250
  21018311.750
  23257853.250
 23  2 24  0 30 11.0000000  0 06G06G11G12G17G20G25 +0.760,7.5,3.80
  21018312.250
  20800192.750
  21612333.750
  23556632.250
  22083760.750
  23551177.750
 23  2 24  1  0 13.0000000  0 05G02G06G11G19G20 +0.800,7.0,3.80
  18855842.250
  21055673.750
  20050264.250
  21367589.250
  20588667.750
 23  2 24  1 30  5.0000000  0 06G05G06G11G12G20G25 0.88,6.5,3.80
  23046931.250
  23194224.750
  21525566.750
  21919737.750
  21394291.750
  22810283.750
 23  2 24  2  0  6.0000000  0 06G05G06G09G11G12G20 0.96,6.0,3.80
  18602154.750
  20546653.250
  21880117.250
  18339780.250
  18850594.750
  23685864.750
 23  2 24  2 30  5.0000000  0 06G02G05G11G12G20G25 1.04,4.5,3.80
  22477591.250
  19821189.250
  20660687.250
  21501922.250
  19683839.250
  21241434.250
 23  2 24  3  0  6.0000000  0 06G05G11G15G20G25G29 1.12,3.5,3.80
  19068915.250
  20782111.750
  23218914.250
  19654850.750
  21386359.750
  20606393.750
 23  2 24  3 30 10.0000000  0 04G05G11G15G20 +1.200,3.0,3.80
  21024538.750
  23367187.250
  23837374.750
  22215497.250
 23  2 24  4  0 10.0000000  0 07G02G05G11G13G15G18G20 +0.840,2.5,3.80
  20816866.250
  19737921.250
  22498996.250
  20738503.250
  21018315.250
  22809006.750
  21381776.750
 23  2 24  4 30  6.0000000  0 06G02G05G15G18G20G29 0.86,2.5,3.80
  22428816.250
  22268669.750
  22013408.250
  23872243.750
  18221556.750
  21717222.750
 23  2 24  5  0  6.0000000  0 06G02G05G13G15G20G29 0.88,2.0,3.80
  21964088.250
  22755402.250
  21842731.750
  21136917.750
  18891208.750
  21841592.750
 23  2 24  5 30  9.0000000  0 07G02G05G10G13G15G23G29 0.90,1.0,3.80
  21258669.250
  22922423.250
  19171144.750
  21506256.750
  20247805.250
  22378629.750
  21916008.750
 23  2 24  6  0 11.0000000  0 07G02G05G10G13G15G18G29 +0.920,0.0,3.80
  18654520.250
  21018464.250
  21506748.250
  19424401.250
  26042346.750
  23972880.250
  20150546.750
 23  2 24  6 30 10.0000000  0 06G02G10G13G15G18G24 1.16,0.0,3.80
  18127763.750
  19730077.750
  19446898.750
  23247794.250
  22669000.750
  18865989.750
 23  2 24  7  0 10.0000000  0 06G02G10G15G18G23G27 +1.400,-0.5,3.80
  20872586.750
  21025010.750
  20146386.750
  18700694.250
  19216116.250
  21862078.250
 23  2 24  7 30  8.0000000  0 07G02G10G18G23G24G27G32 1.45,-1.5,3.80
  19762126.250
  18302388.250
  23000042.250
  22973527.250
  23606581.750
  19759971.250
  19408824.750
 23  2 24  8  0  9.0000000  0 06G10G15G18G23G24G32 1.50,-2.0,3.80
  19936949.750
  22505680.250
  19940722.750
  19183553.250
  19829546.250
  20801725.250
 23  2 24  8 30  9.0000000  0 06G10G18G23G24G27G32 1.55,-2.0,3.80
  21297558.250
  22792175.250
  21196303.750
  22104073.250
  18781646.750
  22014602.250
 23  2 24  9  0 11.0000000  0 06G10G18G21G22G23G32 +1.600,-2.0,3.80
  21026141.750
  24067421.750
  25193565.250
  22980934.250
  21638067.250
  21646433.250
 23  2 24  9 30  5.0000000  0 06G10G12G21G23G28G31 1.48,-3.0,3.80
  23847274.750
  21651071.250
  21408460.750
  19192090.250
  19585827.250
  20361345.250
 23  2 24 10  0  5.0000000  0 08G01G10G21G22G23G28G31G32 1.36,-3.5,3.80
  21993165.250
  18630057.250
  21569303.750
  19507559.750
  20664237.250
  19281296.250
  19826865.250
  18929561.250
 23  2 24 10 30 11.0000000  0 07G10G12G22G25G28G31G32 +1.240,-3.5,3.80
  21018429.250
  23718875.750
  21135095.250
  22403221.250
  20578064.250
  20857257.250
  20962220.750
 23  2 24 11  0  5.0000000  0 07G01G12G21G25G28G31G32 1.43,-4.0,3.80
  20011184.750
  21126098.750
  20573161.750
  19328686.250
  23351340.250
  23364609.250
  18275004.250
 23  2 24 11 30  5.0000000  0 07G01G22G25G26G28G31G32 1.61,-4.5,3.80
  21353546.250
  19190357.750
  20832805.750
  21369367.250
  18621797.750
  18401554.750
  19882030.750
 23  2 24 12  0 11.0000000  0 05G22G26G28G31G32 +1.800,-4.0,3.80
  21712051.250
  22708998.750
  21422282.750
  21025800.250
  22873027.250
 23  2 24 12 30 11.0000000  0 05G22G26G28G31G32 +1.800,-4.0,3.80
  21024957.250
  20936952.750
  21106143.750
  20600024.750
  22667932.750
 23  2 24 13  0  6.0000000  0 06G04G16G22G28G31G32 1.90,-4.0,3.80
  20849615.250
  19897938.250
  18630314.250
  19081249.750
  18524444.250
  20747003.250
 23  2 24 13 30 10.0000000  0 06G03G16G22G26G28G31 +2.000,-3.0,3.80
  19722965.250
  19880760.250
  20287618.250
  18593365.750
  21027479.250
  20462806.750
 23  2 24 14  0 18.0000000  0 04G04G16G22G26 +2.000,5.0,3.80
  20165218.750
  19076374.250
  21063728.750
  18881563.250
 23  2 24 14 30 10.0000000  0 07G03G04G16G22G26G27G28 1.99,7.0,3.80
  21464557.750
  20162101.250
  19345244.250
  22704869.250
  20205423.250
  22635826.750
  23588627.250
 23  2 24 15  0 13.0000000  0 00 1.99,12.5,3.80
 23  2 24 15 30 13.0000000  0 00 1.98,16.5,3.80
 23  2 24 16  0 13.0000000  0 00 1.98,18.5,3.80
 23  2 24 16 30 13.0000000  0 00 1.97,19.5,3.80
 23  2 24 17  0 13.0000000  0 00 1.97,20.5,3.80
 23  2 24 17 30 13.0000000  0 00 1.96,20.5,3.80
 23  2 24 18  0 13.0000000  0 00 1.96,21.0,3.80
 23  2 24 18 30 13.0000000  0 00 1.95,21.0,3.80
 23  2 24 19  0 13.0000000  0 00 1.95,21.0,3.80
 23  2 24 19 30 13.0000000  0 00 1.94,21.5,3.80
 23  2 24 20  0 13.0000000  0 00 1.94,21.5,3.80
 23  2 24 20 30 13.0000000  0 00 1.93,22.5,3.80
 23  2 24 21  0 13.0000000  0 00 1.93,22.0,3.80
 23  2 24 21 30 13.0000000  0 00 1.92,22.0,3.80
 23  2 24 22  0 13.0000000  0 00 1.92,21.5,3.80
 23  2 24 22 30 13.0000000  0 00 1.91,21.5,3.80
 23  2 24 23  0 13.0000000  0 00 1.91,21.5,3.80
 23  2 24 23 30 13.0000000  0 00 1.90,21.5,3.80
 23  2 25  0  0 13.0000000  0 00 1.90,21.5,3.80
 23  2 25  0 30 22.0000000  0 01G19 1.89,21.5,3.80
  20462277.250
 23  2 25  1  0 13.0000000  0 00 1.89,21.5,3.80
 23  2 25  1 30 13.0000000  0 00 1.88,21.5,3.80
 23  2 25  2  0 13.0000000  0 00 1.88,22.0,3.80
 23  2 25  2 30 22.0000000  0 01G11 1.87,22.0,3.80
  19327739.250
 23  2 25  3  0 13.0000000  0 00 1.87,22.0,3.80
 23  2 25  3 30 13.0000000  0 00 1.86,21.5,3.80
 23  2 25  4  0 13.0000000  0 00 1.86,21.5,3.80
 23  2 25  4 30 13.0000000  0 00 1.85,21.5,3.80
 23  2 25  5  0 13.0000000  0 00 1.85,21.5,3.80
 23  2 25  5 30 13.0000000  0 00 1.84,21.5,3.80
 23  2 25  6  0 13.0000000  0 00 1.84,21.0,3.80
 23  2 25  6 30 13.0000000  0 00 1.83,21.5,3.80
 23  2 25  7  0 13.0000000  0 00 1.83,21.5,3.80
 23  2 25  7 30 13.0000000  0 00 1.82,21.0,3.80
 23  2 25  8  0 13.0000000  0 00 1.82,21.5,3.80
 23  2 25  8 18 52.0000000  0 00 0.00,22.0,3.80,0
 23  2 25  9 19 10.0000000  0 00 0.00,22.0,3.80,0
 23  2 25 10 19 10.0000000  0 00 0.00,22.0,3.80,0
 23  2 25 11 19 10.0000000  0 00 0.00,22.0,3.80,0
 23  2 25 12 19 10.0000000  0 00 0.00,21.5,3.80,0
 23  2 25 13 19 10.0000000  0 00 0.00,21.5,3.80,0
 23  2 25 14 19 10.0000000  0 00 0.00,21.5,3.80,0
 23  2 25 15 19 10.0000000  0 00 0.00,21.5,3.80,0
 23  2 25 16 19 10.0000000  0 00 0.00,21.5,3.80,0
 23  2 25 17 19 10.0000000  0 00 0.00,21.5,3.80,0
 23  2 25 18 19 10.0000000  0 00 0.00,21.5,3.80,0
 23  2 25 19 19 10.0000000  0 00 0.00,21.5,3.80,0
 23  2 25 20 19 10.0000000  0 00 0.00,21.5,3.80,0
 23  2 25 21 19 10.0000000  0 00 0.00,21.5,3.80,0
 23  2 25 22 19 10.0000000  0 00 0.00,21.5,3.80,0
 23  2 25 23 19 10.0000000  0 00 0.00,21.5,3.80,0
 23  2 26  0 19 10.0000000  0 00 0.00,21.5,3.80,0
 23  2 26  1 19 10.0000000  0 00 0.00,21.5,3.80,0
 23  2 26  2 19 10.0000000  0 00 0.00,21.5,3.80,0
 23  2 26  3 19 10.0000000  0 00 0.00,21.5,3.80,0
 23  2 26  4 19 10.0000000  0 00 0.00,21.5,3.80,0
 23  2 26  5 19 10.0000000  0 00 0.00,21.5,3.80,0
 23  2 26  6 19 10.0000000  0 00 0.00,21.5,3.80,0
 23  2 26  7 19 10.0000000  0 00 0.00,21.5,3.80,0
 23  2 26  8 19 10.0000000  0 00 0.00,21.5,3.80,0
 23  2 26  9 19 10.0000000  0 00 0.00,21.5,3.80,0
 23  2 26 10 19 10.0000000  0 00 0.00,21.5,3.80,0
 23  2 26 11 19 10.0000000  0 00 0.00,21.5,3.80,0
 23  2 26 12 19 10.0000000  0 00 0.00,21.5,3.80,0
 23  2 26 13 19 10.0000000  0 00 0.00,21.5,3.80,0
 23  2 26 14 19 10.0000000  0 00 0.00,21.5,3.80,0
 23  2 26 15 19 10.0000000  0 00 0.00,21.5,3.80,0
 23  2 26 16 19 10.0000000  0 00 0.00,21.5,3.80,0
 23  2 26 17 19 10.0000000  0 00 0.00,21.5,3.80,0
 23  2 26 18 19 10.0000000  0 00 0.00,21.5,3.80,0
 23  2 26 19 19 10.0000000  0 00 0.00,21.5,3.80,0
 23  2 26 20 19 10.0000000  0 00 0.00,21.5,3.80,0
 23  2 26 21 19 10.0000000  0 00 0.00,21.5,3.80,0
 23  2 26 22 19 10.0000000  0 00 0.00,21.5,3.80,0
 23  2 26 23 19 10.0000000  0 00 0.00,21.5,3.80,0
 23  2 27  0 19 10.0000000  0 00 0.00,21.5,3.80,0
 23  2 27  1 19 10.0000000  0 00 0.00,21.5,3.80,0
 23  2 27  2 19 10.0000000  0 00 0.00,21.5,3.80,0
 23  2 27  3 19 10.0000000  0 00 0.00,21.5,3.80,0
 23  2 27  4 19 10.0000000  0 00 0.00,21.5,3.80,0
 23  2 27  5 19 10.0000000  0 00 0.00,21.5,3.80,0
 23  2 27  6 19 10.0000000  0 00 0.00,21.5,3.80,0
 23  2 27  7 19 10.0000000  0 00 0.00,21.5,3.80,0
 23  2 27  8 19 10.0000000  0 00 0.00,21.5,3.80,0
 23  2 27  9 19 10.0000000  0 00 0.00,21.5,3.80,0
 23  2 27 10 19 10.0000000  0 00 0.00,22.0,3.80,0
 23  2 27 11 19 10.0000000  0 00 0.00,22.0,3.80,0
 23  2 27 12 19 10.0000000  0 00 0.00,22.0,3.80,0
 23  2 27 13 19 10.0000000  0 00 0.00,22.0,3.80,0
 23  2 27 14 19 10.0000000  0 00 0.00,22.0,3.80,0
 23  2 27 15 19 10.0000000  0 00 0.00,22.5,3.80,0
 23  2 27 16 19 10.0000000  0 00 0.00,22.5,3.80,0
 23  2 27 17 19 10.0000000  0 00 0.00,22.5,3.80,0
 23  2 27 18 19 10.0000000  0 00 0.00,22.5,3.80,0
 23  2 27 19 19 10.0000000  0 00 0.00,22.5,3.80,0
 23  2 27 20 19 10.0000000  0 00 0.00,23.0,3.80,0
 23  2 27 21 19 10.0000000  0 00 0.00,23.0,3.80,0
 23  2 27 22 19 10.0000000  0 00 0.00,23.0,3.80,0
 23  2 27 23 19 10.0000000  0 00 0.00,23.5,3.80,0
 23  2 28  0 19 10.0000000  0 00 0.00,23.0,3.80,0
 23  2 28  1 19 10.0000000  0 00 0.00,23.5,3.80,0
 23  2 28  2 19 10.0000000  0 00 0.00,23.0,3.80,0
 23  2 28  3 19 10.0000000  0 00 0.00,23.0,3.80,0
 23  2 28  4 19 10.0000000  0 00 0.00,23.0,3.80,0
 23  2 28  5 19 10.0000000  0 00 0.00,23.0,3.80,0
 23  2 28  6 19 10.0000000  0 00 0.00,23.0,3.80,0
 23  2 28  7 19 10.0000000  0 00 0.00,23.0,3.80,0
 23  2 28  8 19 10.0000000  0 00 0.00,22.5,3.80,0
 23  2 28  9 19 10.0000000  0 00 0.00,22.5,3.80,0
 23  2 28 10 19 10.0000000  0 00 0.00,22.5,3.80,0
 23  2 28 11 19 10.0000000  0 00 0.00,22.5,3.80,0
 23  2 28 12 19 10.0000000  0 00 0.00,22.5,3.80,0
 23  2 28 13 19 10.0000000  0 00 0.00,22.0,3.80,0
 23  2 28 14 19 10.0000000  0 00 0.00,22.0,3.80,0
 23  2 28 15 19 10.0000000  0 00 0.00,22.5,3.80,0
 23  2 28 16 19 10.0000000  0 00 0.00,22.5,3.80,0
 23  2 28 17  0 14.0000000  0 06G04G07G08G09G27G30 +1.000,19.0,3.80
  23076355.750
  21677970.250
  21025328.750
  21799488.250
  22246946.250
  18161028.250
 23  2 28 17 30 11.0000000  0 07G07G08G09G14G16G21G30 +0.560,19.5,3.80
  18052288.750
  18126492.750
  19437137.250
  21018331.750
  22165339.250
  20463342.250
  20056777.250
 23  2 28 18  0 11.0000000  0 07G01G04G07G09G14G21G30 +0.560,19.0,3.80
  23067086.250
  18279834.750
  19610867.250
  22290670.750
  22059150.750
  21568728.750
  21017836.750
 23  2 28 18 30 22.0000000  0 02G08G21 0.69,19.5,3.80
  21107204.750
  20798421.250
 23  2 28 19  0  6.0000000  0 06G01G08G14G17G21G30 0.82,19.5,3.80
  21998548.750
  23486215.250
  21734379.750
  22354968.750
  22097547.250
  20861628.250
 23  2 28 19 30  7.0000000  0 06G01G07G13G17G21G30 0.94,24.0,3.80
  22282712.250
  22504789.250
  18320380.250
  22484739.250
  23325946.250
  21636270.750
 23  2 28 20  0  8.0000000  0 07G07G13G14G17G19G21G30 1.07,23.5,3.80
  19204740.250
  20205741.250
  23481375.750
  23718899.750
  19888995.750
  19762535.750
  23642516.750
 23  2 28 20 30 15.0000000  0 06G01G07G14G17G19G30 +1.200,21.0,3.80
  21740266.750
  23970105.750
  20871651.750
  21047559.250
  22546786.250
  21873707.750
 23  2 28 21  0 20.0000000  0 06G01G03G06G17G21G30 +1.000,21.0,3.80
  20841651.750
  22945834.750
  21534882.250
  19398607.750
  23818917.250
  21194895.750
 23  2 28 21 30 11.0000000  0 04G01G06G17G19 1.10,21.5,3.80
  22455075.250
  21003665.250
  20126398.750
  20248990.750
 23  2 28 22  0 22.0000000  0 04G03G06G17G19 +1.200,24.0,3.80
  23398112.250
  20891929.250
  21158028.250
  20656495.750
 23  2 28 22 30 28.0000000  0 06G03G06G11G14G17G19 +1.000,26.0,3.80
  24181539.750
  21026366.750
  23650735.250
  22924024.250
  22206654.750
  21165642.250
 23  2 28 23  0 36.0000000  0 04G03G11G17G24 +0.600,27.0,3.80
  23260876.250
  21228622.250
  21239762.750
  22739546.750
 23  2 28 23 30 22.0000000  0 02G06G11 0.60,28.0,3.80
  21334948.250
  22272870.750
 23  3  1  0  0 21.0000000  0 02G06G19 +0.600,28.0,3.80
  21111248.750
  21467871.750
 23  3  1  0 30 22.0000000  0 01G20 0.80,27.5,3.80
  18990429.250
 23  3  1  1  0 11.0000000  0 06G06G11G12G17G20G25 +1.000,21.0,3.80
  22506394.250
  21026694.750
  21431343.250
  19240127.250
  21096947.250
  22522416.750
 23  3  1  1 30  8.0000000  0 07G02G06G11G12G19G25G29 0.93,17.5,3.80
  22483461.250
  21320782.250
  19261039.250
  19710141.750
  21777156.750
  20197126.250
  22470672.750
 23  3  1  2  0  7.0000000  0 07G02G11G12G19G20G25G29 0.85,17.5,3.80
  22876321.250
  20707889.250
  21427701.750
  23917802.750
  19813631.750
  21334245.750
  22469818.750
 23  3  1  2 30  7.0000000  0 06G06G11G12G20G25G29 0.78,17.0,3.80
  19087626.750
  22219230.750
  23376260.250
  21120416.250
  22793823.750
  22495132.750
 23  3  1  3  0  5.0000000  0 07G02G12G13G15G20G25G29 0.70,16.0,3.80
  18164397.750
  19921688.250
  18653688.250
  19372519.250
  23102227.250
  18984429.750
  23124933.250
 23  3  1  3 30  5.0000000  0 07G02G11G13G15G20G25G29 0.63,15.5,3.80
  18350703.250
  19640274.250
  18376473.250
  18780873.750
  18503775.250
  20595849.750
  23267598.250
 23  3  1  4  0  5.0000000  0 07G05G11G13G18G20G23G29 0.55,14.5,3.80
  23959859.250
  20908703.750
  18199474.250
  20054095.750
  19809133.750
  21121071.250
  23568689.750
 23  3  1  4 30 11.0000000  0 07G02G05G11G13G18G23G29 +0.480,13.5,3.80
  19992951.750
  20497057.250
  23655861.250
  19803717.250
  21017976.750
  22034885.750
  19662313.250
 23  3  1  5  0 10.0000000  0 07G02G05G13G15G20G23G29 0.48,13.5,3.80
  18451153.250
  19864514.250
  18560702.750
  23470165.250
  22040151.250
  19801867.750
  18856492.250
 23  3  1  5 30  5.0000000  0 08G05G10G13G15G18G23G24G29 0.48,13.5,3.80
  20720055.750
  21760785.250
  19140527.750
  23520554.250
  18124557.750
  19129242.250
  21215207.750
  19786925.250
 23  3  1  6  0  5.0000000  0 07G02G05G13G18G23G24G29 0.48,13.5,3.80
  18993543.250
  21718256.250
  20144898.750
  23786382.750
  18695481.250
  20219317.250
  21033569.250
 23  3  1  6 30  5.0000000  0 07G02G10G15G23G24G27G32 0.48,13.5,3.80
  19725434.750
  20369861.250
  18956466.250
  18418991.250
  19435900.250
  21073899.250
  21947314.250
 23  3  1  7  0 11.0000000  0 06G02G10G18G23G27G32 +0.480,13.5,3.80
  21946007.250
  21018041.250
  19359361.750
  19527616.750
  22241382.250
  22226237.750
 23  3  1  7 30  5.0000000  0 06G02G10G15G18G23G24 0.52,13.0,3.80
  21764120.750
  19156440.750
  21173004.750
  18712497.250
  18208750.250
  18823444.250
 23  3  1  8  0  5.0000000  0 07G10G18G22G23G24G27G32 0.56,12.5,3.80
  18438406.250
  19436314.250
  20944077.750
  18119359.250
  18923117.750
  21549275.750
  19197569.750
 23  3  1  8 30 14.0000000  0 05G08G10G18G22G28 +0.600,12.0,3.80
  19528202.250
  21073227.750
  23623013.250
  23150136.250
  24139355.750
 23  3  1  9  0  8.0000000  0 07G21G22G23G24G25G31G32 0.86,11.5,3.80
  20718251.750
  18591835.250
  18083141.250
  19747547.750
  20581489.750
  19909862.250
  23518915.250
 23  3  1  9 30  5.0000000  0 06G12G21G22G23G31G32 1.12,11.5,3.80
  19647058.750
  19377053.250
  23312851.250
  18069057.750
  23894539.750
  22622647.250
 23  3  1 10  0  5.0000000  0 07G10G12G21G23G25G31G32 1.38,11.0,3.80
  21673559.750
  18539706.250
  18198397.750
  18135630.750
  23369660.250
  21976577.750
  21752700.750
 23  3  1 10 30  5.0000000  0 07G01G10G12G21G23G25G32 1.63,10.5,3.80
  22111438.250
  20622189.750
  23030787.750
  22540820.750
  23575757.250
  21374958.250
  20234926.750
 23  3  1 11  0  9.0000000  0 07G01G10G21G22G25G26G31 1.89,10.5,3.80
  22348755.750
  21823018.250
  23148593.750
  20274062.750
  21763840.250
  22822778.250
  19511930.750
 23  3  1 11 30  5.0000000  0 07G01G03G10G21G22G26G32 2.15,10.0,3.80
  20272795.750
  20179689.750
  20534502.750
  21275574.250
  23832608.250
  19199684.250
  18839989.250
 23  3  1 12  0  7.0000000  0 07G01G03G21G22G26G28G31 2.41,9.5,3.80
  20276123.250
  18557967.250
  21301214.750
  23283588.250
  23518368.750
  23240056.750
  22752023.750
 23  3  1 12 30  7.0000000  0 06G03G16G22G26G31G32 2.67,9.5,3.80
  22156716.750
  23588663.750
  21817189.750
  21077404.750
  21587498.250
  23771837.250
 23  3  1 13  0  8.0000000  0 07G03G04G16G26G28G31G32 2.93,9.0,3.80
  19201698.250
  20802687.750
  19683946.750
  18084286.250
  20248415.750
  19655340.750
  21995091.750
 23  3  1 13  8 18.0000000  0 00 +3.000,10.0,3.80,1,66977,-5051741,3880255,6,1.6
 23  3  1 13 30 11.0000000  0 07G03G04G22G26G27G28G29 -2.480,10.5,3.80
  20132921.250
  20655307.750
  21018415.250
  18965566.750
  23647764.750
  21874558.250
  23777501.250
 23  3  1 14  0 10.0000000  0 07G03G04G16G22G26G28G31 -2.34,14.5,3.80
  19249604.750
  18425085.750
  23473971.750
  20436733.750
  18023317.750
  21338763.750
  20772447.750
 23  3  1 14 30 19.0000000  0 06G07G08G16G22G27G31 -2.200,16.0,3.80
  21502208.250
  21161269.750
  22827824.250
  20995965.750
  19429157.750
  21249417.250
 23  3  1 15  0  6.0000000  0 06G04G07G08G09G16G27 -2.10,18.5,3.80
  23553884.750
  21218287.250
  20434351.750
  19080983.250
  23566469.250
  18995336.750
 23  3  1 15 30 17.0000000  0 07G04G07G08G09G16G26G27 -2.000,19.5,3.80
  18321277.250
  21131669.750
  20001476.250
  19098777.750
  18863373.250
  21631779.250
  19069691.750
 23  3  1 16  0 13.0000000  0 00 -2.07,19.5,3.80
 23  3  1 16 30 13.0000000  0 00 -2.15,19.0,3.80
 23  3  1 17  0 22.0000000  0 00 -2.23,19.0,3.80
 23  3  1 17 30 13.0000000  0 00 -2.30,19.5,3.80
 23  3  1 18  0 13.0000000  0 00 -2.37,20.0,3.80
 23  3  1 18 30 13.0000000  0 00 -2.45,20.0,3.80
 23  3  1 19  0 13.0000000  0 00 -2.52,20.5,3.80
 23  3  1 19 30 22.0000000  0 01G19 -2.600,20.5,3.80
  21086060.750
 23  3  1 20  0 20.0000000  0 01G19 -2.600,21.0,3.80
  21086175.250
 23  3  1 20 30 13.0000000  0 00 -2.52,21.0,3.80
 23  3  1 21  0 13.0000000  0 00 -2.44,21.0,3.80
 23  3  1 21 30  9.0000000  0 08G01G03G06G14G17G19G24G30 -2.36,21.5,3.80
  19599424.750
  19864312.750
  23865748.250
  23189859.250
  23140622.250
  23175040.750
  20066927.750
  20084408.750
 23  3  1 22  0  8.0000000  0 06G01G03G06G14G17G19 -2.28,18.0,3.80
  22059185.250
  20844664.250
  18259739.750
  18986898.750
  18655134.250
  18081010.250
 23  3  1 22 30 23.0000000  0 05G03G06G14G17G19 -2.200,20.5,3.80
  21097362.750
  23849245.250
  19920337.250
  19133593.750
  18029657.750
 23  3  1 23  0 12.0000000  0 04G03G11G17G19 +2.000,22.5,3.80
  23250547.250
  21026945.250
  21204242.250
  19668449.750
 23  3  1 23 30  8.0000000  0 06G06G11G17G19G20G24 2.00,23.0,3.80
  22370796.750
  23193122.250
  18644678.250
  22762835.750
  19302715.750
  20159208.250
 23  3  2  0  0 13.0000000  0 04G06G11G12G17 +2.000,23.5,3.80
  21028061.250
  20962242.750
  21839455.250
  23511815.750
 23  3  2  0 30 13.0000000  0 06G05G09G11G12G17G19 2.00,23.0,3.80
  22842325.750
  18047666.750
  19831774.250
  20382178.250
  20927502.250
  21014379.250
 23  3  2  1  0 17.0000000  0 06G02G05G06G09G11G20 +2.000,23.5,3.80
  25228300.750
  22885893.750
  22727498.250
  18981730.250
  21159966.750
  21134566.250
 23  3  2  1 30 16.0000000  0 07G02G05G06G11G12G19G20 +2.000,23.5,3.80
  22055490.750
  19432505.750
  21102881.250
  18973113.750
  19445614.250
  21577700.750
  18398692.750
 23  3  2  2  0  8.0000000  0 08G02G05G06G11G12G20G25G29 1.97,18.5,3.80
  20260430.750
  23576453.750
  20813942.750
  18240980.750
  19013953.750
  23303870.750
  18846538.750
  19795468.750
 23  3  2  2 30 10.0000000  0 07G02G11G12G13G15G20G29 1.94,18.0,3.80
  21452900.750
  20543766.250
  21781588.750
  22426616.750
  23334541.750
  19431321.750
  20622916.250
 23  3  2  3  0 10.0000000  0 07G02G11G12G13G20G25G29 1.91,18.5,3.80
  21508222.250
  21762415.250
  23501459.750
  21918053.250
  20604865.250
  22526091.750
  20449092.250
 23  3  2  3 30  6.0000000  0 06G02G05G12G13G15G20 1.89,18.0,3.80
  22153300.750
  20918757.250
  19768370.250
  22125783.250
  22483214.250
  22466898.250
 23  3  2  4  0  8.0000000  0 06G02G13G15G18G20G23 1.86,18.0,3.80
  22967038.250
  22729695.250
  22647968.250
  18531876.750
  18518539.250
  19589085.750
 23  3  2  4 30  8.0000000  0 07G02G05G13G15G18G23G29 1.83,17.5,3.80
  23820544.750
  18454426.250
  23653653.250
  23050112.750
  18766311.750
  19783700.250
  23583677.250
 23  3  2  5  0 11.0000000  0 06G02G10G13G15G23G29 +1.800,17.0,3.80
  21025015.750
  19122688.750
  21189418.250
  20031087.750
  22282875.750
  21549961.750
 23  3  2  5 30 11.0000000  0 04G13G15G24G29 +1.800,17.0,3.80
  22707642.250
  21025115.250
  18519983.250
  23407227.250
 23  3  2  6  0  7.0000000  0 06G02G05G15G23G24G29 1.65,16.5,3.80
  21162740.250
  23940906.750
  20259197.750
  20737446.750
  22179558.250
  23310605.750
 23  3  2  6 30  6.0000000  0 06G02G10G13G15G24G29 1.50,16.0,3.80
  22589234.250
  23035698.250
  18301464.250
  21836315.750
  22092262.250
  19331249.750
 23  3  2  7  0 10.0000000  0 07G02G08G10G15G18G24G27 1.35,15.5,3.80
  20039837.250
  21868967.250
  18892817.250
  19402341.250
  23375756.750
  18124641.750
  20213388.250
 23  3  2  7 30 13.0000000  0 07G10G15G18G22G23G27G32 +1.200,15.0,3.80
  21049828.750
  23299013.750
  20795840.250
  23931247.750
  20181091.250
  23242727.750
  21959120.250
 23  3  2  8  0 12.0000000  0 06G08G10G22G23G24G32 +2.000,14.0,3.80
  18885644.250
  21046147.750
  23495184.750
  20817750.750
  21664795.750
  21793106.250
 23  3  2  8 30  6.0000000  0 08G10G18G22G23G24G27G28G31 2.00,13.5,3.80
  22661259.750
  19420342.250
  18689367.250
  23136244.250
  18392202.750
  21092015.250
  19605253.750
  20643195.250
 23  3  2  9  0  6.0000000  0 06G10G23G24G25G31G32 2.00,12.5,3.80
  22055338.250
  23264541.250
  18995755.250
  19548098.250
  18856840.750
  22594437.250
 23  3  2  9 30  6.0000000  0 06G10G22G23G25G28G31 2.00,12.0,3.80
  22018528.250
  23009957.250
  23935274.750
  18567626.250
  22863017.250
  23514189.750
 23  3  2 10  0  6.0000000  0 07G01G10G21G22G23G28G32 2.00,11.0,3.80
  18058577.750
  21624216.250
  18073194.250
  21893269.250
  18163451.250
  21382362.750
  21650011.250
 23  3  2 10 30  8.0000000  0 06G01G10G21G22G26G32 2.00,10.5,3.80
  22307626.750
  20953796.750
  22798782.250
  20318363.250
  23860115.250
  20488318.750
 23  3  2 11  0 11.0000000  0 07G01G03G10G12G21G26G32 2.00,10.0,3.80
  21312597.750
  22515331.750
  20898556.750
  22916162.250
  22152791.250
  21583159.750
  19801856.250
 23  3  2 11 30  8.0000000  0 08G01G03G21G22G26G28G31G32 2.00,9.5,3.80
  20035069.750
  19717761.750
  21052986.250
  23517724.250
  18725120.250
  23167339.250
  22795329.750
  18585822.750
 23  3  2 12  0  8.0000000  0 06G01G03G16G21G22G31 2.00,8.5,3.80
  18833356.750
  22886454.250
  18942147.250
  19848495.250
  21746715.750
  21245325.250
 23  3  2 12 30 14.0000000  0 04G03G22G26G28 +2.000,8.5,3.80
  20911027.250
  20679716.250
  19820598.750
  21065680.750
 23  3  2 13  0 10.0000000  0 06G03G04G16G26G31G32 1.90,8.0,3.80
  23425008.250
  18901282.750
  23755343.250
  22295458.750
  23969304.250
  20351408.750
 23  3  2 13 30 12.0000000  0 05G03G04G16G26G31 +1.800,7.5,3.80
  20680130.750
  21023688.250
  19887721.750
  19502098.250
  21880645.750
 23  3  2 14  0 14.0000000  0 07G03G04G07G26G27G28G31 1.62,11.0,3.80
  19381999.250
  18354565.750
  22690925.750
  18146919.750
  20901233.250
  21496956.250
  20911286.750
 23  3  2 14 30 11.0000000  0 07G04G07G08G09G16G27G28 +1.440,12.0,3.80
  18946695.750
  23042721.750
  22644498.250
  21017988.250
  18492204.750
  20939952.250
  23571457.250
 23  3  2 15  0  6.0000000  0 06G03G08G09G16G26G27 1.58,13.5,3.80
  19944682.250
  18867198.750
  23560558.250
  22226051.250
  18572058.750
  23480082.250
 23  3  2 15 30  6.0000000  0 06G04G07G08G09G16G27 1.72,10.5,3.80
  23308922.250
  19979903.750
  18823264.250
  23982986.750
  23916405.750
  23968806.750
 23  3  2 16  0  7.0000000  0 06G04G07G08G09G16G27 1.86,9.0,3.80
  20715506.250
  22123924.750
  20879747.250
  20609247.250
  21700058.750
  20734007.250
 23  3  2 16 30 12.0000000  0 06G04G07G08G14G27G30 +2.000,12.0,3.80
  22195495.750
  22047466.750
  21026781.250
  19642455.250
  21678029.250
  24798554.750
 23  3  2 17  0  6.0000000  0 06G04G08G09G16G27G30 1.70,13.5,3.80
  22308534.750
  19974881.250
  20899854.750
  23447910.250
  21403925.250
  22823907.250
 23  3  2 17 30 15.0000000  0 06G07G08G09G14G27G30 +1.400,15.0,3.80
  20745451.750
  21053366.250
  22485209.750
  23584229.750
  23157894.750
  22598972.750
 23  3  2 18  0 22.0000000  0 02G08G30 1.70,15.5,3.80
  21736005.250
  21744436.750
 23  3  2 18 30 12.0000000  0 04G07G17G21G30 +2.000,16.0,3.80
  21027747.750
  23400289.750
  22441874.250
  21497674.750
 23  3  2 19  0 25.0000000  0 07G07G08G13G14G17G21G30 +1.600,16.0,3.80
  21582186.250
  18264677.750
  18017966.250
  22034423.750
  22584277.750
  22620620.250
  21253884.250
 23  3  2 19 30 11.0000000  0 07G01G07G13G17G19G21G30 +1.440,17.0,3.80
  20457855.250
  21018334.250
  22573033.750
  20584209.250
  23171237.750
  21748838.750
  19935375.750
 23  3  2 20  0 16.0000000  0 05G01G07G19G21G30 +1.200,19.0,3.80
  19476110.250
  21107127.250
  21189667.750
  21585823.750
  19372180.750
 23  3  2 20 30  6.0000000  0 06G01G07G13G14G17G30 1.40,18.0,3.80
  19417668.250
  21837886.750
  21972375.250
  18378103.750
  18542401.250
  19626697.750
 23  3  2 21  0  6.0000000  0 07G01G06G13G14G17G19G30 1.60,19.5,3.80
  20914373.750
  21045511.250
  23432851.750
  19154019.750
  19243234.750
  19855256.250
  21320175.750
 23  3  2 21 30 12.0000000  0 04G06G11G17G19 +1.800,20.5,3.80
  21636198.750
  19239646.250
  21080414.250
  21024076.750
 23  3  2 22  0 12.0000000  0 04G06G11G17G19 +1.800,18.0,3.80
  21024412.250
  18148754.750
  21553826.250
  20899188.250
 23  3  2 22 30 22.0000000  0 02G03G17 1.80,16.5,3.80
  20468161.750
  18510247.250
 23  3  2 23  0 31.0000000  0 04G06G11G17G19 +1.800,17.5,3.80
  19666529.750
  21253664.750
  21625325.250
  20035667.250
 23  3  2 23 30 30.0000000  0 04G06G11G17G19 +1.600,18.0,3.80
  20580622.750
  21269663.250
  22888245.250
  20969921.250
 23  3  3  0  0  8.0000000  0 06G06G11G12G17G19G20 1.70,16.5,3.80
  21431155.250
  21252008.250
  22077550.750
  23932320.750
  21774123.250
  22570253.250
 23  3  3  0 30 11.0000000  0 06G06G11G12G19G20G25 +1.800,15.5,3.80
  21025022.750
  20049084.250
  20565846.750
  21332411.250
  20620215.250
  22079257.250
 23  3  3  1  0 22.0000000  0 02G05G11 +1.200,15.0,3.80
  21118553.750
  19573879.250
 23  3  3  1 30 11.0000000  0 04G11G12G20G25 +1.800,16.0,3.80
  20197771.250
  20701307.750
  19568084.750
  21024880.250
 23  3  3  2  0 13.0000000  0 00 1.81,20.5,3.80
 23  3  3  2 30  8.0000000  0 07G02G12G13G15G20G25G29 1.82,22.0,3.80
  21223665.250
  21774039.750
  22123957.250
  23003869.750
  19350007.750
  21077662.750
  20351507.750
 23  3  3  3  0  5.0000000  0 07G02G11G12G15G18G20G29 1.83,16.0,3.80
  20648292.750
  21069270.250
  22854423.750
  21633262.250
  23142109.750
  19910435.250
  19571798.750
 23  3  3  3 30  6.0000000  0 07G05G13G15G18G23G25G29 1.83,13.5,3.80
  20013071.750
  21056257.750
  21353184.750
  23150853.750
  18297225.250
  23754387.250
  20078274.250
 23  3  3  4  0  5.0000000  0 06G05G11G15G18G20G23 1.84,12.0,3.80
  20300803.250
  23302761.750
  20095421.750
  21972254.250
  22208229.750
  23009663.250
 23  3  3  4 30  5.0000000  0 07G02G13G15G18G20G23G29 1.85,11.5,3.80
  19654043.750
  19521284.750
  18836779.250
  20503485.750
  22508366.750
  21509685.250
  19502958.750
 23  3  3  5  0  6.0000000  0 06G02G05G15G18G23G29 1.86,11.0,3.80
  18740909.250
  20386263.750
  23729065.750
  18879133.250
  19890279.750
  19369360.250
 23  3  3  5 30  6.0000000  0 07G02G10G13G18G23G24G29 1.87,10.0,3.80
  23731859.750
  20648038.750
  18486855.750
  23101083.750
  18091193.750
  20022934.250
  19208246.750
 23  3  3  6  0  6.0000000  0 07G02G10G15G23G24G27G29 1.88,10.0,3.80
  22116276.250
  23790413.250
  21239591.750
  21556743.750
  22927863.250
  18327245.250
  18356448.750
 23  3  3  6 30  5.0000000  0 08G02G10G15G18G23G24G27G32 1.89,9.5,3.80
  21088664.250
  21325953.250
  20365073.750
  18955859.750
  19491741.250
  20394688.750
  22138383.750
  22793252.250
 23  3  3  7  0  6.0000000  0 06G02G10G15G18G23G32 1.90,8.5,3.80
  20092610.750
  18723416.750
  19478280.250
  23359275.250
  23367125.250
  19844810.750
 23  3  3  7 30  8.0000000  0 07G08G10G18G23G24G27G32 1.90,8.5,3.80
  19364544.250
  22021513.250
  21949835.250
  21237996.250
  21881073.750
  18345878.250
  22896241.250
 23  3  3  8  0  5.0000000  0 06G10G18G22G24G27G32 1.91,8.0,3.80
  19475485.250
  20884179.250
  21852717.250
  20237626.750
  22894429.750
  20199528.750
 23  3  3  8 30  8.0000000  0 06G10G18G24G25G31G32 1.92,8.0,3.80
  22420019.250
  19380775.750
  18324167.250
  20620557.750
  20257107.250
  23047378.250
 23  3  3  9  0 10.0000000  0 07G10G12G21G22G25G28G32 1.93,8.0,3.80
  19724250.250
  23550218.250
  23301756.250
  21199402.750
  23089921.750
  21482719.250
  20240988.250
 23  3  3  9 30  5.0000000  0 06G10G22G23G25G28G31 1.94,7.5,3.80
  23649538.750
  18549206.750
  19662095.250
  20068677.250
  18339650.750
  18973199.250
 23  3  3 10  0  5.0000000  0 07G10G21G22G23G28G31G32 1.95,7.5,3.80
  21259613.250
  23615663.750
  21413423.250
  23869562.250
  20864826.250
  21216469.750
  21232059.250
 23  3  3 10 30  5.0000000  0 07G10G21G22G25G26G31G32 1.96,7.0,3.80
  19087216.250
  20845235.750
  18318273.750
  19604906.250
  21700921.250
  23701827.250
  18550652.750
 23  3  3 11  0  8.0000000  0 07G01G10G22G25G26G31G32 1.97,7.0,3.80
  23177472.750
  22881147.250
  21031955.750
  22636292.750
  23247296.750
  20254383.750
  21701215.250
 23  3  3 11 30  6.0000000  0 06G01G21G26G28G31G32 1.97,7.0,3.80
  20924394.250
  21950541.250
  19390587.250
  18048917.250
  23643129.250
  19484273.750
 23  3  3 12  0  5.0000000  0 08G01G03G16G22G26G28G31G32 1.98,7.0,3.80
  18067401.750
  21915800.250
  23869978.250
  20915760.750
  20859050.750
  20977596.750
  20441282.750
  22519127.250
 23  3  3 12 30  5.0000000  0 07G03G16G22G26G28G31G32 1.99,7.0,3.80
  18435884.750
  19615822.750
  18318464.250
  23337868.250
  18752985.250
  18145249.750
  20392112.750
 23  3  3 13  0 11.0000000  0 07G03G04G16G22G26G28G31 +2.000,7.0,3.80
  20847611.750
  22189666.250
  21025655.750
  21402441.750
  19719610.750
  22130677.250
  21499622.750
 23  3  3 13 30  6.0000000  0 06G03G04G16G22G26G28 2.00,7.0,3.80
  18950290.750
  19130238.250
  18006265.250
  19951454.750
  23773574.250
  20835555.250
 23  3  3 14  0  5.0000000  0 06G03G04G07G09G22G27 2.00,7.0,3.80
  22632733.250
  21415602.250
  19729455.750
  23928980.750
  23894614.250
  23906864.750
 23  3  3 14 30 11.0000000  0 08G04G07G09G16G22G26G27G31 2.00,7.5,3.80
  18481557.750
  22516016.750
  20467298.250
  18102011.750
  22553908.250
  19842418.250
  20399964.250
  22709709.750
 23  3  3 15  0 11.0000000  0 05G04G08G09G16G27 +2.000,12.5,3.80
  19775953.250
  22345644.250
  21100314.750
  19945063.250
  21025095.750
 23  3  3 15 30 11.0000000  0 04G04G07G09G16 +2.000,14.0,3.80
  20459935.750
  22969752.250
  21025295.250
  21134544.250
 23  3  3 16  0  6.0000000  0 07G04G07G08G09G16G27G30 1.70,13.5,3.80
  22889228.250
  18104233.250
  22869562.750
  22680409.750
  23915671.250
  22829096.250
  21106129.750
 23  3  3 16 30 14.0000000  0 06G04G08G09G16G27G30 +1.400,14.0,3.80
  21967808.250
  20627882.750
  21051358.250
  23143462.750
  21389893.250
  18299695.750
 23  3  3 17  0 26.0000000  0 06G04G07G08G09G27G30 +1.600,14.5,3.80
  23760190.250
  21649479.250
  21272696.250
  22279867.750
  22808228.250
  23946289.250
 23  3  3 17 30 11.0000000  0 04G07G09G21G30 +2.000,17.0,3.80
  18795998.250
  20714778.750
  21025285.250
  20563694.750
 23  3  3 18  0 11.0000000  0 04G07G08G17G21 +2.000,18.5,3.80
  19703854.250
  21026183.250
  23124934.250
  21485913.750
 23  3  3 18 30 12.0000000  0 06G01G07G08G14G17G21 +2.000,18.0,3.80
  21463555.250
  19662975.750
  21802785.250
  21017752.750
  21851465.250
  21025830.750
 23  3  3 19  0 11.0000000  0 06G01G07G17G19G21G30 +2.000,16.5,3.80
  20537295.250
  20027657.750
  20844367.750
  23843241.750
  21026004.750
  19597353.250
 23  3  3 19 30 12.0000000  0 06G01G14G17G19G21G30 +2.000,15.5,3.80
  20957618.250
  20731371.250
  21043422.750
  23550723.750
  22370691.250
  20497667.250
 23  3  3 20  0 11.0000000  0 06G01G07G13G17G21G30 +1.560,16.5,3.80
  21018272.750
  22776191.250
  23452639.750
  20679421.750
  23222382.250
  20963237.750
 23  3  3 20 30 11.0000000  0 06G01G03G06G13G17G30 +2.000,16.5,3.80
  20783557.250
  23841297.750
  22702531.250
  23341380.250
  19805298.750
  21026367.750
 23  3  3 21  0  9.0000000  0 07G01G03G06G14G17G19G30 2.00,17.0,3.80
  20034052.750
  21479854.250
  19863175.750
  18167522.250
  18239559.250
  18754749.750
  20457380.250
 23  3  3 21 30 11.0000000  0 04G06G11G19G30 +2.000,16.5,3.80
  21564349.750
  25115189.250
  21025884.250
  24382097.750
 23  3  3 22  0 11.0000000  0 06G03G06G11G14G17G19 +2.000,16.5,3.80
  23785961.250
  21025763.750
  18068899.250
  22133251.250
  21689945.750
  20962460.250
 23  3  3 22 30 35.0000000  0 03G03G11G14 +2.000,16.5,3.80
  22478563.750
  18966306.750
  21463643.250
 23  3  3 23  0 20.0000000  0 05G03G06G11G14G17 +1.400,16.0,3.80
  23168247.250
  19038008.250
  20511562.750
  22599848.250
  21051965.750
 23  3  3 23 30 40.0000000  0 03G06G19G20 +1.200,16.5,3.80
  21065049.750
  21450321.250
  23548769.250
 23  3  4  0  0 30.0000000  0 05G06G11G17G19G20 +1.200,16.0,3.80
  20858643.250
  20554735.750
  23377852.250
  21194202.250
  21763705.250
 23  3  4  0 30 27.0000000  0 04G05G06G11G17 +2.000,15.5,3.80
  21303713.250
  19733721.750
  18650826.750
  22372967.250
 23  3  4  1  0  7.0000000  0 06G05G06G11G12G19G20 1.92,14.0,3.80
  20958959.750
  21315077.750
  19581778.750
  19974810.250
  21678070.250
  19394585.250
 23  3  4  1 30  9.0000000  0 07G02G05G11G12G19G20G29 1.84,13.0,3.80
  22255848.750
  19595451.250
  19446547.750
  19991361.250
  22254481.250
  18762638.750
  22069382.750
 23  3  4  2  0 26.0000000  0 02G02G29 1.76,14.0,3.80
  21261251.750
  20676283.750
 23  3  4  2 30  8.0000000  0 06G05G12G13G20G25G29 1.68,13.5,3.80
  23872515.250
  21023651.250
  21060203.250
  18508885.250
  20275327.750
  19329731.750
 23  3  4  3  0  5.0000000  0 06G02G05G12G15G25G29 1.60,13.5,3.80
  19740227.750
  23938657.250
  22182385.750
  20623644.250
  21137878.250
  18650262.250
 23  3  4  3 30 11.0000000  0 06G11G13G15G23G25G29 +1.520,13.0,3.80
  22655699.750
  20770221.250
  21017894.750
  23969551.750
  23718746.250
  19861765.250
 23  3  4  4  0  8.0000000  0 06G11G13G15G18G20G23 1.76,12.5,3.80
  21660240.250
  18447578.250
  18230625.750
  20097065.750
  20561722.250
  21132567.250
 23  3  4  4 30 11.0000000  0 05G02G05G15G23G29 +2.000,12.0,3.80
  21068093.750
  21957901.250
  20213842.250
  22839351.250
  21026590.250
 23  3  4  5  0 11.0000000  0 04G02G13G15G18 +2.000,11.5,3.80
  22043403.750
  22332994.750
  21026260.250
  22079957.250
 23  3  4  5 30 11.0000000  0 04G10G13G18G29 +2.000,11.0,3.80
  18531267.250
  22585233.250
  21025947.750
  23364133.250
 23  3  4  6  0  9.0000000  0 06G02G18G23G24G29G32 2.00,10.0,3.80
  22042064.750
  20527192.250
  21347059.250
  22643289.750
  18386042.750
  19368473.250
 23  3  4  6 30  7.0000000  0 06G02G10G15G18G24G27 2.00,9.5,3.80
  21132650.750
  21161403.750
  20416586.750
  18908396.750
  20233270.250
  22036043.250
 23  3  4  7  0 10.0000000  0 06G02G10G15G18G23G24 2.00,8.5,3.80
  20128758.250
  18527174.250
  19509636.250
  23325739.750
  23238615.250
  23861384.750
 23  3  4  7 30 10.0000000  0 07G10G18G22G23G24G27G32 2.00,7.5,3.80
  21510565.250
  21636987.750
  18269747.750
  20807056.250
  21469396.250
  23981426.750
  22369827.250
 23  3  4  8  0 11.0000000  0 04G18G22G27G32 +2.000,7.0,3.80
  21026413.250
  21722940.750
  22987783.250
  20113457.250
 23  3  4  8 30 11.0000000  0 06G10G22G27G28G31G32 +1.560,6.0,3.80
  19121340.250
  21018011.250
  23853761.250
  21782709.750
  22832090.750
  19743222.750
 23  3  4  9  0 10.0000000  0 06G10G21G25G28G31G32 +2.000,5.5,3.80
  18536117.750
  22032671.750
  21776287.250
  20158656.750
  21025016.250
  19036562.250
 23  3  4  9 30  5.0000000  0 06G10G22G23G25G28G31 2.05,5.0,3.80
  19994681.250
  20803914.750
  22092930.750
  22271584.250
  20539959.750
  21157562.250
 23  3  4 10  0  8.0000000  0 08G01G10G12G21G22G28G31G32 2.10,4.5,3.80
  22985041.250
  20860018.750
  23521434.750
  23139386.750
  20898377.250
  20322089.750
  20649456.250
  20768474.250
 23  3  4 10 30 11.0000000  0 05G01G10G26G28G31 2.1500,4.0,3.80
  22097103.750
  21016706.750
  23335879.250
  19432139.250
  19465408.250
 23  3  4 11  0 11.0000000  0 07G01G10G21G26G28G31G32 +2.200,3.5,3.80
  20120182.250
  19931790.750
  21027865.750
  19978318.250
  25760047.250
  25533057.250
  18646943.250
 23  3  4 11 30 10.0000000  0 07G01G03G10G22G26G28G31 2.20,3.0,3.80
  21083089.250
  20324347.750
  21606603.750
  18426820.250
  19310739.250
  18167777.750
  23736409.250
 23  3  4 12  0 11.0000000  0 05G01G16G26G31G32 +2.200,2.5,3.80
  21539356.250
  21026016.250
  18100093.250
  23842376.750
  19957629.250
 23  3  4 12 30 11.0000000  0 05G16G22G26G28G31 +2.200,2.0,3.80
  23179659.250
  22110331.250
  21026061.250
  22588629.250
  21961358.750
 23  3  4 13  0 11.0000000  0 06G03G04G16G22G26G31 +2.200,1.5,3.80
  20999993.250
  22198275.750
  21025653.750
  21619584.750
  19858651.750
  21722972.750
 23  3  4 13 28 51.0000000  0 00 +4.000,2.5,3.80,1,74531,-5049894,3882277,5,9.0
 23  3  4 14 30  9.0000000  0 06G03G04G08G09G16G27 -0.56,5.5,3.80
  19054217.250
  22195586.750
  19663885.250
  18108177.750
  21884286.750
  18024732.250
 23  3  4 15  0 10.0000000  0 04G04G07G26G27 -2.800,7.5,3.80
  21025078.250
  18379143.750
  23763173.750
  22181862.750
 23  3  4 15 30 11.0000000  0 06G04G07G08G09G16G27 +0.800,8.0,3.80
  19869806.750
  22220040.750
  21018173.250
  20329103.750
  20607358.750
  20347836.750
 23  3  4 16  0 16.0000000  0 05G07G09G16G27G30 +1.400,9.5,3.80
  21055158.250
  19741550.250
  21122148.250
  19916166.250
  24020820.750
 23  3  4 16 30 10.0000000  0 06G07G08G09G16G27G30 1.35,9.0,3.80
  18660005.250
  23756218.750
  18263863.750
  20450383.250
  18629527.250
  21316514.250
 23  3  4 17  0 10.0000000  0 07G04G08G09G14G21G27G30 1.30,19.0,3.80
  20313055.250
  23698396.250
  18776932.750
  21141655.750
  20583238.750
  19329951.250
  20222286.250
 23  3  4 17 30  6.0000000  0 07G01G07G08G09G21G27G30 1.25,24.5,3.80
  22610924.750
  18704697.750
  19248659.750
  20796776.750
  20865802.750
  21506639.250
  20396414.750
 23  3  4 18  0 11.0000000  0 05G07G08G09G17G21 +1.200,23.5,3.80
  21024664.750
  22464965.250
  18358605.750
  18296158.250
  22740075.750
 23  3  4 18 30 13.0000000  0 06G07G08G13G17G21G30 +0.600,22.0,3.80
  19747196.250
  21975130.750
  22867490.250
  21762692.250
  21050161.250
  19998361.250
 23  3  4 19  0 11.0000000  0 04G17G19G21G30 +1.200,23.5,3.80
  20702699.750
  23640876.250
  21025137.750
  19538098.250
 23  3  4 19 30  9.0000000  0 08G01G07G13G14G17G19G21G30 1.20,24.0,3.80
  19838092.750
  20717371.250
  22041693.750
  19585374.250
  19880363.250
  22307601.750
  21367919.750
  19437896.250
 23  3  4 20  0 11.0000000  0 05G01G17G19G21G30 +1.200,23.5,3.80
  21032473.750
  20619041.750
  22418578.750
  23328312.250
  21025321.750
 23  3  4 20 30 11.0000000  0 06G01G06G13G14G19G30 +1.400,27.0,3.80
  20997196.750
  22640660.250
  23556967.750
  19767783.750
  21028425.750
  21272331.750
 23  3  4 21  0  7.0000000  0 07G01G03G06G14G17G19G30 1.30,31.5,3.80
  18658549.750
  19880472.750
  18193630.750
  22684775.750
  22738463.250
  23160858.250
  19098577.750
 23  3  4 21 30 16.0000000  0 05G01G06G14G17G19 +1.200,33.5,3.80
  24198068.250
  21579782.750
  21498424.250
  21344189.750
  21114349.250
 23  3  4 22  0 11.0000000  0 06G03G06G11G14G17G19 +1.200,31.5,3.80
  23884960.250
  21041235.750
  18003521.750
  22334873.250
  21825260.250
  21024880.750
 23  3  4 22 30 12.0000000  0 05G03G06G11G17G19 +0.800,26.0,3.80
  22335069.750
  18815455.750
  21034923.750
  20371843.750
  19085949.750
 23  3  4 23  0 16.0000000  0 07G06G11G12G14G17G19G24 +0.800,24.0,3.80
  20668159.250
  22023659.750
  23515984.250
  18375696.750
  22734809.250
  21054287.750
  18225832.750
 23  3  4 23 30 11.0000000  0 05G06G11G17G19G20 +1.200,23.5,3.80
  20644389.750
  21099451.750
  23009413.750
  21025418.750
  22941404.750
 23  3  5  0  0  9.0000000  0 06G06G12G17G19G20G25 1.00,21.0,3.80
  20473946.250
  20792224.250
  23006579.250
  20803761.750
  21183953.750
  22674506.250
 23  3  5  0 30 11.0000000  0 07G06G11G12G17G19G20G25 +0.800,19.0,3.80
  20708526.750
  19534245.250
  19994403.750
  23358569.250
  21018363.750
  19912141.750
  21364390.750
 23  3  5  1  0  8.0000000  0 08G02G05G06G09G11G12G19G20 0.85,16.5,3.80
  21248047.250
  18773218.250
  19379641.250
  21258988.250
  23560595.250
  23962329.250
  19765921.250
  23299895.750
 23  3  5  1 30  5.0000000  0 06G02G05G06G11G12G19 0.90,16.5,3.80
  20221742.750
  23544348.250
  19894054.750
  23558317.750
  18136138.250
  20468250.250
 23  3  5  2  0  8.0000000  0 06G06G11G12G20G25G29 0.95,14.0,3.80
  20719234.750
  17989752.250
  18938482.250
  22956923.750
  18560964.250
  18926754.250
