     2.00           OBSERVATION DATA    G(GPS)              RINEX VERSION / TYPE
goGPS-java                              17-Apr-24 14:11:49  PGM / RUN BY / DATE
                                                            MARKER NAME
                                                            MARKER NUMBER
                    Lotek Wireless Inc.                     OBSERVER / AGENCY
7                                                           REC # / TYPE / VERS
                                                            ANT # / TYPE
    73993.0000 -5057250.0000  3872763.0000                  APPROX POSITION XYZ
        0.0000        0.0000        0.0000                  ANTENNA: DELTA H / E / N
     2     0                                                WAVELENGTH FACT L1/2
     1    C1                                                # / TYPES OF OBSERV
  2023     2    18    17    16   56.0000000     UTC         TIME OF FIRST OBS
                                                            END OF HEADER
 23  2 18 17 30 11.0000000  0 05G04G07G08G16G27 +2.000,20.5,3.85
  21734456.750
  20967955.250
  20096259.250
  22822713.250
  21030168.250
 23  2 18 18  0 11.0000000  0 06G07G08G16G21G27G30 +1.800,22.5,3.85
  19568499.750
  19342816.750
  23067922.250
  22129751.750
  21027498.250
  21765525.750
 23  2 18 18 30 11.0000000  0 06G07G08G09G14G21G27 +1.600,21.5,3.85
  18099168.250
  18721545.750
  20317772.250
  20755563.250
  20228705.250
  21024602.750
 23  2 18 19  0 10.0000000  0 07G07G08G09G14G21G27G30 1.60,20.5,3.85
  20608309.250
  22127868.250
  18060918.750
  22631845.250
  22302464.250
  18881268.750
  21581145.250
 23  2 18 19 30  9.0000000  0 07G01G07G08G14G17G21G30 1.60,17.0,3.85
  21066114.250
  19532874.250
  21841471.750
  20694879.250
  21420861.750
  20828051.750
  19742321.750
 23  2 18 20  0 12.0000000  0 06G01G07G08G17G21G30 +1.600,20.0,3.85
  20325002.250
  20077455.750
  22944693.750
  20579759.250
  21026073.750
  19499962.750
 23  2 18 20 30  6.0000000  0 06G01G07G14G17G21G30 1.60,17.0,3.85
  18081006.250
  19019886.750
  23810954.250
  18079386.750
  19684424.750
  23713279.750
 23  2 18 21  0 11.0000000  0 05G01G07G14G19G30 +1.600,14.5,3.85
  19716990.250
  21632311.750
  19062385.250
  21026875.750
  19734393.750
 23  2 18 21 30  6.0000000  0 06G01G03G06G14G17G19 1.50,12.5,3.85
  21973230.750
  18693655.250
  23473610.250
  20692150.250
  20831669.250
  21909875.250
 23  2 18 22  0 10.0000000  0 06G01G03G06G14G17G30 +1.400,11.0,3.85
  21655337.250
  22738208.250
  21024636.250
  19626945.750
  19671015.750
  22095629.250
 23  2 18 22 30 19.0000000  0 04G03G11G14G17 +1.400,9.5,3.85
  23480744.750
  24610316.750
  21231838.250
  21061603.250
 23  2 18 23  0 11.0000000  0 06G03G06G11G14G17G19 +0.960,7.5,3.85
  23057249.750
  20150513.750
  23007729.250
  21555658.250
  21018333.250
  20158018.750
 23  2 18 23 30 14.0000000  0 06G03G06G11G14G17G19 +0.600,7.0,3.85
  23034116.250
  19438619.250
  21554804.250
  22123387.250
  21066568.750
  19716057.750
 23  2 19  0  0 11.0000000  0 04G06G11G17G19 +1.400,6.0,3.85
  18896169.750
  20155567.750
  21026474.250
  19279912.250
 23  2 19  0 30 11.0000000  0 06G06G11G12G17G19G20 +1.400,5.5,3.85
  20651720.750
  21020005.250
  22107188.750
  23079685.750
  21026859.750
  22790803.250
 23  2 19  1  0  9.0000000  0 07G05G06G11G12G17G19G20 1.14,5.0,3.85
  20062287.250
  22874356.250
  22397481.250
  23105919.750
  19477390.250
  23200760.250
  23438858.750
 23  2 19  1 30 11.0000000  0 06G05G06G11G12G17G19 +0.880,5.0,3.85
  21898689.750
  20704578.250
  19479937.750
  19933167.750
  23427708.250
  21018414.750
 23  2 19  2  0  9.0000000  0 07G05G06G11G12G19G20G25 1.14,5.5,3.85
  20851219.750
  21578281.250
  19732273.750
  20138377.750
  21972022.750
  19413454.250
  20828237.250
 23  2 19  2 30 11.0000000  0 05G05G09G11G12G20 +1.400,5.0,3.85
  20920965.750
  18542616.750
  21027639.750
  21621143.250
  20251836.250
 23  2 19  3  0  7.0000000  0 06G02G06G11G12G20G25 1.38,5.0,3.85
  18600724.750
  19866230.250
  23139375.750
  18118275.250
  22099311.750
  23701921.250
 23  2 19  3 30  9.0000000  0 06G02G11G12G13G20G25 1.36,5.0,3.85
  22565211.750
  22253763.750
  23716048.250
  23261071.250
  21111914.250
  22905755.250
 23  2 19  4  0  9.0000000  0 06G05G11G12G13G15G20 1.34,5.0,3.85
  23772136.250
  20280255.750
  22218181.250
  19587903.250
  20118059.750
  19141475.250
 23  2 19  4 30  5.0000000  0 07G02G05G13G15G18G20G29 1.32,5.5,3.85
  23520115.250
  22715358.250
  23362265.250
  23508069.250
  19344852.250
  18493657.250
  22563663.250
 23  2 19  5  0  7.0000000  0 06G02G05G13G20G23G29 1.30,5.5,3.85
  23414346.750
  23550572.750
  23182243.750
  19596545.750
  19714670.250
  22861791.250
 23  2 19  5 30  8.0000000  0 06G02G05G13G15G20G29 1.28,5.0,3.85
  20367347.750
  21438809.750
  20340711.250
  19457258.750
  23634262.750
  20470811.750
 23  2 19  6  0 10.0000000  0 07G02G05G13G15G18G24G29 1.26,5.0,3.85
  20412205.750
  22307359.250
  20815544.250
  19386464.250
  20258283.750
  23559663.750
  21325005.250
 23  2 19  6 30  7.0000000  0 07G02G05G10G13G15G18G23 1.24,5.0,3.85
  23722582.750
  20250570.250
  20202663.250
  18673071.750
  22752943.750
  22791501.750
  23761645.250
 23  2 19  7  0 10.0000000  0 06G02G10G15G18G24G29 1.22,5.5,3.85
  23117687.750
  18280024.250
  22290320.250
  21420120.250
  23368285.750
  19553550.250
 23  2 19  7 30 11.0000000  0 05G02G15G18G23G24 +1.200,5.5,3.85
  23406690.750
  22720308.250
  21027048.750
  21394616.250
  22170342.250
 23  2 19  8  0 10.0000000  0 06G02G15G18G23G24G32 2.22,5.5,3.85
  18189491.250
  23579415.750
  21274753.250
  21031985.750
  21637644.250
  23192620.750
 23  2 19  8 22 54.0000000  0 00 +3.000,6.0,3.85,1,67074,-5050926,3881252,6,1.8
 23  2 19 23 30 11.0000000  0 04G03G06G14G17 -2.600,10.0,3.85
  23007133.750
  19318567.250
  22163494.750
  21026407.750
 23  2 20  0  0 11.0000000  0 04G06G11G17G20 +1.400,9.5,3.85
  21026942.750
  22165888.250
  23206369.750
  18485507.750
 23  2 20  0 30 15.0000000  0 04G06G17G19G20 +1.400,9.5,3.85
  20731688.250
  23186213.750
  21100975.250
  22653613.250
 23  2 20  1  0  7.0000000  0 06G05G06G11G17G19G20 1.35,8.5,3.85
  20821010.250
  23903566.250
  23318367.250
  20521055.750
  18229002.750
  18263528.750
 23  2 20  1 30  8.0000000  0 08G04G05G06G09G11G12G19G20 1.30,8.0,3.85
  22550529.250
  19737516.750
  18813599.750
  21458623.250
  23492198.750
  23924979.250
  19132120.750
  23709403.250
 23  2 20  2  0  7.0000000  0 06G05G06G11G12G20G25 1.25,7.5,3.85
  18442950.250
  19420942.750
  23494628.250
  23912527.250
  23103425.250
  18527228.250
 23  2 20  2 30 11.0000000  0 06G05G06G11G12G20G29 +1.200,7.0,3.85
  21585850.250
  24250853.750
  21847865.750
  22484242.750
  21024856.250
  23973088.750
 23  2 20  3  0 12.0000000  0 05G06G11G12G13G20 +1.200,7.0,3.85
  24859882.250
  22089384.250
  23129426.250
  18592288.750
  21025949.750
 23  2 20  3 30  5.0000000  0 07G05G11G12G13G20G25G29 1.20,7.0,3.85
  23845443.250
  19880529.750
  21411606.250
  20656338.250
  18733614.750
  20556852.250
  19069367.750
 23  2 20  4  0 11.0000000  0 05G05G11G13G15G29 +1.200,7.5,3.85
  21026448.750
  23589406.250
  22674050.250
  23158197.250
  21481076.250
 23  2 20  4 30  6.0000000  0 06G05G11G13G15G20G29 1.15,7.5,3.85
  22756427.250
  19670335.250
  23250457.750
  23335692.250
  18575323.750
  22516602.750
 23  2 20  5  0  5.0000000  0 07G02G05G11G13G15G23G29 1.10,8.5,3.85
  18773263.750
  19040436.750
  22185515.750
  18552851.250
  18142985.250
  20978978.250
  18296764.750
 23  2 20  5 30  7.0000000  0 06G02G05G13G15G18G29 1.05,8.0,3.85
  19871435.750
  21065473.750
  19891675.750
  18933214.750
  20359450.250
  20079991.750
 23  2 20  6  0 11.0000000  0 06G02G05G10G13G15G18 +1.000,8.0,3.85
  22050906.250
  18051820.750
  19503601.750
  22524563.250
  21024298.250
  21792976.750
 23  2 20  6 30 11.0000000  0 07G02G05G13G15G18G24G29 +0.640,8.5,3.85
  21971680.750
  24567346.250
  22994896.250
  21018420.750
  20933276.750
  23528854.250
  23815654.750
 23  2 20  7  0 10.0000000  0 06G02G10G15G18G23G24 0.82,8.5,3.85
  20889047.750
  21853282.250
  20082290.250
  19092802.250
  19817749.250
  20932847.250
 23  2 20  7 30 11.0000000  0 04G02G10G23G24 +1.000,9.0,3.85
  21025899.250
  20457252.750
  18860270.750
  19598063.750
 23  2 20  8  0  5.0000000  0 06G10G15G18G23G24G32 1.00,9.0,3.85
  23401449.750
  19033470.750
  22663800.750
  22325345.750
  22929356.250
  18383847.750
 23  2 20  8 30 11.0000000  0 06G10G18G22G23G24G32 +1.000,8.5,3.85
  20357289.750
  21026890.750
  22993833.750
  19891471.750
  20629038.750
  21139697.250
 23  2 20  9  0  5.0000000  0 07G10G18G22G23G24G28G32 1.00,7.5,3.85
  18350267.750
  20549219.250
  20557898.250
  18563922.750
  19650923.250
  21661677.250
  19016707.750
 23  2 20  9 30  9.0000000  0 07G10G18G22G23G24G28G31 1.00,7.5,3.85
  23896053.250
  21618308.250
  19655772.750
  18841277.750
  20393663.750
  20214462.250
  21084497.250
 23  2 20 10  0  6.0000000  0 06G10G22G23G25G31G32 1.00,7.5,3.85
  22773170.750
  18004740.250
  18437824.250
  19674645.750
  18700796.250
  23198666.250
 23  2 20 10 30  8.0000000  0 07G01G10G12G22G23G25G32 1.00,7.5,3.85
  20031657.250
  23187803.250
  20163861.250
  23747630.750
  19507568.750
  19110933.250
  23345013.750
 23  2 20 11  0 11.0000000  0 05G10G21G22G25G32 +1.000,7.5,3.85
  21300002.750
  23351920.250
  21014996.250
  22262222.250
  21027944.250
 23  2 20 11 30  8.0000000  0 08G10G21G22G25G26G28G31G32 0.93,7.0,3.85
  18582025.250
  20037777.250
  23277998.250
  18706631.750
  20108750.250
  22627393.250
  22527345.750
  23725032.750
 23  2 20 12  0  8.0000000  0 07G21G22G25G26G28G31G32 0.87,6.5,3.85
  20171077.250
  22859940.750
  18772664.250
  18507303.750
  22400767.750
  22092844.250
  23765664.250
 23  2 20 12 30 11.0000000  0 05G22G26G28G31G32 +0.800,6.0,3.85
  21604682.750
  22098899.750
  21478144.250
  21025487.250
  22990626.250
 23  2 20 13  0  5.0000000  0 06G16G22G26G28G31G32 0.80,6.0,3.85
  19217003.250
  23005441.250
  22489266.750
  23260630.750
  22727711.250
  18879216.750
 23  2 20 13 30 11.0000000  0 05G16G22G26G28G31 +0.800,7.0,3.85
  21549296.750
  21026498.250
  19691370.750
  21626132.250
  21064663.750
 23  2 20 14  0 11.0000000  0 04G22G26G28G31 +0.800,8.5,3.85
  20751347.750
  18818654.250
  21582243.250
  21026789.250
 23  2 20 14 30 11.0000000  0 04G03G22G26G27 +0.800,10.0,3.85
  22247827.250
  23364434.750
  21027346.750
  18466645.250
 23  2 20 15  0 11.0000000  0 06G03G04G16G26G28G31 +0.800,10.5,3.85
  22329076.250
  20357063.250
  19734370.250
  21027936.750
  18472264.750
  23959866.250
 23  2 20 15 30 11.0000000  0 04G04G16G26G27 +0.600,13.0,3.85
  21146639.750
  21024521.750
  23134735.750
  22744500.750
 23  2 20 16  0  6.0000000  0 06G03G04G08G16G26G27 0.60,22.5,3.85
  18255549.250
  19745478.250
  21728225.250
  20143137.750
  22827104.250
  20654900.250
 23  2 20 16 30 40.0000000  0 05G04G08G16G26G27 0.60,20.5,3.85
  21311483.250
  21945974.750
  22136270.250
  19168999.750
  21534437.750
 23  2 20 17  0 11.0000000  0 04G08G09G16G27 +0.600,20.0,3.85
  20675909.250
  20786733.250
  22439258.250
  21026267.750
 23  2 20 17 30  5.0000000  0 06G04G07G08G09G16G27 0.53,20.0,3.85
  19931689.250
  18700190.250
  23976557.250
  18696505.750
  21027428.250
  19126194.750
 23  2 20 18  0  7.0000000  0 06G07G08G09G16G21G27 0.47,25.0,3.85
  23836012.750
  23828420.250
  19094963.750
  21769420.250
  20292266.250
  19700351.750
 23  2 20 18 30 11.0000000  0 05G01G07G08G09G27 +0.400,22.5,3.85
  23716512.750
  20154824.250
  21025151.250
  22723065.250
  23468181.750
 23  2 20 19  0  5.0000000  0 06G01G07G08G09G17G21 0.40,28.0,3.85
  19332058.250
  22883323.250
  18635829.250
  20624729.250
  19709789.750
  18468455.250
 23  2 20 19 30 11.0000000  0 04G07G17G21G30 +0.400,30.0,3.85
  19836044.750
  21356483.750
  21026247.750
  19825305.750
 23  2 20 20  0 12.0000000  0 04G01G07G17G21 -0.400,31.0,3.85
  20074619.250
  20170771.250
  20280774.250
  21030609.250
 23  2 20 20 30  5.0000000  0 06G01G07G14G17G19G21 -0.10,28.5,3.85
  21152799.250
  22388006.750
  20808823.750
  21048050.250
  23300776.750
  22979008.750
 23  2 20 21  0 11.0000000  0 04G01G13G14G30 +0.200,25.5,3.85
  21024825.750
  23548390.750
  20216906.750
  21127959.750
 23  2 20 21 30 11.0000000  0 05G01G06G14G17G30 +0.200,21.5,3.85
  22507679.750
  23431749.750
  21025316.750
  21147066.750
  22848702.750
 23  2 20 22  0  5.0000000  0 06G01G03G06G14G17G30 0.20,20.0,3.85
  21576670.750
  22218299.750
  20357585.250
  19345044.750
  19344592.750
  22040971.750
 23  2 20 22 30 13.0000000  0 04G01G03G06G17 +0.200,18.0,3.85
  18362463.250
  23468681.750
  21026008.250
  21180963.750
 23  2 20 23  0 12.0000000  0 05G03G06G14G17G19 +0.200,16.5,3.85
  23015929.750
  19926557.250
  21696074.750
  21027372.750
  20026147.250
 23  2 20 23 30 11.0000000  0 06G06G14G17G19G20G24 +0.200,14.0,3.85
  19242426.750
  22250359.250
  21028137.750
  19564591.750
  23850785.750
  22516679.750
 23  2 21  0  0 11.0000000  0 05G11G17G19G20G24 +0.000,11.0,3.85
  21652558.750
  22858368.250
  21024744.750
  23892005.250
  18329783.250
 23  2 21  0 30 13.0000000  0 06G05G06G11G17G19G24 +0.200,8.5,3.85
  19634412.750
  21066099.250
  21196051.250
  23544107.750
  21429179.250
  19128416.250
 23  2 21  1  0  5.0000000  0 06G05G06G11G17G19G20 0.17,7.0,3.85
  21949150.750
  19306661.750
  18615489.750
  21933698.750
  19623812.750
  19456730.750
 23  2 21  1 30  9.0000000  0 06G05G06G11G12G19G20 0.14,5.5,3.85
  20102300.250
  19450173.250
  18041530.750
  18457864.750
  19775449.750
  18167760.750
 23  2 21  2  0  5.0000000  0 07G05G06G09G11G12G19G20 0.11,5.0,3.85
  23471390.750
  18699246.250
  20312351.250
  22699355.250
  23133465.750
  19134811.250
  22239246.250
 23  2 21  2 30  8.0000000  0 06G02G05G06G11G12G20 0.09,4.0,3.85
  18529577.250
  21853709.750
  18729402.750
  22264579.750
  22946647.250
  21398568.750
 23  2 21  3  0  6.0000000  0 06G05G11G12G13G20G29 0.06,3.5,3.85
  18926201.750
  20311301.750
  21415127.250
  22584865.250
  19228465.250
  20743149.750
 23  2 21  3 30  7.0000000  0 06G05G11G13G20G25G29 0.03,3.0,3.85
  20698531.250
  22814037.250
  23354526.750
  21663748.750
  23517279.250
  21813101.250
 23  2 21  4  0 11.0000000  0 04G05G12G13G20 +0.000,3.0,3.85
  21027025.750
  19702741.750
  22512675.250
  22513323.750
 23  2 21  4 30 11.0000000  0 05G05G13G15G18G20 +0.000,3.0,3.85
  21027314.750
  21369551.750
  21391430.250
  23249357.750
  22880339.250
 23  2 21  5  0  6.0000000  0 07G02G05G13G15G18G20G29 -0.13,2.5,3.85
  19262709.250
  19661708.750
  19059274.250
  18576980.250
  20338172.750
  21745592.750
  18867754.250
 23  2 21  5 30  9.0000000  0 06G02G05G13G15G18G29 -0.26,2.5,3.85
  21378540.250
  22694024.250
  21450051.750
  20416125.250
  21769864.750
  21695948.250
 23  2 21  6  0  5.0000000  0 06G02G05G10G13G15G29 -0.39,2.5,3.85
  22949202.250
  19044911.750
  20262589.250
  23492434.250
  21924726.250
  18097200.750
 23  2 21  6 30 11.0000000  0 06G05G15G18G23G24G29 -0.520,1.5,3.85
  18620238.250
  21018444.250
  20811134.250
  21740247.250
  23309317.750
  23903274.250
 23  2 21  7  0 11.0000000  0 05G02G15G23G24G29 +0.000,1.0,3.85
  21028232.750
  20242010.750
  19813202.750
  20865799.750
  23618288.750
 23  2 21  7 30  9.0000000  0 06G10G15G18G23G24G32 -0.04,0.5,3.85
  18636904.250
  18764722.750
  22878690.750
  23100513.750
  23805355.250
  19867440.250
 23  2 21  8  0  8.0000000  0 07G10G15G18G23G24G27G32 -0.08,0.5,3.85
  23500015.250
  19369183.250
  22941949.750
  22502242.750
  23109416.750
  19471485.750
  18451396.750
 23  2 21  8 30  8.0000000  0 07G10G15G23G24G27G28G32 -0.12,0.0,3.85
  19265416.750
  22819802.250
  18887083.250
  19661255.750
  22276813.750
  23342759.250
  20030122.750
 23  2 21  9  0  5.0000000  0 08G10G18G22G23G24G28G31G32 -0.16,0.0,3.85
  18487752.250
  20896531.250
  20633841.250
  18798644.250
  19944985.750
  21667418.750
  22656137.250
  19142863.750
 23  2 21  9 30 11.0000000  0 05G10G23G28G31G32 -0.200,0.0,3.85
  19982908.750
  21025059.250
  22152280.250
  23000335.750
  20540429.250
 23  2 21 10  0  8.0000000  0 06G10G22G23G28G31G32 -0.20,0.5,3.85
  20347920.750
  21491686.750
  22104327.750
  21448936.250
  22090458.750
  20745714.750
 23  2 21 10 30 10.0000000  0 05G10G25G28G31G32 -0.200,0.5,3.85
  20916294.750
  22700650.250
  20923836.750
  21311326.750
  21024819.750
 23  2 21 11  0 10.0000000  0 07G10G12G21G23G25G28G32 +0.000,0.5,3.85
  21028341.750
  23464329.250
  22998664.750
  23934228.750
  21867528.250
  19961959.250
  20685642.750
 23  2 21 11 30  6.0000000  0 06G10G21G22G26G28G32 -0.05,2.0,3.85
  18766706.750
  20142866.750
  23314495.750
  19986304.750
  22678931.250
  23821568.750
 23  2 21 12  0  5.0000000  0 06G21G22G26G28G31G32 -0.10,2.0,3.85
  22958473.750
  19572232.750
  21055490.750
  19151458.750
  18820110.250
  20540078.250
 23  2 21 12 30  5.0000000  0 07G03G21G22G26G28G31G32 -0.15,1.5,3.85
  23056379.250
  19666842.250
  21694349.250
  22043341.250
  21617805.250
  21150562.250
  23142629.750
 23  2 21 13  0 11.0000000  0 04G22G26G28G32 -0.200,1.0,3.85
  21025120.250
  20380682.250
  21332519.750
  22958768.750
 23  2 21 13 30 22.0000000  0 01G26 -0.20,2.0,3.85
  19494755.750
 23  2 21 14  0  9.0000000  0 07G03G04G16G22G26G28G31 -0.20,4.0,3.85
  22085827.250
  22709475.750
  21586213.750
  22922786.750
  20924214.250
  23773274.250
  23219409.750
 23  2 21 14 30  6.0000000  0 06G03G04G16G26G28G31 -0.20,7.0,3.85
  20313397.750
  19604642.750
  18656069.250
  19084305.750
  22373478.750
  21843146.750
 23  2 21 15  0 16.0000000  0 06G03G04G09G16G26G27 -0.200,9.5,3.85
  22448923.750
  20276565.250
  22478876.250
  19716862.750
  21138307.250
  22423933.250
 23  2 21 15 30  8.0000000  0 06G04G07G08G09G16G27 -0.20,9.5,3.85
  20345433.250
  18085945.250
  23332853.750
  21927319.750
  20296545.750
  21852733.750
 23  2 21 16  0 11.0000000  0 04G04G16G26G27 -0.200,10.0,3.85
  20213057.250
  20681252.750
  23424744.750
  21026733.250
 23  2 21 16 30 13.0000000  0 06G04G07G08G09G16G27 -0.400,11.0,3.85
  21003892.250
  22728778.250
  21473234.750
  21059783.250
  21873207.750
  21151080.250
 23  2 21 17  0 18.0000000  0 04G04G07G09G27 -0.800,16.0,3.85
  21129251.750
  21346765.750
  20438247.250
  20704329.250
 23  2 21 17 30  7.0000000  0 07G04G07G08G09G14G27G30 -0.80,23.5,3.85
  22040060.250
  20571049.250
  19935407.250
  20730778.250
  23903337.250
  21186508.250
  23033066.750
 23  2 21 18  0  5.0000000  0 07G04G07G08G09G14G16G30 -0.80,29.0,3.85
  23134745.750
  19946919.250
  20051626.750
  21379679.750
  22889553.750
  18086703.750
  21932009.750
 23  2 21 18 30  6.0000000  0 06G01G07G08G14G17G30 -0.80,28.5,3.85
  22467321.250
  19042854.250
  20033506.750
  21460739.250
  22857514.250
  20423151.250
 23  2 21 19  0 13.0000000  0 06G08G09G13G17G27G30 -0.800,32.0,3.85
  20284796.250
  22301599.250
  22028632.250
  21072512.250
  23166763.750
  19083038.750
 23  2 21 19 30  5.0000000  0 06G07G08G13G17G21G30 -0.76,29.0,3.85
  23253999.750
  19820954.750
  19931150.250
  18597181.750
  18399030.750
  23136465.750
 23  2 21 20  0 11.0000000  0 06G01G08G14G17G21G30 -0.72,29.0,3.85
  18808523.750
  22078558.750
  18628120.250
  18985232.750
  19889893.250
  18179561.750
 23  2 21 20 30  5.0000000  0 07G01G13G14G17G19G21G30 -0.68,25.5,3.85
  23780666.750
  20136572.750
  23389496.250
  23617964.750
  19785717.250
  19717307.250
  23584985.750
 23  2 21 21  0  5.0000000  0 06G01G13G14G17G19G30 -0.64,24.0,3.85
  23837737.750
  20380151.250
  22949480.250
  23119643.250
  18614190.250
  23979513.250
 23  2 21 21 30 11.0000000  0 05G01G14G17G19G30 -0.600,20.5,3.85
  22500482.750
  20916436.750
  21027109.750
  21809304.250
  22865406.250
 23  2 21 22  0 11.0000000  0 04G03G14G19G30 -0.600,18.0,3.85
  23778807.750
  21027958.750
  21097667.750
  23836599.750
 23  2 21 22 30 17.0000000  0 04G03G06G17G19 -1.200,17.5,3.85
  23355366.250
  20826888.750
  21127028.250
  20598098.250
 23  2 21 23  0 11.0000000  0 04G03G06G17G19 -0.800,15.5,3.85
  22997597.250
  19816662.250
  21025236.750
  19956863.250
 23  2 21 23 30 11.0000000  0 05G06G12G17G19G24 -0.800,13.5,3.85
  23566815.750
  21025470.250
  19428478.750
  17910960.250
  20903809.250
 23  2 22  0  0 12.0000000  0 06G06G11G12G17G19G24 -1.400,12.0,3.85
  20642142.250
  21539609.250
  22858112.250
  22908172.250
  21033576.750
  24387804.250
 23  2 22  0 30 11.0000000  0 06G06G11G12G17G20G25 -0.800,11.0,3.85
  19529275.750
  19543167.750
  20461821.750
  22028855.250
  21026490.250
  22500718.750
 23  2 22  1  0  5.0000000  0 07G05G06G11G12G19G20G25 -0.86,10.0,3.85
  19501642.250
  23129559.250
  22333243.750
  22913734.250
  23443632.250
  23074191.250
  18514947.750
 23  2 22  1 30 10.0000000  0 06G02G05G06G09G11G12 -0.92,9.5,3.85
  23507223.250
  21232580.750
  20850684.250
  23211433.250
  19352755.250
  19757078.750
 23  2 22  2  0  5.0000000  0 07G02G05G06G09G11G12G29 -0.98,9.5,3.85
  22464395.250
  19889955.250
  21357337.750
  22871471.750
  19289519.750
  19744526.250
  22466162.250
 23  2 22  2 30  6.0000000  0 07G02G05G11G12G20G25G29 -1.05,10.0,3.85
  18824923.750
  22148751.250
  22705549.750
  23437035.250
  21799579.250
  23318992.750
  18429055.750
 23  2 22  3  0  5.0000000  0 06G02G05G11G20G25G29 -1.11,10.0,3.85
  18362453.750
  21860174.750
  23358554.750
  22258512.750
  23935146.250
  23588099.250
 23  2 22  3 30  6.0000000  0 08G02G05G11G12G13G18G20G29 -1.17,10.5,3.85
  19608442.750
  23571114.250
  19769859.250
  21439038.750
  20078758.250
  22190166.250
  18617796.750
  18584511.750
 23  2 22  4  0  6.0000000  0 06G02G05G13G15G18G29 -1.23,11.5,3.85
  21203647.250
  19889550.750
  21216864.750
  21604729.750
  23331139.750
  20140250.250
 23  2 22  4 30  5.0000000  0 06G02G05G13G15G23G29 -1.29,12.5,3.85
  23408448.750
  22984562.750
  23185464.750
  23145114.250
  20093924.750
  22581398.750
 23  2 22  5  0  7.0000000  0 07G02G05G13G15G18G23G29 -1.35,13.5,3.85
  20210687.250
  20741145.750
  20029432.250
  19473626.750
  21199263.250
  22232066.250
  19901965.750
 23  2 22  5 30  5.0000000  0 06G02G05G13G18G23G29 -1.42,13.5,3.85
  23950601.750
  19386555.750
  18080066.750
  18250430.250
  19280968.250
  18380929.750
 23  2 22  6  0  6.0000000  0 06G02G05G10G15G18G23 -1.48,13.5,3.85
  21335824.750
  23521372.750
  18502034.250
  20316457.750
  20872372.750
  21886413.750
 23  2 22  6 30  6.0000000  0 08G02G10G13G15G18G23G24G27 -1.54,14.0,3.85
  18436100.250
  20403119.250
  19606865.250
  23514679.750
  23186979.750
  18096075.750
  19591923.750
  20915492.250
 23  2 22  7  0 13.0000000  0 05G10G15G18G23G24 -1.600,14.5,3.85
  22387086.250
  21056629.750
  19834014.750
  20461810.250
  21455130.250
 23  2 22  7 30 16.0000000  0 07G02G08G10G15G18G23G27 -1.58,15.0,3.85
  20869380.250
  22824523.750
  19855630.250
  20224791.250
  18251839.250
  18392554.750
  21114696.250
 23  2 22  8  0  6.0000000  0 06G10G18G23G24G27G32 -1.57,15.5,3.85
  23720770.750
  23342919.250
  22801483.750
  23416526.750
  19821112.750
  18643549.250
 23  2 22  8 30  6.0000000  0 07G08G10G22G23G24G27G32 -1.55,16.0,3.85
  19221561.750
  21445609.750
  23960034.250
  21156766.750
  21971243.250
  18613275.750
  22193720.750
 23  2 22  9  0  8.0000000  0 06G10G18G22G27G31G32 -1.53,16.5,3.85
  19445558.250
  22065764.750
  21528874.250
  23760556.750
  23465803.750
  20089276.750
 23  2 22  9 30  9.0000000  0 06G10G18G21G22G31G32 -1.52,17.0,3.85
  18726402.750
  22829248.750
  22453382.750
  20344315.250
  21578192.750
  19268503.250
 23  2 22 10  0  8.0000000  0 06G10G22G23G28G31G32 -1.50,18.0,3.85
  22587436.250
  23645586.250
  18441812.750
  23539138.750
  18153798.250
  22955244.250
 23  2 22 10 30  8.0000000  0 07G01G21G22G25G28G31G32 -1.48,18.0,3.85
  18299242.750
  18264100.750
  22112509.250
  23418556.250
  21626000.750
  21978312.750
  21823411.750
 23  2 22 11  0  5.0000000  0 06G01G10G21G22G28G32 -1.47,18.0,3.85
  22656258.250
  21213353.250
  23103916.750
  20670507.250
  20007390.250
  20798671.250
 23  2 22 11 30  5.0000000  0 08G01G03G21G22G25G28G31G32 -1.45,18.0,3.85
  21554264.250
  22877710.250
  22364490.750
  19469301.750
  20991568.250
  18852393.250
  18690946.250
  20036893.250
 23  2 22 12  0  6.0000000  0 07G01G03G21G22G28G31G32 -1.43,18.5,3.85
  20897119.250
  20721474.250
  21902769.750
  18435901.250
  18056262.750
  23698158.750
  19467047.250
 23  2 22 12 30  6.0000000  0 07G01G03G22G26G28G31G32 -1.42,18.0,3.85
  20523293.750
  18726387.750
  23497347.250
  23699618.750
  23472586.250
  22991455.750
  19013933.250
 23  2 22 13  0 10.0000000  0 05G03G22G26G31G32 -1.400,18.0,3.85
  21527244.750
  21220551.250
  20455508.250
  21030615.750
  23215632.750
 23  2 22 13 30 13.0000000  0 04G03G22G28G31 -2.200,18.5,3.85
  21034336.250
  21439891.250
  22115058.750
  21551028.250
 23  2 22 14  0 11.0000000  0 04G03G04G26G31 -1.800,19.0,3.85
  20568109.250
  21024008.750
  19398993.250
  21776164.250
 23  2 22 14 30  6.0000000  0 06G03G04G09G16G26G31 -1.80,19.5,3.85
  20596586.250
  19694668.750
  22318646.250
  18785210.750
  19358587.750
  22156319.750
 23  2 22 15  0 12.0000000  0 04G03G07G08G27 -1.80,20.0,3.85
  21309047.250
  23102832.250
  22741410.250
  21012988.750
 23  2 22 15 30 11.0000000  0 04G04G07G16G27 -1.800,19.5,3.85
  21026097.750
  24668833.250
  21052894.750
  22439704.250
 23  2 22 16  0 11.0000000  0 05G04G07G08G16G27 -1.800,20.0,3.85
  20492126.750
  23264684.250
  22124807.250
  21027429.250
  21213000.250
 23  2 22 16 30  6.0000000  0 06G04G07G08G09G16G27 -1.90,20.5,3.85
  22428382.750
  23970510.250
  22718339.750
  22382905.750
  23342541.750
  22495002.250
 23  2 22 17  0 11.0000000  0 05G07G08G09G16G27 -2.000,22.5,3.85
  21514944.750
  20455512.750
  20733494.750
  22614573.750
  21024933.750
 23  2 22 17 30 11.0000000  0 05G07G09G14G27G30 -2.000,24.0,3.85
  20216127.750
  20544279.250
  23500457.250
  21025730.250
  22619544.250
 23  2 22 18  0 13.0000000  0 07G04G07G09G14G16G27G30 -2.400,23.0,3.85
  22856868.750
  19438436.750
  21056545.250
  22317267.250
  23783047.750
  21705055.250
  21345911.750
 23  2 22 18 30 11.0000000  0 05G08G14G21G27G30 -2.000,24.0,3.85
  21027331.250
  22241758.750
  21801906.750
  23596385.250
  21197561.250
 23  2 22 19  0 12.0000000  0 07G07G08G13G14G17G21G30 -2.400,24.0,3.85
  18555772.250
  20524886.750
  22034604.750
  20130531.250
  21037552.750
  20021432.250
  19111817.750
 23  2 22 19 30 11.0000000  0 07G01G08G13G14G17G21G30 -2.200,22.0,3.85
  22077122.750
  23893910.250
  23796798.250
  21838189.250
  22400177.250
  22344358.250
  21024516.250
 23  2 22 20  0 11.0000000  0 04G14G17G21G30 +1.800,21.5,3.85
  21397933.250
  21732626.750
  22796928.250
  21025132.250
 23  2 22 20 30  5.0000000  0 07G01G13G14G17G19G21G30 1.70,22.0,3.85
  20161418.750
  22547730.250
  19717059.250
  19935682.250
  22007471.250
  22197785.750
  20018925.750
 23  2 22 21  0  5.0000000  0 06G01G13G14G17G19G30 1.60,21.0,3.85
  19869986.750
  22420334.750
  18894563.750
  19058839.250
  20450319.750
  20049801.750
 23  2 22 21 30 17.0000000  0 08G01G06G13G14G17G19G24G30 1.50,16.0,3.85
  22716088.750
  23048207.750
  19252530.750
  21025830.250
  21123307.250
  21805302.750
  18966101.750
  23103506.250
 23  2 22 22  0 19.0000000  0 04G06G17G19G24 +1.400,14.5,3.85
  21827381.750
  21160156.750
  21163789.750
  24031326.750
 23  2 22 22 30 11.0000000  0 05G03G06G14G17G19 +1.600,13.5,3.85
  23200729.250
  20587532.750
  21380194.750
  21024992.250
  20418198.750
 23  2 22 23  0 11.0000000  0 05G06G11G14G17G19 +1.600,13.5,3.85
  21025244.250
  23508053.750
  23149299.250
  22338226.750
  21203386.750
 23  2 22 23 30 11.0000000  0 06G06G11G12G17G19G24 +1.160,13.5,3.85
  23721487.750
  19390956.750
  21018235.250
  19651025.250
  18080716.250
  21117417.750
 23  2 23  0  0  9.0000000  0 07G06G11G12G17G19G20G24 1.13,13.0,3.85
  23720412.250
  18500762.250
  19763194.250
  20028729.250
  18114943.250
  20577371.750
  21522992.250
 23  2 23  0 30  8.0000000  0 07G06G11G12G17G19G20G24 1.10,13.0,3.85
  21200532.250
  21098627.250
  21963560.250
  23720112.750
  21550403.250
  22483280.250
  19346274.750
 23  2 23  1  0  6.0000000  0 06G06G11G12G19G20G25 1.07,12.0,3.85
  19627242.750
  18726008.250
  19269426.250
  19939515.750
  19365749.750
  20799327.750
 23  2 23  1 30  6.0000000  0 06G05G09G11G12G20G25 1.04,11.5,3.85
  23113231.750
  19228118.750
  21412871.250
  21809822.250
  21364617.250
  22778811.750
 23  2 23  2  0  8.0000000  0 07G02G05G06G11G20G25G29 1.01,11.5,3.85
  19671678.750
  23062806.250
  18779139.250
  22635533.250
  22044692.750
  23486538.250
  19615416.750
 23  2 23  2 30  6.0000000  0 07G02G05G11G12G20G25G29 0.98,11.0,3.85
  23087698.750
  20420781.750
  21122246.250
  21907488.750
  20178904.250
  21716868.750
  22632594.750
 23  2 23  3  0  6.0000000  0 07G02G05G11G12G20G25G29 0.95,10.5,3.85
  18305312.750
  21849311.250
  23458395.750
  18702601.250
  22343423.250
  18051394.750
  23482894.250
 23  2 23  3 30  6.0000000  0 08G02G05G11G12G13G20G25G29 0.92,10.5,3.85
  19708291.250
  23756352.750
  20031068.250
  21768664.250
  20105723.750
  18878593.750
  20793212.250
  18661766.750
 23  2 23  4  0  5.0000000  0 07G02G05G11G13G18G20G29 0.89,10.5,3.85
  19302578.250
  18103588.250
  20818923.250
  19268108.750
  21363619.750
  19696968.250
  18253004.750
 23  2 23  4 30  6.0000000  0 06G02G05G15G18G23G29 0.86,10.5,3.85
  20831269.750
  20539640.750
  20489512.250
  22353195.250
  23420787.750
  20059517.250
 23  2 23  5  0 10.0000000  0 07G05G13G18G20G23G26G29 0.83,10.5,3.85
  18927588.750
  18110412.250
  19161783.750
  21045663.250
  20189926.750
  22491519.750
  18047716.750
 23  2 23  5 30 11.0000000  0 07G02G10G13G18G20G23G29 +0.800,10.0,3.85
  20824860.750
  18866024.250
  21010818.250
  21018145.250
  18602478.250
  22046587.750
  21368044.250
 23  2 23  6  0  5.0000000  0 07G02G05G10G13G15G18G23 0.87,10.0,3.85
  22001796.250
  18282024.750
  19016398.750
  22693761.250
  20990345.750
  21432571.250
  22437075.250
 23  2 23  6 30 10.0000000  0 07G02G10G15G18G24G27G29 0.93,10.0,3.85
  18132607.750
  19916912.750
  23231744.750
  22776918.250
  19077487.250
  20440677.250
  20284479.750
 23  2 23  7  0  7.0000000  0 06G02G10G15G18G23G27 1.00,10.0,3.85
  20276284.250
  20639513.750
  19530274.750
  18196409.250
  18770760.250
  21416757.750
 23  2 23  7 30 10.0000000  0 06G10G15G18G23G24G27 1.07,9.5,3.85
  21469524.750
  22071362.250
  20015302.250
  20074516.750
  20726403.250
  22824623.750
 23  2 23  8  0  5.0000000  0 07G08G10G18G23G24G27G32 1.13,9.5,3.85
  19568130.250
  22262667.750
  22072531.250
  21424990.750
  22052924.750
  18498603.250
  23153712.250
 23  2 23  8 30 11.0000000  0 06G08G10G22G23G24G32 +1.200,9.5,3.85
  18894592.250
  21027419.250
  23478072.750
  20833610.750
  21693913.750
  21759201.250
 23  2 23  9  0  7.0000000  0 07G08G10G22G23G24G27G32 1.13,10.0,3.85
  22649926.250
  18060766.250
  20080683.750
  18570822.250
  19841414.250
  22530532.750
  18693009.250
 23  2 23  9 30 10.0000000  0 07G10G21G22G24G28G31G32 1.07,10.5,3.85
  19659088.250
  23299768.250
  21204280.750
  22648713.250
  21537651.250
  22338270.250
  20183786.750
 23  2 23 10  0 11.0000000  0 04G22G28G31G32 +1.000,10.0,3.85
  21658508.750
  21489305.750
  22066958.750
  21025524.750
 23  2 23 10 30  5.0000000  0 07G01G12G21G22G28G31G32 0.94,10.5,3.85
  18451425.250
  18843121.750
  18486746.750
  22306783.750
  21783489.750
  22099892.750
  22074863.250
 23  2 23 11  0  5.0000000  0 07G10G21G22G25G28G31G32 0.89,11.0,3.85
  20228299.750
  22036332.250
  19548287.250
  20827913.250
  18878532.750
  18926542.250
  19736105.250
 23  2 23 11 30  5.0000000  0 07G01G03G21G22G28G31G32 0.83,11.5,3.85
  23931683.750
  19069183.250
  18783713.250
  21809987.750
  21215624.250
  21024197.250
  22439657.250
 23  2 23 12  0  5.0000000  0 07G01G03G21G22G28G31G32 0.77,12.0,3.85
  19226090.250
  18831760.250
  20244579.750
  22692377.250
  22356198.250
  21980631.750
  23787582.750
 23  2 23 12 30  5.0000000  0 06G01G04G22G26G28G31 0.71,12.5,3.85
  18561959.750
  19172084.750
  21453101.250
  21510360.750
  21480677.250
  20986637.250
 23  2 23 13  0 10.0000000  0 07G03G04G22G26G28G31G32 0.66,13.0,3.85
  19038619.750
  21252290.250
  18843512.750
  23955567.750
  19248586.750
  18696471.750
  20900410.250
 23  2 23 13 30 14.0000000  0 06G03G04G16G22G28G29 +0.600,13.5,3.85
  19651901.750
  21074315.750
  19960884.750
  20139873.750
  20849251.750
  23381354.250
 23  2 23 14  0 11.0000000  0 06G03G04G09G16G28G31 +0.360,14.0,3.85
  19742062.750
  20024160.250
  22951159.250
  18918252.250
  21568450.250
  21018464.750
 23  2 23 14 30  9.0000000  0 07G04G09G16G26G27G29G31 0.51,14.5,3.85
  20959084.750
  23521954.750
  20094613.250
  20814379.750
  23505116.250
  19530997.250
  23646777.750
 23  2 23 15  0  5.0000000  0 06G03G04G07G09G26G27 0.65,15.5,3.85
  21102803.250
  18549428.250
  22652751.250
  20597480.750
  19774561.250
  20533412.250
 23  2 23 15 30 11.0000000  0 05G04G07G09G16G26 +0.800,17.5,3.85
  21027620.750
  24569741.750
  22415156.250
  21130477.750
  23504640.250
 23  2 23 16  0 11.0000000  0 05G04G08G09G16G27 +0.600,17.5,3.85
  20394995.750
  21847788.750
  21024599.250
  20996240.250
  21022311.250
 23  2 23 16 30  8.0000000  0 06G04G07G08G09G16G27 0.60,17.5,3.85
  20458664.750
  21801960.250
  20559051.250
  20307015.750
  21416304.250
  20442077.750
 23  2 23 17  0 11.0000000  0 05G04G08G16G27G30 +0.600,21.0,3.85
  21579056.250
  20345366.750
  22695632.250
  21026117.250
  18088187.250
 23  2 23 17 30  5.0000000  0 06G07G08G09G14G27G30 0.60,24.5,3.85
  20681000.250
  20226889.750
  21176482.250
  23917368.250
  21682468.250
  23025072.250
 23  2 23 18  0 10.0000000  0 05G07G08G09G14G30 +0.600,26.5,3.85
  19229327.250
  19571996.250
  21028118.750
  22043264.250
  21058576.750
 23  2 23 18 30 11.0000000  0 07G04G07G08G09G14G17G30 +0.600,27.0,3.85
  18908919.250
  19789658.250
  21028779.250
  22863504.750
  22028344.250
  23305648.750
  20979315.750
 23  2 23 19  0 10.0000000  0 06G01G07G08G13G14G30 0.50,29.0,3.85
  19922881.250
  17991626.250
  20065004.750
  21340795.250
  19443627.750
  18440377.750
 23  2 23 19 30 10.0000000  0 05G07G13G14G17G30 +0.400,30.5,3.85
  21026260.750
  23441158.250
  21454350.750
  21979787.750
  20686404.250
 23  2 23 20  0  8.0000000  0 06G01G07G13G14G21G30 0.33,28.5,3.85
  23910342.250
  18506678.750
  20046417.750
  23702204.250
  19241993.750
  23407224.250
 23  2 23 20 30  5.0000000  0 07G01G13G14G15G17G19G30 0.27,23.0,3.85
  23740816.250
  20162727.250
  23238864.250
  21846944.750
  23448805.750
  19432955.750
  23648788.750
 23  2 23 21  0 11.0000000  0 04G13G17G19G30 +0.200,18.0,3.85
  23200931.250
  19732868.250
  21024201.250
  20857854.750
 23  2 23 21 30 11.0000000  0 04G01G06G14G19 +0.200,15.5,3.85
  22144339.750
  22189534.750
  20353308.750
  21024786.250
 23  2 23 22  0 11.0000000  0 06G06G11G14G17G19G24 -0.240,13.5,3.85
  21610064.250
  19171869.750
  21188770.750
  21099676.750
  21018110.250
  23858643.250
 23  2 23 22 30 12.0000000  0 05G03G06G11G17G19 -0.400,11.5,3.85
  23161607.250
  20461980.750
  23533805.750
  21033409.250
  20349822.250
 23  2 23 23  0  7.0000000  0 07G03G06G12G14G17G19G24 -0.39,10.5,3.85
  20695309.750
  23325311.750
  21562071.750
  19622411.750
  18738326.250
  23536971.250
  20352148.750
 23  2 23 23 30  8.0000000  0 06G03G06G12G17G19G24 -0.38,9.5,3.85
  22549713.750
  18478290.250
  21609710.750
  20465287.250
  18845461.250
  21927081.250
 23  2 24  0  0 10.0000000  0 06G06G11G12G17G19G24 -0.38,8.5,3.85
  20344094.250
  20999079.750
  22205076.250
  22683264.250
  20732034.750
  18198218.750
 23  2 24  0 30  8.0000000  0 06G06G11G12G17G19G25 -0.37,7.5,3.85
  19346087.750
  19129849.750
  19942846.250
  21884064.250
  19689391.750
  21882642.250
 23  2 24  1  0 10.0000000  0 07G05G06G11G12G17G20G25 -0.360,7.0,3.85
  23291288.250
  21482061.750
  20478333.750
  20988494.250
  18152993.250
  21018403.750
  22449241.250
 23  2 24  1 30  5.0000000  0 07G02G05G06G11G12G25G29 -0.32,6.5,3.85
  18093255.250
  21712450.250
  21858521.750
  20190251.750
  20584429.250
  21475352.250
  18339840.250
 23  2 24  2  0  7.0000000  0 08G02G05G06G09G11G12G25G29 -0.28,6.0,3.85
  22672205.750
  20042409.750
  21986720.250
  23320247.750
  19779904.250
  20290691.250
  20581908.250
  22558696.250
 23  2 24  2 30  7.0000000  0 07G02G05G11G12G20G25G29 -0.24,4.5,3.85
  19125429.250
  22464916.250
  23304862.750
  18150422.250
  22327911.750
  23885569.250
  18612466.250
 23  2 24  3  0  5.0000000  0 07G02G05G11G12G20G25G29 -0.20,3.5,3.85
  23679813.750
  21278854.750
  22991119.250
  18304111.250
  21863953.750
  23595214.750
  22817194.250
 23  2 24  3 30  6.0000000  0 07G02G05G11G13G18G20G29 -0.16,3.0,3.85
  18744714.750
  22881714.250
  19226909.250
  19072672.250
  21211600.750
  18075165.750
  23676179.250
 23  2 24  4  0 13.0000000  0 04G02G11G18G29 -0.12,2.5,3.85
  21065870.250
  22749567.250
  23057345.250
  20036356.750
 23  2 24  4 30  6.0000000  0 07G02G05G13G15G18G23G29 -0.08,2.5,3.85
  23262016.250
  23101156.750
  23021561.250
  22846994.750
  18710031.250
  19765616.250
  22550079.750
 23  2 24  5  0  9.0000000  0 06G05G13G15G20G23G29 -0.04,1.5,3.85
  20123108.250
  19209831.250
  18503509.250
  22254882.750
  21164281.250
  19209097.750
 23  2 24  5 30 11.0000000  0 04G05G10G13G23 +0.000,1.0,3.85
  21570532.250
  23814043.750
  20154162.250
  21025822.250
 23  2 24  6  0  6.0000000  0 06G02G05G10G13G15G29 0.00,0.0,3.85
  18084656.750
  20446469.250
  20940966.250
  18852523.250
  23079401.250
  19577734.750
 23  2 24  6 30  5.0000000  0 07G02G10G15G23G24G27G29 0.00,0.0,3.85
  23830272.250
  19441600.750
  22953910.250
  23224762.250
  18578099.250
  19981152.750
  20080265.250
 23  2 24  7  0 11.0000000  0 05G02G10G15G18G23 +0.000,-0.5,3.85
  20873535.750
  21026288.750
  20147297.750
  18701776.750
  19217295.250
 23  2 24  7 30  6.0000000  0 06G02G10G23G24G27G32 0.00,-1.5,3.85
  22940729.250
  21484236.750
  20158511.750
  20791806.250
  22940311.250
  22591248.750
 23  2 24  8  0  6.0000000  0 07G08G10G18G23G24G27G32 0.00,-2.0,3.85
  22719606.750
  19356038.250
  19356265.250
  18601099.250
  19246724.250
  21726579.750
  20221299.250
 23  2 24  8 30  7.0000000  0 07G08G10G22G23G24G27G32 0.00,-2.5,3.85
  20903124.750
  22946441.750
  19340668.750
  22843829.250
  23750891.250
  20428258.250
  23663716.250
 23  2 24  9  0 11.0000000  0 04G10G18G23G32 +0.000,-2.5,3.85
  21025528.750
  18069618.250
  21636792.750
  21645903.250
 23  2 24  9 30  5.0000000  0 06G10G21G22G28G31G32 -0.04,-3.5,3.85
  23599712.250
  21161451.250
  19077102.750
  19339214.250
  20114907.250
  18110220.250
 23  2 24 10  0  8.0000000  0 08G01G21G22G23G25G28G31G32 -0.09,-4.0,3.85
  23138777.250
  22715324.750
  20653529.750
  21811221.750
  22144230.250
  20426941.750
  20972323.750
  20075833.750
 23  2 24 10 30  5.0000000  0 08G01G10G12G21G22G25G28G32 -0.13,-4.0,3.85
  19479318.250
  23251726.750
  19958336.750
  19583919.750
  23371999.250
  18644721.750
  22815941.750
  23197367.250
 23  2 24 11  0  9.0000000  0 07G01G21G22G25G28G31G32 -0.18,-4.0,3.85
  21487801.250
  22050282.750
  19504188.750
  20805489.750
  18832066.750
  18845001.750
  19752131.250
 23  2 24 11 30  6.0000000  0 07G01G03G21G22G28G31G32 -0.22,-4.0,3.85
  23924416.750
  18868155.750
  18810535.250
  21761351.750
  21192707.250
  20972546.250
  22452843.250
 23  2 24 12  0  6.0000000  0 06G01G03G22G28G31G32 -0.27,-4.0,3.85
  19881358.750
  19267644.250
  23276683.750
  22985567.750
  22589649.250
  18439909.750
 23  2 24 12 30  8.0000000  0 07G01G03G04G22G28G31G32 -0.31,-4.5,3.85
  22622676.250
  20389949.750
  22980679.250
  19434606.750
  19514694.750
  19008796.750
  21076215.250
 23  2 24 13  0 10.0000000  0 07G03G04G16G22G26G28G31 -0.360,-4.0,3.85
  21018314.750
  23147714.750
  22195710.750
  20930120.250
  19932606.250
  21381476.250
  20824634.750
 23  2 24 13 30 21.0000000  0 02G03G04 -0.200,-3.0,3.85
  21220423.750
  22503525.750
 23  2 24 14  0 11.0000000  0 06G03G04G22G26G29G31 +0.000,10.0,3.85
  21024526.250
  21129887.250
  22020133.250
  19839951.250
  18622704.250
  22362344.750
 23  2 24 14 30 13.0000000  0 07G03G04G16G26G27G28G31 -0.200,10.0,3.85
  19868293.250
  18564808.250
  26136838.250
  18609121.250
  21038197.750
  21992446.750
  21469848.250
 23  2 24 15  0 13.0000000  0 00 -0.25,16.0,3.85
 23  2 24 15 30 13.0000000  0 00 -0.30,19.5,3.85
 23  2 24 16  0 13.0000000  0 00 -0.35,20.5,3.85
 23  2 24 16 30 13.0000000  0 00 -0.40,21.0,3.85
 23  2 24 17  0 13.0000000  0 00 -0.45,21.5,3.85
 23  2 24 17 30 13.0000000  0 00 -0.50,21.5,3.85
 23  2 24 18  0 13.0000000  0 00 -0.55,21.5,3.85
 23  2 24 18 30 13.0000000  0 00 -0.60,22.0,3.85
 23  2 24 19  0 13.0000000  0 00 -0.65,21.5,3.85
 23  2 24 19 30 13.0000000  0 00 -0.70,22.0,3.85
 23  2 24 20  0 13.0000000  0 00 -0.75,22.0,3.85
 23  2 24 20 30 13.0000000  0 00 -0.80,22.5,3.85
 23  2 24 21  0 13.0000000  0 00 -0.85,22.5,3.85
 23  2 24 21 30 13.0000000  0 00 -0.90,22.0,3.85
 23  2 24 22  0 13.0000000  0 00 -0.95,22.0,3.85
 23  2 24 22 30 22.0000000  0 00 -1.00,21.5,3.85
 23  2 24 23  0 22.0000000  0 00 -1.05,21.5,3.85
 23  2 24 23 30 22.0000000  0 00 -1.10,21.5,3.85
 23  2 25  0  0 22.0000000  0 00 -1.15,21.5,3.85
 23  2 25  0 30 22.0000000  0 00 -1.20,21.5,3.85
 23  2 25  1  0 13.0000000  0 00 -1.25,21.5,3.85
 23  2 25  1 30 13.0000000  0 00 -1.30,21.5,3.85
 23  2 25  2  0 22.0000000  0 02G09G11 -1.35,21.5,3.85
  23303383.250
  19778593.750
 23  2 25  2 30 22.0000000  0 01G09 -1.400,22.0,3.85
  21053118.250
 23  2 25  3  0 13.0000000  0 00 -1.47,21.5,3.85
 23  2 25  3 30 22.0000000  0 01G11 -1.53,21.5,3.85
  20357739.250
 23  2 25  4  0 13.0000000  0 00 -1.60,21.5,3.85
 23  2 25  4 30 13.0000000  0 00 -1.67,21.5,3.85
 23  2 25  5  0 13.0000000  0 00 -1.73,21.5,3.85
 23  2 25  5 30 22.0000000  0 02G02G16 -1.800,21.5,3.85
  21031051.250
  19653328.250
 23  2 25  6  0 13.0000000  0 00 -1.83,21.5,3.85
 23  2 25  6 30 13.0000000  0 00 -1.87,21.5,3.85
 23  2 25  7  0 13.0000000  0 00 -1.90,21.5,3.85
 23  2 25  7 30 13.0000000  0 00 -1.93,21.0,3.85
 23  2 25  8  0 13.0000000  0 00 -1.97,21.0,3.85
 23  2 25  8 18 19.0000000  0 00 0.00,22.5,3.85,0
 23  2 25  9 19 10.0000000  0 00 0.00,22.0,3.85,0
 23  2 25 10 19 10.0000000  0 00 0.00,22.0,3.85,0
 23  2 25 11 19 10.0000000  0 00 0.00,22.0,3.85,0
 23  2 25 12 19 10.0000000  0 00 0.00,22.0,3.85,0
 23  2 25 13 19 10.0000000  0 00 0.00,22.0,3.85,0
 23  2 25 14 19 10.0000000  0 00 0.00,22.0,3.85,0
 23  2 25 15 19 10.0000000  0 00 0.00,22.0,3.85,0
 23  2 25 16 19 10.0000000  0 00 0.00,22.0,3.85,0
 23  2 25 17 19 10.0000000  0 00 0.00,22.0,3.85,0
 23  2 25 18 19 10.0000000  0 00 0.00,22.0,3.85,0
 23  2 25 19 19 10.0000000  0 00 0.00,22.0,3.85,0
 23  2 25 20 19 10.0000000  0 00 0.00,22.0,3.85,0
 23  2 25 21 19 10.0000000  0 00 0.00,22.0,3.85,0
 23  2 25 22 19 10.0000000  0 00 0.00,22.0,3.85,0
 23  2 25 23 19 10.0000000  0 00 0.00,21.5,3.85,0
 23  2 26  0 19 10.0000000  0 00 0.00,21.5,3.85,0
 23  2 26  1 19 10.0000000  0 00 0.00,21.5,3.85,0
 23  2 26  2 19 10.0000000  0 00 0.00,21.5,3.85,0
 23  2 26  3 19 10.0000000  0 00 0.00,21.5,3.85,0
 23  2 26  4 19 10.0000000  0 00 0.00,21.5,3.85,0
 23  2 26  5 19 10.0000000  0 00 0.00,21.5,3.85,0
 23  2 26  6 19 10.0000000  0 00 0.00,21.5,3.85,0
 23  2 26  7 19 10.0000000  0 00 0.00,21.5,3.85,0
 23  2 26  8 19 10.0000000  0 00 0.00,21.5,3.85,0
 23  2 26  9 19 10.0000000  0 00 0.00,21.5,3.85,0
 23  2 26 10 19 10.0000000  0 00 0.00,21.5,3.85,0
 23  2 26 11 19 10.0000000  0 00 0.00,21.5,3.85,0
 23  2 26 12 19 10.0000000  0 00 0.00,21.5,3.85,0
 23  2 26 13 19 10.0000000  0 00 0.00,21.5,3.85,0
 23  2 26 14 19 10.0000000  0 00 0.00,21.5,3.85,0
 23  2 26 15 19 10.0000000  0 00 0.00,21.5,3.85,0
 23  2 26 16 19 10.0000000  0 00 0.00,21.5,3.85,0
 23  2 26 17 19 10.0000000  0 00 0.00,21.5,3.85,0
 23  2 26 18 19 10.0000000  0 00 0.00,21.5,3.85,0
 23  2 26 19 19 10.0000000  0 00 0.00,21.5,3.85,0
 23  2 26 20 19 10.0000000  0 00 0.00,22.0,3.85,0
 23  2 26 21 19 10.0000000  0 00 0.00,21.5,3.85,0
 23  2 26 22 19 10.0000000  0 00 0.00,21.5,3.85,0
 23  2 26 23 19 10.0000000  0 00 0.00,21.5,3.85,0
 23  2 27  0 19 10.0000000  0 00 0.00,21.5,3.85,0
 23  2 27  1 19 10.0000000  0 00 0.00,21.5,3.85,0
 23  2 27  2 19 10.0000000  0 00 0.00,21.5,3.85,0
 23  2 27  3 19 10.0000000  0 00 0.00,21.5,3.85,0
 23  2 27  4 19 10.0000000  0 00 0.00,21.5,3.85,0
 23  2 27  5 19 10.0000000  0 00 0.00,21.5,3.85,0
 23  2 27  6 19 10.0000000  0 00 0.00,22.0,3.85,0
 23  2 27  7 19 10.0000000  0 00 0.00,21.5,3.85,0
 23  2 27  8 19 10.0000000  0 00 0.00,22.0,3.85,0
 23  2 27  9 19 10.0000000  0 00 0.00,22.0,3.85,0
 23  2 27 10 19 10.0000000  0 00 0.00,22.0,3.85,0
 23  2 27 11 19 10.0000000  0 00 0.00,22.0,3.85,0
 23  2 27 12 19 10.0000000  0 00 0.00,22.5,3.85,0
 23  2 27 13 19 10.0000000  0 00 0.00,22.5,3.85,0
 23  2 27 14 19 10.0000000  0 00 0.00,22.5,3.85,0
 23  2 27 15 19 10.0000000  0 00 0.00,22.5,3.85,0
 23  2 27 16 19 10.0000000  0 00 0.00,22.5,3.85,0
 23  2 27 17 19 10.0000000  0 00 0.00,22.5,3.85,0
 23  2 27 18 19 10.0000000  0 00 0.00,22.5,3.85,0
 23  2 27 19 19 10.0000000  0 00 0.00,23.0,3.85,0
 23  2 27 20 19 10.0000000  0 00 0.00,23.0,3.85,0
 23  2 27 21 19 10.0000000  0 00 0.00,23.0,3.85,0
 23  2 27 22 19 10.0000000  0 00 0.00,23.0,3.85,0
 23  2 27 23 19 10.0000000  0 00 0.00,23.5,3.85,0
 23  2 28  0 19 10.0000000  0 00 0.00,23.5,3.85,0
 23  2 28  1 19 10.0000000  0 00 0.00,23.5,3.85,0
 23  2 28  2 19 10.0000000  0 00 0.00,23.5,3.85,0
 23  2 28  3 19 10.0000000  0 00 0.00,23.5,3.85,0
 23  2 28  4 19 10.0000000  0 00 0.00,23.5,3.85,0
 23  2 28  5 19 10.0000000  0 00 0.00,23.0,3.85,0
 23  2 28  6 19 10.0000000  0 00 0.00,23.0,3.85,0
 23  2 28  7 19 10.0000000  0 00 0.00,23.0,3.85,0
 23  2 28  8 19 10.0000000  0 00 0.00,23.0,3.85,0
 23  2 28  9 19 10.0000000  0 00 0.00,23.0,3.85,0
 23  2 28 10 19 10.0000000  0 00 0.00,22.5,3.85,0
 23  2 28 11 19 10.0000000  0 00 0.00,22.5,3.85,0
 23  2 28 12 19 10.0000000  0 00 0.00,22.5,3.85,0
 23  2 28 13 19 10.0000000  0 00 0.00,22.5,3.85,0
 23  2 28 14 19 10.0000000  0 00 0.00,22.5,3.85,0
 23  2 28 15 19 10.0000000  0 00 0.00,22.5,3.85,0
 23  2 28 16 19 10.0000000  0 00 0.00,22.5,3.85,0
 23  2 28 17  0 11.0000000  0 05G08G09G14G27G30 -7.400,20.0,3.85
  21027417.250
  21797910.250
  19044864.250
  22244170.750
  18169583.250
 23  2 28 17 30 11.0000000  0 05G07G08G09G14G27 +1.400,20.0,3.85
  21024200.250
  21098787.250
  22409626.250
  17994204.750
  23028742.750
 23  2 28 18  0 14.0000000  0 06G01G04G07G08G09G30 +1.600,20.0,3.85
  23129477.750
  18347762.250
  19675635.250
  20630542.750
  22358259.750
  21081182.250
 23  2 28 18 30 11.0000000  0 06G01G07G08G13G21G30 +1.400,19.5,3.85
  21808597.250
  19499116.250
  21327735.250
  23161980.750
  21025695.250
  20194700.250
 23  2 28 19  0 11.0000000  0 07G07G08G13G14G17G21G30 +1.400,20.0,3.85
  20247183.250
  22783362.750
  22959484.750
  21026152.750
  21645732.250
  21391628.750
  20154285.750
 23  2 28 19 30 11.0000000  0 06G07G08G13G17G21G30 +1.400,20.5,3.85
  20207029.750
  23194105.750
  22016160.250
  20183101.750
  21027392.750
  19336507.250
 23  2 28 20  0  7.0000000  0 06G07G13G17G19G21G30 1.30,21.5,3.85
  20715048.750
  21716331.750
  19233926.250
  21400128.250
  21272939.750
  19157200.750
 23  2 28 20 30 12.0000000  0 06G01G07G13G14G17G19 +1.200,21.0,3.85
  21716374.750
  23945006.750
  18251546.250
  20848771.750
  21024756.750
  22525151.250
 23  2 28 21  0  6.0000000  0 07G01G03G06G07G19G21G30 1.30,21.0,3.85
  19768244.250
  21885354.250
  20478231.250
  22547229.250
  19135436.250
  22743365.750
  20120209.250
 23  2 28 21 30 16.0000000  0 05G01G03G06G14G19 +1.400,21.5,3.85
  21124267.250
  21589739.750
  19666403.750
  18806318.750
  18913420.250
 23  2 28 22  0 35.0000000  0 04G03G14G17G19 +1.200,22.5,3.85
  21460121.750
  19510777.750
  19223066.250
  18717315.750
 23  2 28 22 30 17.0000000  0 02G06G17 +0.800,24.0,3.85
  19955166.750
  21130560.250
 23  2 28 23  0 33.0000000  0 07G03G06G11G12G14G17G19 +1.200,25.5,3.85
  23306681.750
  19455943.250
  21276485.750
  22955473.750
  22573669.750
  21285793.750
  19797380.750
 23  2 28 23 30 20.0000000  0 04G06G17G19G20 +0.800,26.5,3.85
  20793144.750
  23026722.250
  21186061.750
  23915206.750
 23  3  1  0  0 36.0000000  0 04G06G11G12G17 +0.400,27.5,3.85
  21217164.250
  21258307.750
  22185099.750
  23683333.750
 23  3  1  0 30 34.0000000  0 04G05G12G19G20 +1.000,27.5,3.85
  23750127.750
  21167546.750
  21671910.750
  21343253.250
 23  3  1  1  0 11.0000000  0 06G05G11G12G19G20G25 +1.000,22.5,3.85
  22541146.750
  20622779.750
  21027432.750
  22436295.250
  20693010.750
  22118492.750
 23  3  1  1 30 11.0000000  0 05G05G11G12G19G25 +0.800,19.5,3.85
  20728412.750
  20089268.250
  20538645.250
  22606640.250
  21024530.250
 23  3  1  2  0  5.0000000  0 08G02G05G11G12G19G20G25G29 0.78,19.0,3.85
  20529154.750
  23840431.750
  18359450.750
  19078830.250
  21568567.750
  23461388.750
  18986002.250
  20123117.750
 23  3  1  2 30  5.0000000  0 07G02G05G06G11G12G20G29 0.76,18.0,3.85
  18503480.750
  21981019.250
  20309963.750
  23441933.250
  18602523.250
  22343246.250
  23719590.750
 23  3  1  3  0  5.0000000  0 07G02G05G11G12G13G20G25 0.74,17.5,3.85
  22705515.750
  20644868.750
  22805529.750
  18466790.250
  23194863.250
  21647394.750
  23525413.750
 23  3  1  3 30  5.0000000  0 07G05G11G13G15G20G25G29 0.72,16.5,3.85
  19666027.750
  22301603.250
  21038002.250
  21442437.250
  21165115.250
  23257169.250
  19933225.250
 23  3  1  4  0  6.0000000  0 06G02G05G11G18G20G29 0.70,15.5,3.85
  18848546.250
  18392944.750
  21337740.250
  20482401.750
  20238180.250
  18001518.750
 23  3  1  4 30  9.0000000  0 07G02G05G11G13G18G23G29 0.68,15.0,3.85
  22248567.750
  22751446.250
  19914185.250
  22059111.250
  23274408.750
  18295501.750
  21917130.250
 23  3  1  5  0  7.0000000  0 06G02G05G10G20G23G29 0.66,14.5,3.85
  20086251.250
  21498061.250
  18302082.250
  23673563.750
  21438293.250
  20490095.250
 23  3  1  5 30  5.0000000  0 08G02G05G10G13G15G18G23G29 0.64,14.0,3.85
  23401220.750
  19580371.750
  20621418.750
  18000857.750
  22380971.250
  22980983.750
  17989827.750
  18647198.250
 23  3  1  6  0  5.0000000  0 06G05G13G15G18G23G29 0.62,14.0,3.85
  18000120.750
  22422606.750
  20350352.250
  20068493.750
  20973453.250
  23311198.250
 23  3  1  6 30 11.0000000  0 04G10G18G27G32 +0.600,14.0,3.85
  21026607.750
  18436543.750
  21731844.250
  22602702.250
 23  3  1  7  0  5.0000000  0 07G02G10G15G18G24G27G32 0.53,14.0,3.85
  23671283.250
  22749196.250
  23027264.750
  21086648.250
  21945117.750
  23970094.250
  23958545.750
 23  3  1  7 30  8.0000000  0 07G08G10G18G22G23G24G27 0.47,13.5,3.85
  22751485.750
  19529802.250
  19087784.250
  22471805.250
  18582947.750
  19197731.250
  21581315.250
 23  3  1  8  0 11.0000000  0 05G08G10G22G23G32 +0.400,13.5,3.85
  18012359.250
  20266015.750
  22770316.750
  19949166.750
  21024765.750
 23  3  1  8 30  6.0000000  0 08G08G10G12G18G22G27G28G32 0.38,13.0,3.85
  23211097.750
  18763898.250
  23319171.750
  21306308.250
  20842874.750
  23026272.750
  21834658.250
  19416443.250
 23  3  1  9  0  5.0000000  0 06G10G22G23G25G28G32 0.36,12.5,3.85
  21351304.250
  22972982.250
  22461876.250
  18967552.750
  23411132.250
  21903501.750
 23  3  1  9 30  5.0000000  0 08G10G12G21G22G23G28G31G32 0.33,12.0,3.85
  18034735.750
  21437589.750
  21167587.750
  19107539.750
  19859139.250
  19024667.250
  19689472.750
  18417210.250
 23  3  1 10  0  8.0000000  0 07G01G10G12G21G22G23G31 0.31,11.5,3.85
  23440963.250
  20862620.250
  23723957.750
  23382504.250
  21236432.750
  23321275.750
  21163838.250
 23  3  1 10 30  5.0000000  0 06G01G21G22G23G31G32 0.29,11.0,3.85
  19180095.750
  19609318.250
  23184258.750
  20643895.750
  22645111.250
  23299262.750
 23  3  1 11  0  7.0000000  0 07G01G21G22G25G26G28G31 0.27,10.5,3.85
  21185612.750
  21985003.250
  19111261.250
  20600471.750
  21661740.250
  18487691.750
  18349275.250
 23  3  1 11 30  5.0000000  0 08G03G10G21G25G26G28G31G32 0.24,10.5,3.85
  19039725.750
  19393627.250
  20134934.250
  18719241.250
  18059748.250
  22297692.250
  21951759.750
  23695251.250
 23  3  1 12  0  8.0000000  0 08G01G03G04G16G22G28G31G32 0.22,10.0,3.85
  21492648.750
  19774275.250
  22435197.750
  21912083.250
  18504191.250
  18460723.250
  23968511.250
  19982707.750
 23  3  1 12 30 11.0000000  0 07G03G04G22G26G28G31G32 +0.200,10.0,3.85
  21025775.250
  23342573.750
  20687913.750
  19946391.250
  21024875.250
  20458898.750
  22643539.250
 23  3  1 13  0 13.0000000  0 06G03G22G26G28G31G32 -0.600,9.5,3.85
  20593695.750
  20984518.250
  19476205.750
  21642299.250
  21049205.250
  23389314.250
 23  3  1 13  2 32.0000000  0 00 +2.000,10.0,3.85,1,66990,-5051775,3880269,4,1.0
 23  3  1 13 30 11.0000000  0 05G03G22G26G27G31 +0.200,10.0,3.85
  20141057.250
  21027100.750
  18973627.250
  23653615.750
  21296463.750
 23  3  1 14  0 11.0000000  0 07G03G04G16G22G26G27G31 +0.200,13.5,3.85
  22800775.250
  21973348.250
  21027023.250
  23988324.750
  21574337.250
  18588056.750
  24324032.250
 23  3  1 14 30 11.0000000  0 07G03G07G08G09G16G27G31 -0.360,16.0,3.85
  21148100.250
  23016113.250
  22676750.250
  21018083.250
  18343067.750
  20944008.250
  22757402.750
 23  3  1 15  0 10.0000000  0 07G03G04G07G08G09G16G27 -0.48,19.5,3.85
  22608895.250
  18971234.250
  22629244.750
  21843912.750
  20491819.250
  18985685.250
  20406257.750
 23  3  1 15 30 22.0000000  0 05G04G07G08G09G27 -0.600,20.5,3.85
  20357857.250
  23164505.750
  22033544.250
  21132552.750
  21103903.250
 23  3  1 16  0 22.0000000  0 01G04 -0.65,20.0,3.85
  18262771.250
 23  3  1 16 30 13.0000000  0 00 -0.70,20.5,3.85
 23  3  1 17  0 22.0000000  0 01G09 -0.75,21.0,3.85
  23782959.250
 23  3  1 17 30 21.0000000  0 01G09 -0.800,21.5,3.85
  21088638.750
 23  3  1 18  0 13.0000000  0 00 -0.83,22.0,3.85
 23  3  1 18 30 13.0000000  0 00 -0.86,22.0,3.85
 23  3  1 19  0 13.0000000  0 00 -0.89,22.0,3.85
 23  3  1 19 30 13.0000000  0 00 -0.91,22.0,3.85
 23  3  1 20  0 13.0000000  0 00 -0.94,22.0,3.85
 23  3  1 20 30 13.0000000  0 00 -0.97,22.5,3.85
 23  3  1 21  0 22.0000000  0 01G30 -1.000,22.5,3.85
  21127778.250
 23  3  1 21 30 13.0000000  0 06G01G03G06G14G17G19 -0.600,23.5,3.85
  23465954.750
  23725586.750
  21729515.750
  21058194.750
  21008298.750
  21040661.250
 23  3  1 22  0 23.0000000  0 06G01G03G06G14G19G24 -0.90,21.0,3.85
  18599656.250
  23368464.750
  20777656.250
  21517803.750
  20603052.250
  23344215.750
 23  3  1 22 30 25.0000000  0 04G06G11G14G19 -1.200,21.5,3.85
  21072038.750
  23600054.750
  23141045.750
  21248714.750
 23  3  1 23  0 18.0000000  0 05G03G06G11G17G20 -0.600,22.0,3.85
  18968397.750
  21025202.250
  22737665.250
  22917539.250
  19368569.750
 23  3  1 23 30 20.0000000  0 03G17G19G20 -1.00,22.5,3.85
  20547640.750
  18668477.750
  21196219.250
 23  3  2  0  0 18.0000000  0 04G06G17G19G20 -1.400,23.0,3.85
  19751322.750
  22235231.250
  20101107.750
  21099417.250
 23  3  2  0 30 13.0000000  0 07G05G06G09G11G12G19G20 -1.10,23.0,3.85
  20097478.250
  23954018.750
  21297452.250
  23080929.250
  23631733.250
  18266614.250
  23751096.250
 23  3  2  1  0 11.0000000  0 05G06G11G19G20G29 -0.800,23.5,3.85
  22610962.250
  21046461.250
  22947214.250
  21024163.250
  19403941.750
 23  3  2  1 30 18.0000000  0 07G05G06G09G12G19G20G25 -0.83,23.5,3.85
  19478381.250
  21147601.250
  22583663.750
  19490531.250
  21622294.250
  18444051.250
  19900269.750
 23  3  2  2  0  9.0000000  0 07G02G05G09G11G12G19G20 -0.86,21.0,3.85
  18753683.250
  22069654.250
  20250923.750
  22729075.250
  23501679.250
  20040155.250
  21796365.250
 23  3  2  2 30  9.0000000  0 06G05G06G11G12G20G29 -0.89,19.5,3.85
  20696400.250
  19169917.750
  22260882.750
  23497706.250
  21148662.750
  22343024.750
 23  3  2  3  0  9.0000000  0 07G05G11G12G15G20G25G29 -0.91,19.0,3.85
  19453526.250
  21684428.750
  23422443.250
  22530758.250
  20526845.250
  22447615.750
  20373792.750
 23  3  2  3 30  5.0000000  0 07G02G05G11G12G13G15G20 -0.94,18.5,3.85
  19928151.250
  18691861.750
  21370692.750
  23535817.750
  19901320.250
  20259577.750
  20239151.250
 23  3  2  4  0  5.0000000  0 06G05G11G15G18G20G23 -0.97,18.5,3.85
  19712943.250
  22685121.250
  19726057.250
  21605880.750
  21586748.250
  22663314.750
 23  3  2  4 30 11.0000000  0 06G05G11G13G18G20G29 -1.000,18.5,3.85
  21025993.750
  18210046.750
  20229135.750
  21337371.250
  23099966.250
  20159317.750
 23  3  2  5  0 11.0000000  0 06G02G13G15G18G23G29 -1.000,18.0,3.85
  20503032.750
  20666777.250
  19509292.750
  20742512.250
  21762057.250
  21026711.250
 23  3  2  5 30 25.0000000  0 04G05G13G27G29 -1.400,17.5,3.85
  22874887.250
  21279816.250
  24214004.250
  21981084.750
 23  3  2  6  0  6.0000000  0 06G02G13G15G18G24G29 -1.35,17.0,3.85
  20019616.750
  21240399.750
  19115769.750
  18714327.750
  21039748.250
  22165953.750
 23  3  2  6 30  9.0000000  0 06G10G15G18G23G24G27 -1.30,17.0,3.85
  19736676.750
  18537327.250
  23244214.250
  23834654.750
  18793231.250
  20490716.750
 23  3  2  7  0  7.0000000  0 06G02G10G15G24G27G32 -1.25,16.0,3.85
  18581378.750
  23435722.750
  23939464.750
  22666400.750
  18758011.250
  18610257.750
 23  3  2  7 30 11.0000000  0 04G10G15G23G24 -1.200,15.5,3.85
  21025362.750
  23270352.250
  20155154.250
  20778961.250
 23  3  2  8  0 11.0000000  0 05G10G18G21G28G32 -1.200,15.0,3.85
  21026194.750
