     2.00           OBSERVATION DATA    G(GPS)              RINEX VERSION / TYPE
goGPS-java                              17-Apr-24 13:41:25  PGM / RUN BY / DATE
                                                            MARKER NAME
                                                            MARKER NUMBER
                    Lotek Wireless Inc.                     OBSERVER / AGENCY
7                                                           REC # / TYPE / VERS
                                                            ANT # / TYPE
    73993.0000 -5057250.0000  3872763.0000                  APPROX POSITION XYZ
        0.0000        0.0000        0.0000                  ANTENNA: DELTA H / E / N
     2     0                                                WAVELENGTH FACT L1/2
     1    C1                                                # / TYPES OF OBSERV
  2023     2    21     2    28   49.0000000     UTC         TIME OF FIRST OBS
                                                            END OF HEADER
 23  2 21  2 30 13.0000000  0 00 0.00,23.0,3.85
 23  2 21  3  0 13.0000000  0 00 0.07,23.0,3.85
 23  2 21  3 30 11.0000000  0 08G02G05G11G12G13G20G25G29 0.13,22.5,3.85
  22097875.750
  19986927.250
  22104399.750
  23705120.250
  22638970.750
  20954254.750
  22807138.750
  21099802.250
 23  2 21  4  0 22.0000000  0 02G02G20 +0.200,16.5,3.85
  21103084.750
  21167712.750
 23  2 21  4 30 13.0000000  0 00 0.60,16.5,3.85
 23  2 21  5  0 28.0000000  0 04G02G05G13G20 +1.000,17.0,3.85
  21468130.750
  21875751.250
  21262784.250
  23959394.750
 23  2 21  5 30 15.0000000  0 04G02G05G13G23 +0.800,16.5,3.85
  19596119.250
  20910972.750
  19665985.750
  21024883.750
 23  2 21  6  0 30.0000000  0 04G02G13G15G23 +0.600,17.0,3.85
  21108935.250
  21656946.250
  20084625.250
  21767533.750
 23  2 21  6 30 22.0000000  0 02G10G23 +0.200,16.5,3.85
  21102358.750
  18750397.250
 23  2 21  7  0 11.0000000  0 04G02G10G18G23 +0.800,16.0,3.85
  21025573.250
  21799198.750
  19134096.250
  19814263.250
 23  2 21  7 30 15.0000000  0 04G10G15G18G23 +0.800,16.5,3.85
  21025030.750
  21149803.250
  19270423.250
  19490422.250
 23  2 21  8  0 19.0000000  0 02G10G27 +1.000,16.5,3.85
  21099508.750
  23077171.750
 23  2 21  8 30 11.0000000  0 06G10G18G22G23G24G27 +1.000,16.5,3.85
  21028497.750
  21900358.750
  23608574.750
  20647491.250
  21420078.250
  18052868.250
 23  2 21  9  0 22.0000000  0 02G08G10 +0.200,16.5,3.85
  19519880.250
  21121517.250
 23  2 21  9 30 20.0000000  0 01G10 +0.200,16.5,3.85
  21104462.250
 23  2 21 10  0 40.0000000  0 05G10G21G22G31G32 +0.000,16.5,3.85
  21064558.250
  24254044.750
  22204218.250
  22788966.250
  21461489.250
 23  2 21 10 30 22.0000000  0 02G10G31 +0.200,16.5,3.85
  21087866.750
  21479345.250
 23  2 21 11  0 32.0000000  0 05G01G10G21G28G32 0.30,16.5,3.85
  23328832.250
  21753096.750
  23724941.250
  20677683.250
  21403755.750
 23  2 21 11 30 16.0000000  0 04G01G22G28G31 +0.400,16.5,3.85
  21090949.750
  19029410.250
  18395039.750
  18263615.250
 23  2 21 12  0 24.0000000  0 05G01G03G21G22G31 +0.400,16.5,3.85
  21157117.250
  21175338.750
  22148479.250
  18746519.250
  17997609.250
 23  2 21 12 30 40.0000000  0 03G21G22G31 +0.000,16.5,3.85
  25995126.750
  22005314.250
  21468628.750
 23  2 21 13  0 22.0000000  0 02G26G28 +0.200,16.5,3.85
  20261336.250
  21217812.750
 23  2 21 13 30 25.0000000  0 04G16G22G28G31 +1.000,16.5,3.85
  21167852.250
  20885813.250
  21526236.750
  20964052.750
 23  2 21 14  0 32.0000000  0 04G03G04G22G31 0.93,16.5,3.85
  20714443.250
  21320395.750
  21546848.250
  21844706.750
 23  2 21 14 30  9.0000000  0 06G03G04G22G26G27G31 0.87,12.5,3.85
  23468989.250
  22760498.750
  18615908.750
  22237386.250
  19428843.250
  18998693.250
 23  2 21 15  0 11.0000000  0 04G04G16G22G31 +0.800,10.5,3.85
  21592416.750
  21025522.250
  19069426.250
  19387808.750
 23  2 21 15 30 12.0000000  0 05G04G08G16G26G27 +0.800,12.0,3.85
  19530217.250
  22502250.750
  19481921.750
  21686632.250
  21024833.250
 23  2 21 16  0  9.0000000  0 06G04G08G09G16G26G27 0.80,13.0,3.85
  18339929.750
  20139621.250
  19191102.750
  18810447.750
  21552563.250
  19148208.750
 23  2 21 16 30 15.0000000  0 05G04G08G09G16G27 +0.800,14.5,3.85
  21080910.250
  21544159.750
  21143794.250
  21956526.250
  21226730.250
 23  2 21 17  0 29.0000000  0 04G04G08G09G27 +0.800,15.5,3.85
  21360109.750
  20464255.750
  20672199.750
  20936570.250
 23  2 21 17 30  6.0000000  0 06G04G07G08G09G14G27 0.50,15.5,3.85
  20665493.750
  19202891.750
  18561934.250
  19360081.750
  22536415.750
  19813866.250
 23  2 21 18  0 17.0000000  0 05G07G08G09G14G27 +0.200,16.5,3.85
  21121538.750
  21228509.750
  22567247.250
  18071721.250
  23185963.750
 23  2 21 18 30 40.0000000  0 04G13G14G21G30 +0.000,18.0,3.85
  18922344.250
  22818341.250
  22344543.750
  21776584.750
 23  2 21 19  0 25.0000000  0 05G01G07G09G21G30 +1.000,19.0,3.85
  22860749.750
  23598726.750
  24492121.750
  22114885.750
  21258908.750
 23  2 21 19 30 16.0000000  0 05G14G17G19G21G30 +0.200,19.5,3.85
  20484207.750
  21085179.250
  18276178.750
  20883076.750
  19629126.750
 23  2 21 20  0 12.0000000  0 06G01G07G14G17G21G30 +0.400,20.0,3.85
  21210379.250
  21479708.750
  21036136.250
  21396015.750
  22291778.750
  20588171.750
 23  2 21 20 30 11.0000000  0 04G01G07G14G17 +0.800,20.5,3.85
  19641385.750
  21026456.250
  19253541.750
  19485339.750
 23  2 21 21  0 12.0000000  0 05G01G06G13G19G30 +0.800,20.0,3.85
  18369062.750
  21024999.750
  20920267.250
  19145733.750
  18518941.250
 23  2 21 21 30  5.0000000  0 07G01G03G13G14G17G19G30 0.80,20.0,3.85
  18581154.250
  20636980.250
  21141659.250
  22997928.250
  23112165.750
  23900525.250
  18952650.250
 23  2 21 22  0 11.0000000  0 04G06G14G17G19 +0.800,19.5,3.85
  21025625.250
  20207960.250
  20182445.250
  20283813.750
 23  2 21 22 30 11.0000000  0 06G01G03G06G17G19G24 +1.000,18.5,3.85
  18638481.750
  23555695.250
  21029424.250
  21327382.250
  20800396.750
  23536531.750
 23  2 21 23  0  8.0000000  0 06G03G06G11G14G17G19 0.70,18.0,3.85
  18166924.250
  20981456.250
  23563940.750
  22926361.750
  22190099.250
  21122184.750
 23  2 21 23 30 13.0000000  0 04G03G06G11G24 +0.400,18.0,3.85
  18942474.250
  21055232.750
  22835080.750
  18392924.750
 23  2 22  0  0 13.0000000  0 04G11G12G17G19 +0.200,17.5,3.85
  21555992.250
  22875013.750
  20228824.250
  21052093.750
 23  2 22  0 30 17.0000000  0 05G06G11G12G17G20 +0.800,17.0,3.85
  20098880.750
  20108485.750
  21026099.750
  22598662.750
  21587790.250
 23  2 22  1  0  5.0000000  0 08G05G06G11G12G17G19G20G25 0.80,15.5,3.85
  22073789.250
  19709534.250
  18912025.250
  19492300.750
  22349189.250
  20023014.750
  19651323.250
  21089413.750
 23  2 22  1 30  6.0000000  0 08G02G05G06G11G12G19G20G25 0.80,15.0,3.85
  23540988.250
  21266036.250
  20883381.250
  19385953.250
  19789864.750
  21216565.250
  19423308.750
  20837513.250
 23  2 22  2  0  8.0000000  0 06G02G05G11G12G19G25 0.80,14.5,3.85
  22994720.750
  20418937.750
  19823093.750
  20277563.750
  22351990.250
  20728184.250
 23  2 22  2 30  8.0000000  0 08G02G05G06G09G11G12G19G29 0.80,14.0,3.85
  22272400.750
  19599763.250
  22677411.250
  23667174.250
  20159833.250
  20890762.750
  23378702.250
  21876233.250
 23  2 22  3  0 11.0000000  0 04G02G11G12G25 +0.800,13.5,3.85
  21445398.750
  20451003.750
  21622341.250
  21026957.750
 23  2 22  3 30  5.0000000  0 07G11G12G13G15G20G25G29 0.80,13.5,3.85
  20693877.750
  22361740.250
  21000861.250
  21707146.750
  19542035.750
  21424528.750
  19508004.250
 23  2 22  4  0  6.0000000  0 06G02G05G11G13G20G29 0.80,13.0,3.85
  19686551.250
  18373168.250
  21040468.750
  19698338.250
  19914359.750
  18622889.250
 23  2 22  4 30 11.0000000  0 06G02G05G15G20G23G29 0.80,13.5,3.85
  19005253.750
  18585591.250
  18738164.250
  20473559.250
  21682707.250
  18179240.250
 23  2 22  5  0 11.0000000  0 06G02G11G13G15G23G29 +0.800,13.5,3.85
  19007792.750
  22732912.750
  18826901.250
  18268630.250
  21026095.750
  18700468.250
 23  2 22  5 30 10.0000000  0 04G10G18G23G29 +0.800,13.5,3.85
  21026565.750
  23151689.750
  18185750.750
  23287134.250
 23  2 22  6  0 11.0000000  0 06G02G05G13G18G23G29 +0.800,13.5,3.85
  20478591.750
  22667570.250
  21098347.250
  20012552.250
  21026112.750
  21741948.750
 23  2 22  6 30  6.0000000  0 06G02G10G13G15G18G29 0.70,13.5,3.85
  18050309.250
  20016438.750
  19222979.250
  23129977.250
  22801000.250
  20099890.750
 23  2 22  7  0 18.0000000  0 05G02G10G18G23G27 +0.600,14.0,3.85
  20604546.250
  21164214.250
  18613941.250
  19240803.250
  21891216.250
 23  2 22  7 30  5.0000000  0 07G02G10G15G18G23G24G32 0.70,14.0,3.85
  19279200.750
  18275298.750
  18635833.250
  22660877.250
  22805549.750
  23481269.750
  19462314.750
 23  2 22  8  0 10.0000000  0 07G02G10G15G22G23G24G32 +0.800,14.0,3.85
  23724208.250
  21026276.750
  23129471.750
  23976247.250
  20109040.250
  20724095.250
  21943039.750
 23  2 22  8 30  6.0000000  0 06G10G22G23G24G27G32 0.80,14.5,3.85
  23099244.250
  19616142.750
  22810942.250
  23625980.750
  20267514.750
  23846403.250
 23  2 22  9  0 10.0000000  0 06G10G12G18G22G24G28 +0.800,14.5,3.85
  21026293.750
  19561370.750
  23648858.750
  23107649.750
  22647584.250
  18071116.250
 23  2 22  9 30 11.0000000  0 05G10G22G28G31G32 +0.800,15.0,3.85
  20484445.750
  22100685.750
  22506942.750
  23331685.250
  21026230.750
 23  2 22 10  0  5.0000000  0 07G10G22G23G25G28G31G32 1.81,15.0,3.85
  23159720.750
  18222414.250
  19013346.250
  19799285.250
  18115272.750
  18725729.750
  23528063.250
 23  2 22 10 30  5.0000000  0 06G10G21G25G28G31G32 2.82,15.5,3.85
  23936340.250
  20435641.750
  19594084.250
  23796913.250
  18153275.750
  17999195.750
 23  2 22 10 35 31.0000000  0 00 +3.000,16.0,3.85,1,66968,-5051727,3880243,4,1.6
 23  2 22 16  0 16.0000000  0 01G27 -2.000,21.0,3.85
  21119415.250
 23  2 22 16 30  6.0000000  0 06G04G07G08G09G16G27 -2.10,21.5,3.85
  18181694.250
  19738225.250
  18468883.750
  18144931.250
  19102185.250
  18249053.250
 23  2 22 17  0 12.0000000  0 06G04G07G08G09G16G27 -2.200,23.0,3.85
  21799731.750
  21815624.750
  20742881.250
  21027310.250
  22908993.250
  21316750.250
 23  2 22 17 30 12.0000000  0 06G04G07G08G09G16G27 +1.800,25.0,3.85
  21935860.750
  20238029.750
  19684781.250
  20561347.750
  23033382.750
  21046225.250
 23  2 22 18  0 11.0000000  0 05G08G09G14G27G30 +1.800,24.0,3.85
  21027741.750
  22418037.750
  23688104.250
  23074065.750
  22720346.250
 23  2 22 18 30  9.0000000  0 07G01G07G08G09G14G21G30 1.75,24.0,3.85
  22372561.750
  19108791.750
  20226480.750
  22009899.750
  21446534.750
  20989291.250
  20402804.750
 23  2 22 19  0  9.0000000  0 06G01G07G08G14G21G30 1.70,24.5,3.85
  23153396.750
  21057540.750
  23032684.250
  22644150.750
  22519904.750
  21622724.250
 23  2 22 19 30 10.0000000  0 07G01G07G08G13G14G21G30 1.65,23.5,3.85
  18181568.250
  23358135.250
  20011793.250
  19922613.750
  23955745.750
  18455235.750
  23136944.250
 23  2 22 20  0 12.0000000  0 04G01G14G21G30 +1.600,23.0,3.85
  21601598.750
  21422644.250
  22814440.750
  21042428.250
 23  2 22 20 30 11.0000000  0 07G01G13G14G17G19G21G30 +1.240,23.0,3.85
  21160395.250
  23559299.750
  20722337.750
  20939234.250
  23007697.250
  23203468.750
  21018222.750
 23  2 22 21  0 11.0000000  0 06G01G03G17G19G21G30 +1.600,22.0,3.85
  20444627.250
  23837192.750
  19635521.750
  21024112.750
  23105821.750
  20618826.250
 23  2 22 21 30 10.0000000  0 06G03G06G14G17G19G30 1.60,17.0,3.85
  21514941.750
  20029430.750
  18006733.750
  18111120.750
  18796522.750
  20074053.750
 23  2 22 22  0 13.0000000  0 06G01G03G06G14G17G19 +1.600,17.5,3.85
  23469325.250
  23654323.250
  21638553.250
  21024611.750
  20976475.750
  20984379.250
 23  2 22 22 30 11.0000000  0 04G03G06G19G24 +1.600,18.0,3.85
  23637769.250
  21024569.250
  20864115.250
  23597984.250
 23  2 22 23  0 21.0000000  0 07G03G06G11G14G17G19G24 +1.800,18.0,3.85
  18454300.250
  21170875.250
  23647421.250
  23291903.750
  22488854.250
  21355922.750
  18153148.250
 23  2 22 23 30 11.0000000  0 05G03G06G11G17G24 +1.600,16.5,3.85
  19008055.250
  21024988.250
  22688280.250
  22946689.750
  18427412.250
 23  2 23  0  0 19.0000000  0 06G06G11G12G14G17G20 +1.600,16.0,3.85
  20254408.250
  21024394.250
  22294248.250
  18593455.250
  22552539.250
  23087053.750
 23  2 23  0 30 11.0000000  0 05G06G12G17G19G20 +1.600,16.0,3.85
  20257928.750
  21024958.750
  22767286.750
  20601895.250
  21527306.750
 23  2 23  1  0 11.0000000  0 06G05G06G11G17G19G20 +1.200,16.0,3.85
  23364834.750
  21291823.750
  20390382.750
  23933796.250
  21595800.750
  21018333.750
 23  2 23  1 30 13.0000000  0 07G06G09G11G12G17G19G20 +1.600,17.0,3.85
  22666435.250
  18890028.250
  21082874.750
  21479247.750
  19435837.250
  23002355.250
  21024522.250
 23  2 23  2  0  8.0000000  0 08G02G05G09G11G12G19G20G29 1.60,16.5,3.85
  22418199.250
  19800915.750
  22936747.750
  19380880.250
  19859600.750
  21994194.250
  18785602.750
  22366063.750
 23  2 23  2 30  7.0000000  0 06G05G11G12G20G25G29 1.60,16.5,3.85
  19727758.750
  20433099.750
  21215322.750
  19488714.250
  21031686.250
  21952764.250
 23  2 23  3  0 10.0000000  0 07G05G11G12G15G20G25G29 1.60,15.5,3.85
  20057330.250
  21667000.250
  22905022.750
  18354960.250
  20554318.250
  22259955.750
  21698891.750
 23  2 23  3 30 11.0000000  0 06G02G05G11G18G20G29 +1.600,16.0,3.85
  22073764.250
  20120663.750
  22387500.250
  18602801.250
  21240369.250
  21024999.750
 23  2 23  4  0 10.0000000  0 07G02G05G11G15G18G20G29 1.60,15.5,3.85
  22520500.250
  21318982.250
  18030719.250
  22802898.250
  18588203.250
  22912032.750
  21467964.250
 23  2 23  4 30  8.0000000  0 06G02G05G11G15G20G29 1.60,15.5,3.85
  22497590.750
  22204281.250
  19204433.250
  22142898.250
  18125380.250
  21722082.250
 23  2 23  5  0  9.0000000  0 07G02G05G13G15G18G23G29 1.60,15.0,3.85
  22652545.250
  23315121.250
  22493217.750
  21860510.750
  23558986.750
  18586494.750
  22431863.750
 23  2 23  5 30  7.0000000  0 07G02G05G13G15G18G20G29 1.60,15.0,3.85
  22871884.750
  18426629.250
  23057012.750
  21871978.750
  23076181.750
  20644690.250
  23409526.750
 23  2 23  6  0  6.0000000  0 06G02G05G13G15G18G23 1.60,15.0,3.85
  23335352.750
  19617837.250
  18037387.750
  22327881.250
  22775617.250
  23782223.250
 23  2 23  6 30  6.0000000  0 07G02G10G13G15G18G23G24 1.60,15.0,3.85
  18045340.750
  19848862.250
  19300516.750
  23152403.250
  22700938.250
  23583288.250
  18989487.750
 23  2 23  7  0  6.0000000  0 06G02G10G18G23G27G32 1.60,15.0,3.85
  18995040.250
  19378388.750
  22919869.250
  23502313.750
  20158048.750
  20866571.750
 23  2 23  7 30 11.0000000  0 05G02G18G23G24G27 +1.600,15.0,3.85
  23640041.750
  20957433.750
  21025383.750
  21665719.750
  23781819.750
 23  2 23  8  0  9.0000000  0 07G08G15G18G23G24G27G32 1.60,15.0,3.85
  22056282.250
  21076582.250
  18546399.250
  23902275.250
  18528821.250
  20983913.250
  19633325.250
 23  2 23  8 30 11.0000000  0 06G10G22G23G24G27G32 +1.600,15.0,3.85
  21025044.750
  23471563.250
  20823723.250
  21684174.250
  18354322.250
  21754289.750
 23  2 23  9  0 11.0000000  0 07G08G10G18G22G24G27G32 +1.160,15.0,3.85
  23596608.250
  18998330.750
  21817628.250
  21017785.750
  20779307.250
  23472063.750
  19631871.250
 23  2 23  9 30  6.0000000  0 07G10G21G22G24G28G31G32 1.27,14.5,3.85
  18378083.250
  22032430.250
  19929804.250
  21367312.750
  20252575.750
  21052977.250
  18908312.750
 23  2 23 10  0  8.0000000  0 07G10G21G22G23G24G28G31 1.38,14.0,3.85
  18514000.250
  21551744.750
  19492197.750
  20451237.750
  22634329.250
  19312959.750
  19890049.250
 23  2 23 10 30  6.0000000  0 07G10G12G21G22G28G31G32 1.49,14.5,3.85
  18928773.750
  21700618.750
  21355589.250
  19176540.250
  18644311.750
  18959319.250
  18941732.750
 23  2 23 11  0 11.0000000  0 07G01G10G21G22G25G31G32 +1.600,15.0,3.85
  23642326.750
  22323741.250
  18150914.250
  21655194.250
  22925221.750
  21025347.250
  21840034.750
 23  2 23 11 30 11.0000000  0 07G01G10G22G25G26G28G31 +1.200,15.5,3.85
  23146170.750
  22760800.250
  21018126.750
  22594369.250
  23341733.750
  20421736.250
  20228752.250
 23  2 23 12  0  8.0000000  0 08G03G10G21G22G25G28G31G32 1.50,16.5,3.85
  22464164.250
  23228466.250
  23871920.750
  20320868.250
  22493509.250
  19985831.250
  19609665.250
  21410801.250
 23  2 23 12 30 15.0000000  0 05G22G26G28G31G32 +1.800,16.5,3.85
  21102010.250
  21146109.750
  21135298.750
  20640970.250
  22675939.750
 23  2 23 13  0 11.0000000  0 04G03G16G28G31 +1.600,17.5,3.85
  19737294.250
  21024809.750
  19941687.250
  19390222.750
 23  2 23 13 30 10.0000000  0 06G03G16G22G26G28G31 1.38,18.0,3.85
  23579946.750
  23878483.750
  18058341.750
  22448270.750
  18773881.750
  18210341.250
 23  2 23 14  0 11.0000000  0 07G03G04G16G22G26G29G31 +1.160,18.5,3.85
  22199005.250
  22487754.250
  21366932.250
  23132909.250
  21018399.750
  19814267.250
  23471457.750
 23  2 23 14 30 19.0000000  0 06G03G09G26G27G29G31 +1.800,19.0,3.85
  22406338.750
  23867078.250
  21158832.250
  23824930.250
  19879824.250
  23988670.250
 23  2 23 15  0 11.0000000  0 05G03G04G16G26G28 +1.600,20.5,3.85
  24011109.750
  21458938.250
  21025967.250
  22685885.750
  20135776.750
 23  2 23 15 30 16.0000000  0 05G04G09G16G26G27 +1.200,22.5,3.85
  21108739.750
  22502123.250
  21212870.750
  23588725.750
  22414910.750
 23  2 23 16  0 14.0000000  0 04G04G08G09G16 +1.800,21.5,3.85
  21084451.750
  22526590.250
  21721024.750
  21690470.750
 23  2 23 16 30 20.0000000  0 05G04G07G08G09G27 +1.000,22.0,3.85
  21325271.750
  22673222.750
  21413405.750
  21177070.750
  21305578.750
 23  2 23 17  0 14.0000000  0 04G04G08G09G27 +1.600,22.0,3.85
  21945369.750
  20711232.250
  21081093.750
  21397649.750
 23  2 23 17 30 16.0000000  0 04G04G08G09G27 +1.200,22.5,3.85
  23505840.750
  21109649.750
  22063490.750
  22573620.250
 23  2 23 18  0 12.0000000  0 04G07G08G27G30 +1.600,22.5,3.85
  20685911.750
  21026824.750
  23155113.250
  22521724.250
 23  2 23 18 30 19.0000000  0 04G08G14G21G27 +1.600,23.0,3.85
  20150503.750
  21149681.750
  20723605.750
  22782051.250
 23  2 23 19  0 11.0000000  0 07G01G08G14G17G21G27G30 +1.600,22.5,3.85
  21485636.750
  21643039.750
  21026402.250
  21870925.750
  20969539.750
  18602080.750
  20020050.750
 23  2 23 19 30  6.0000000  0 06G01G07G08G14G21G30 1.60,22.0,3.85
  20006184.750
  19360948.250
  22079042.250
  19805964.750
  20406417.750
  19031648.250
 23  2 23 20  0 11.0000000  0 07G01G07G08G14G17G21G30 +1.600,23.0,3.85
  20913725.250
  21505298.250
  18590667.250
  20717097.750
  21026854.250
  22248162.750
  20416302.250
 23  2 23 20 30  7.0000000  0 06G01G07G17G19G21G30 1.50,23.0,3.85
  23291976.750
  18935899.750
  23004976.250
  18987001.250
  19435932.250
  23199231.750
 23  2 23 21  0  6.0000000  0 06G01G03G07G14G17G30 1.40,21.5,3.85
  19572438.250
  22766602.750
  21987022.250
  18508078.750
  18669386.250
  19781388.750
 23  2 23 21 30  7.0000000  0 07G01G03G14G17G19G21G24 1.30,19.0,3.85
  22038153.750
  23633226.250
  20244283.250
  20334417.250
  20924867.250
  19090402.750
  18051593.250
 23  2 23 22  0 18.0000000  0 07G03G06G14G17G19G24G30 +1.200,18.0,3.85
  23659567.250
  21564447.750
  21148603.250
  21067568.750
  20985405.750
  23831184.250
  18169823.750
 23  2 23 22 30 13.0000000  0 04G03G06G14G19 +1.200,15.5,3.85
  23859938.250
  21159460.250
  22135886.750
  21055976.250
 23  2 23 23  0 13.0000000  0 07G03G06G11G14G17G19G24 +1.600,14.5,3.85
  18400665.750
  21027139.750
  23405600.250
  23314736.750
  22439081.250
  21244648.750
  18065588.250
 23  2 23 23 30 14.0000000  0 07G06G11G12G14G17G19G24 +1.600,13.5,3.85
  21045538.250
  22590089.250
  18186804.750
  18509214.750
  23030047.750
  21413900.250
  18506283.250
 23  2 24  0  0 11.0000000  0 06G06G11G12G14G19G20 +1.600,13.5,3.85
  18394666.750
  19047418.750
  20262021.750
  22850477.750
  18779587.250
  21026679.250
 23  2 24  0 30  5.0000000  0 07G05G06G11G12G17G19G20 1.53,13.5,3.85
  19809753.250
  22027895.250
  21813032.250
  22631911.250
  18558992.750
  22365033.250
  23088333.250
 23  2 24  1  0  6.0000000  0 06G06G11G12G17G19G20 1.45,13.0,3.85
  22254729.250
  21254244.750
  21766817.250
  18913265.250
  22558136.250
  21785884.250
 23  2 24  1 30  9.0000000  0 07G05G06G11G12G17G19G20 1.38,13.0,3.85
  22375083.750
  22532928.250
  20866472.250
  21259936.750
  19316989.250
  22881769.250
  20726648.750
 23  2 24  2  0  5.0000000  0 06G05G06G11G12G20G29 1.30,12.5,3.85
  20687758.750
  22633582.250
  20431515.750
  20939707.750
  19778026.250
  23220514.750
 23  2 24  2 30  9.0000000  0 08G02G05G06G11G13G19G20G29 1.23,12.0,3.85
  21855504.250
  19188184.250
  22653432.750
  20032597.750
  23283891.750
  23432511.750
  19054824.250
  21343629.750
 23  2 24  3  0  9.0000000  0 07G02G05G06G11G12G20G29 1.15,10.0,3.85
  19617159.250
  23204111.750
  21856489.250
  18920926.250
  20228263.750
  23792308.250
  18753432.750
 23  2 24  3 30 11.0000000  0 07G02G05G11G18G20G25G29 +1.080,9.0,3.85
  21690889.750
  19827516.250
  22164446.250
  18162434.250
  21018407.250
  22962888.250
  20624113.750
 23  2 24  4  0 11.0000000  0 07G02G05G11G18G20G23G29 +1.600,8.5,3.85
  22059775.750
  20976922.250
  23729149.750
  18059898.250
  22619443.750
  19207976.750
  21026667.250
 23  2 24  4 30  5.0000000  0 07G02G05G13G15G18G23G29 1.60,8.0,3.85
  22299989.250
  22136787.250
  22048419.750
  21873242.750
  23750132.250
  18802521.250
  21583812.250
 23  2 24  5  0  7.0000000  0 07G02G05G13G15G18G23G29 1.60,8.0,3.85
  19209499.750
  20000659.750
  19083137.250
  18375863.750
  20026828.250
  21047014.250
  19083021.250
 23  2 24  5 30  5.0000000  0 06G02G13G15G18G23G29 1.60,8.0,3.85
  22170339.250
  22417748.250
  21158990.750
  22275387.750
  23300636.250
  22822134.250
 23  2 24  6  0  6.0000000  0 07G02G05G13G15G18G23G29 1.60,6.5,3.85
  18942227.250
  21306482.750
  19716754.250
  23941627.250
  18276924.750
  19272792.250
  20433473.750
 23  2 24  6 30  7.0000000  0 08G02G10G15G18G23G24G29G32 1.60,6.0,3.85
  21375811.250
  22997358.750
  20508451.750
  19932071.750
  20783806.250
  22113289.750
  23621835.750
  18846443.750
 23  2 24  7  0  8.0000000  0 06G02G15G18G23G27G32 1.60,6.0,3.85
  18000596.250
  23281409.750
  21833795.750
  22357976.250
  19013738.250
  19611223.250
 23  2 24  7 30  5.0000000  0 07G02G10G15G18G23G24G27 1.60,6.0,3.85
  20296782.750
  18860949.750
  19686704.750
  23542191.250
  23526172.750
  18152872.750
  20318446.250
 23  2 24  8  0  9.0000000  0 07G02G10G18G23G24G27G32 1.60,6.0,3.85
  23073555.750
  19929760.750
  19917515.250
  19169738.250
  19810728.250
  22303477.750
  20788740.750
 23  2 24  8 30  5.0000000  0 07G10G18G22G23G24G27G32 1.60,5.0,3.85
  20620966.250
  22096269.250
  23007666.750
  20510444.250
  21418260.750
  18103138.250
  21336287.750
 23  2 24  9  0 11.0000000  0 07G10G18G22G23G24G27G32 +1.600,5.0,3.85
  19068004.250
  22094898.750
  21024116.250
  19671729.750
  21013407.250
  23693718.250
  19690350.250
 23  2 24  9 30  5.0000000  0 07G21G22G23G24G28G31G32 1.59,4.5,3.85
  19430753.250
  23335713.250
  23189674.250
  19012717.250
  23585764.750
  18364782.250
  22368741.750
 23  2 24 10  0  5.0000000  0 07G12G21G22G23G25G28G32 1.57,5.0,3.85
  19787696.750
  19521607.250
  23451222.250
  18594844.750
  18930176.250
  23214467.250
  22871319.250
 23  2 24 10 30  5.0000000  0 07G01G10G12G21G28G31G32 1.56,4.5,3.85
  20076652.750
  23830552.750
  20542536.250
  20178792.250
  23399189.750
  23678124.750
  23786112.250
 23  2 24 11  0  5.0000000  0 07G10G12G21G22G28G31G32 1.55,4.5,3.85
  19087438.250
  21378196.250
  20831238.750
  18283880.250
  23602110.250
  23614347.750
  18526438.750
 23  2 24 11 30  7.0000000  0 08G01G10G21G22G25G28G31G32 1.53,5.5,3.85
  21360408.750
  21087319.750
  22238954.250
  19191562.250
  20829732.750
  18620998.250
  18399825.250
  19877940.750
 23  2 24 12  0 10.0000000  0 07G10G22G25G26G28G31G32 1.52,4.0,3.85
  23350431.750
  20281314.250
  22550575.250
  21268325.250
  19992155.250
  19595571.750
  21435656.250
 23  2 24 12 30 10.0000000  0 06G03G22G26G28G31G32 1.51,3.0,3.85
  21142056.250
  20177234.250
  20083701.250
  20261773.750
  19755951.250
  21813767.250
 23  2 24 13  0  5.0000000  0 07G03G16G22G26G28G31G32 1.49,4.0,3.85
  19934885.250
  21097451.250
  19833170.250
  18836259.250
  20289673.750
  19733588.750
  21944296.250
 23  2 24 13 30  8.0000000  0 06G03G16G22G26G28G31 1.48,5.5,3.85
  20690778.750
  20838066.750
  21242266.250
  19553516.250
  21988905.750
  21425228.750
 23  2 24 14  0  9.0000000  0 07G03G16G22G26G27G28G31 1.47,5.0,3.85
  22043970.750
  21053073.750
  23027440.250
  20856793.250
  19047345.250
  23925015.750
  23378372.250
 23  2 24 14 30  6.0000000  0 06G04G16G22G26G27G31 1.45,6.0,3.85
  22440634.750
  21614219.750
  18967523.750
  22476346.250
  18902173.750
  19337304.250
 23  2 24 15  0 11.0000000  0 07G03G04G09G16G22G26G31 +1.440,7.5,3.85
  19653350.250
  22906484.750
  18880348.750
  22544263.250
  21018419.750
  18320621.250
  21263982.750
 23  2 24 15 30 11.0000000  0 07G04G07G08G09G16G26G27 +1.400,9.5,3.85
  18518055.250
  21963324.750
  21034514.250
  19814302.750
  18696646.250
  21148755.750
  19732823.250
 23  2 24 16  0  7.0000000  0 06G03G04G07G09G16G27 1.70,13.5,3.85
  19627341.750
  20665036.250
  23145257.250
  21197869.250
  21333026.750
  21198096.250
 23  2 24 16 30 10.0000000  0 04G07G08G09G27 +2.000,10.5,3.85
  22272244.250
  21027578.250
  20870114.250
  21022464.750
 23  2 24 17  0 11.0000000  0 06G04G07G08G09G16G27 +1.480,13.0,3.85
  21460998.750
  21018071.750
  20059574.250
  20510603.250
  22598316.250
  20854667.750
 23  2 24 17 30 12.0000000  0 06G04G07G08G09G27G30 +1.600,12.0,3.85
  23569799.750
  21398868.750
  21038481.750
  22064874.250
  22600535.750
  23683942.750
 23  2 24 18  0 17.0000000  0 08G01G04G07G08G09G14G21G30 1.56,14.0,3.85
  22898135.250
  22768740.250
  18918719.250
  19383519.250
  20895808.750
  21667482.750
  21116381.750
  20672240.750
 23  2 24 18 30  5.0000000  0 07G01G07G08G09G14G21G30 1.52,13.5,3.85
  19681834.250
  22713324.750
  18077711.750
  19942713.750
  18872947.750
  18480022.250
  23816602.750
 23  2 24 19  0 10.0000000  0 06G01G07G08G17G21G30 +1.480,13.5,3.85
  21018315.250
  19268396.750
  21449374.750
  21400684.750
  20621454.250
  19617893.250
 23  2 24 19 30 10.0000000  0 07G01G07G08G14G17G21G30 1.58,16.5,3.85
  23751398.250
  23285084.750
  20074731.250
  23568851.250
  18055519.250
  18287975.750
  22844865.750
 23  2 24 20  0  5.0000000  0 07G01G13G14G17G19G21G30 1.69,17.0,3.85
  17994669.250
  20186474.250
  23771388.250
  18067273.250
  20576085.750
  19446824.750
  23551693.250
 23  2 24 20 30  9.0000000  0 07G01G07G13G14G17G19G21 1.79,17.5,3.85
  19053112.750
  20819309.750
  21510102.750
  18492409.750
  18693759.750
  20576917.250
  21288732.750
 23  2 24 21  0  6.0000000  0 06G13G14G17G19G21G30 1.90,16.0,3.85
  22899486.750
  19172311.250
  19327283.250
  20521347.250
  23115197.750
  20571275.250
 23  2 24 21 30 11.0000000  0 05G01G06G14G17G19 +2.000,13.5,3.85
  22361705.750
  22098967.250
  20460553.250
  20534539.750
  21027386.250
 23  2 24 22  0 13.0000000  0 06G03G06G14G17G19G30 +2.000,13.0,3.85
  23201344.250
  21027477.250
  20802958.750
  20688219.750
  20520412.250
  23916392.250
 23  2 24 22 30 11.0000000  0 05G06G11G14G17G19 +2.000,12.5,3.85
  21027279.250
  18020941.750
  22189122.250
  21733666.250
  20978123.250
 23  2 24 23  0 11.0000000  0 05G06G11G17G19G20 +2.000,12.5,3.85
  20779284.250
  23053566.250
  22283482.250
  21027415.750
  19899560.750
 23  2 24 23 30 16.0000000  0 06G03G06G11G12G17G19 +1.800,11.0,3.85
  18913675.750
  20737040.250
  22161636.750
  23704639.750
  22780031.250
  21114781.250
 23  2 25  0  0  6.0000000  0 06G06G11G12G17G19G20 1.90,11.0,3.85
  20509109.750
  21043113.250
  22201667.750
  22871581.750
  20890104.250
  22935683.250
 23  2 25  0 30 11.0000000  0 04G06G11G12G20 +2.000,10.0,3.85
  20186444.250
  19854785.250
  20621436.750
  21026825.250
 23  2 25  1  0 11.0000000  0 07G06G09G11G12G17G19G20 +1.480,8.0,3.85
  21687449.250
  18669416.750
  20585513.250
  21067809.250
  18359245.250
  21991964.250
  21018143.250
 23  2 25  1 30  5.0000000  0 06G05G06G11G12G20G25 1.49,7.5,3.85
  20367769.250
  20782732.750
  19034929.250
  19429862.750
  18816342.250
  20247077.750
 23  2 25  2  0  7.0000000  0 08G02G05G09G11G12G20G25G29 1.49,8.0,3.85
  19004462.750
  22337696.750
  19774199.250
  22245553.750
  22787995.250
  21536130.250
  23006806.750
  18835701.750
 23  2 25  2 30  7.0000000  0 08G05G06G09G11G12G20G25G29 1.50,9.0,3.85
  18900035.750
  22548989.750
  23421592.250
  19877000.250
  20774423.750
  18869476.750
  20451885.750
  20981951.750
 23  2 25  3  0  7.0000000  0 07G02G05G11G15G20G25G29 1.51,10.0,3.85
  18776270.250
  22420541.250
  18235506.750
  20398723.250
  23097198.250
  18861908.250
  23866727.250
 23  2 25  3 30  8.0000000  0 08G02G05G11G12G13G18G25G29 1.51,9.0,3.85
  22048486.250
  20278861.250
  22681455.250
  18552479.250
  22289326.250
  18461635.750
  23511401.250
  20968565.750
 23  2 25  4  0 11.0000000  0 07G02G05G13G15G18G20G29 +1.520,11.0,3.85
  21018087.750
  20056283.250
  20885971.750
  21109027.750
  22945183.750
  21745033.750
  20010093.250
 23  2 25  4 30 11.0000000  0 07G02G11G15G18G20G23G29 +1.560,10.5,3.85
  19650049.250
  22674824.250
  19152666.750
  21017963.750
  21596474.250
  22055986.750
  19001230.250
 23  2 25  5  0 11.0000000  0 07G02G05G13G18G20G23G29 +1.560,10.5,3.85
  20294121.250
  21215874.750
  20206738.750
  21017969.750
  23356579.250
  22035856.750
  20268304.250
 23  2 25  5 30  5.0000000  0 07G02G13G15G18G23G24G29 1.65,9.0,3.85
  19776168.250
  20089649.750
  18756958.750
  19779502.250
  20802450.750
  23148351.750
  20544525.250
 23  2 25  6  0  5.0000000  0 06G02G13G15G18G23G29 1.74,10.5,3.85
  23780619.250
  18636466.250
  22797318.750
  23009453.750
  17996685.750
  19389751.250
 23  2 25  6 30  7.0000000  0 06G02G10G15G18G23G27 1.82,11.0,3.85
  22680593.750
  18120643.250
  21834984.250
  21134377.750
  21952227.250
  18685764.750
 23  2 25  7  0  9.0000000  0 07G02G10G15G18G23G24G27 1.91,10.0,3.85
  21887220.250
  21849606.750
  21191188.250
  19635450.750
  20097530.750
  20920325.250
  22753651.750
 23  2 25  7 30 11.0000000  0 07G10G15G18G23G24G27G32 +2.000,10.5,3.85
  21025102.250
  22094787.750
  19876801.250
  19768656.250
  20377675.750
  22594185.750
  22084259.750
 23  2 25  8  0  6.0000000  0 06G10G18G23G24G27G32 2.00,10.5,3.85
  22969523.250
  23149220.250
  22292749.750
  22956918.750
  19488329.750
  23805066.750
 23  2 25  8 30  7.0000000  0 06G10G18G23G24G27G32 2.00,10.0,3.85
  20775904.250
  22463472.250
  20760649.250
  21720878.750
  18417295.750
  21477552.250
 23  2 25  9  0 11.0000000  0 07G10G18G22G24G27G28G32 +2.000,11.0,3.85
  19132858.750
  22365378.250
  21024718.750
  21244194.250
  23907859.250
  21751845.750
  19743547.750
 23  2 25  9 30  5.0000000  0 08G10G21G22G23G24G28G31G32 1.97,10.5,3.85
  22908232.250
  20397255.250
  18316136.250
  18344503.250
  20225857.750
  18494228.750
  19242191.750
  23399975.250
 23  2 25 10  0 10.0000000  0 07G10G12G23G25G28G31G32 1.93,10.0,3.85
  21200453.750
  18349229.750
  23319250.250
  23426676.250
  21698997.750
  22209072.250
  21469670.750
 23  2 25 10 30  7.0000000  0 06G01G10G21G22G28G31 1.90,10.5,3.85
  21728256.750
  19638528.250
  21899230.250
  19652514.250
  19059169.750
  19301389.750
 23  2 25 11  0  8.0000000  0 08G01G10G12G22G25G28G31G32 1.87,10.0,3.85
  19611316.250
  18561709.750
  20804133.750
  23610910.250
  18934274.750
  22935607.250
  22913259.750
  23913762.250
 23  2 25 11 30  5.0000000  0 07G01G10G22G25G28G31G32 1.83,9.5,3.85
  23371427.750
  23208048.750
  21156730.250
  22862085.250
  20615406.250
  20366756.250
  21904663.250
 23  2 25 12  0  5.0000000  0 06G01G03G22G26G28G31 1.80,11.0,3.85
  22048120.750
  21217764.750
  19367838.250
  20201267.750
  19124969.750
  18709652.250
 23  2 25 12 30  8.0000000  0 07G03G16G22G26G28G31G32 1.77,10.5,3.85
  19114408.750
  20968490.250
  18277987.250
  18048462.250
  18414400.750
  23893901.750
  19977809.750
 23  2 25 13  0  5.0000000  0 07G03G16G22G26G28G31G32 1.73,10.0,3.85
  22622843.750
  23653804.750
  22624669.750
  21518234.250
  23126251.750
  22566213.750
  18799850.750
 23  2 25 13 30  6.0000000  0 06G03G16G22G26G31G32 1.70,12.0,3.85
  21090558.250
  21085003.250
  21715311.250
  19947478.250
  21926687.250
  18319642.250
 23  2 25 14  0  5.0000000  0 07G03G04G16G22G26G28G31 1.67,12.0,3.85
  20413741.750
  20348992.250
  19266012.250
  21443258.750
  19219373.750
  22347495.250
  21803075.250
 23  2 25 14 30  9.0000000  0 08G03G04G09G16G22G26G27G31 1.63,12.5,3.85
  20290541.750
  18798746.750
  21238462.750
  18026138.750
  21550047.250
  19026603.750
  21183845.750
  21907836.250
 23  2 25 15  0 14.0000000  0 07G03G04G16G22G26G27G31 +1.600,13.5,3.85
  18297002.750
  21359683.750
  21071141.750
  19679679.250
  22951986.250
  23151489.250
  19895982.750
 23  2 25 15 30 14.0000000  0 05G04G08G09G16G27 +1.400,14.0,3.85
  20813716.250
  23168240.750
  22007872.250
  21068238.250
  21933829.750
 23  2 25 16  0  7.0000000  0 06G04G07G08G09G16G27 1.80,17.5,3.85
  18069587.250
  20386963.250
  19155518.250
  18494976.750
  18798252.250
  18512989.250
 23  2 25 16 30 11.0000000  0 05G07G08G09G16G27 +2.200,17.0,3.85
  22324999.250
  21102171.750
  21027556.250
  22417318.250
  21205230.250
 23  2 25 17  0 12.0000000  0 05G04G07G09G16G30 +1.800,16.5,3.85
  22074150.750
  21397691.750
  21038785.250
  23219819.750
  18043855.250
 23  2 25 17 30 16.0000000  0 06G04G07G08G09G27G30 +2.000,19.5,3.85
  23505589.750
  21094733.750
  20839195.250
  21939425.250
  22499834.250
  23313501.250
 23  2 25 18  0 11.0000000  0 07G04G07G08G14G21G27G30 +1.640,20.5,3.85
  19079672.250
  21017973.750
  21602379.750
  23697969.250
  23157008.750
  23885282.750
  22690200.250
 23  2 25 18 30 11.0000000  0 05G07G08G09G21G30 +2.000,18.5,3.85
  20022658.750
  21505682.250
  23408913.250
  21724777.750
  21023944.750
 23  2 25 19  0 11.0000000  0 07G01G07G13G14G17G21G30 +2.000,19.5,3.85
  21023883.750
  19450197.750
  22555448.250
  20654873.250
  21402544.250
  20749594.250
  19689808.250
 23  2 25 19 30 13.0000000  0 07G01G07G08G14G17G21G30 +1.400,22.0,3.85
  21888780.250
  21599699.250
  18449316.750
  21718375.750
  22169184.250
  22552085.750
  21049585.250
 23  2 25 20  0 11.0000000  0 05G07G14G17G19G30 +2.000,21.5,3.85
  21025120.250
  19870203.250
  20145489.750
  22569411.750
  19741126.750
 23  2 25 20 30 11.0000000  0 06G01G13G14G17G21G30 +2.000,19.5,3.85
  21654937.250
  18141357.750
  21024529.250
  21219314.750
  23981684.250
  21656517.250
 23  2 25 21  0  9.0000000  0 07G01G06G14G17G19G21G30 2.00,18.0,3.85
  20770482.250
  22333607.750
  19514529.750
  19662537.250
  20757245.750
  23610769.250
  21042134.250
 23  2 25 21 30 11.0000000  0 05G01G03G06G17G30 +2.000,17.0,3.85
  22974954.250
  24113779.750
  22414594.250
  21024905.750
  23402486.250
 23  2 25 22  0 11.0000000  0 04G06G14G17G19 +2.000,17.5,3.85
  21057521.250
  21025123.250
  20873142.250
  20620672.750
 23  2 25 22 30 12.0000000  0 06G03G06G11G14G17G19 +1.600,17.5,3.85
  23064936.750
  20187383.250
  23092600.750
  21534035.250
  21018300.250
  20189377.250
 23  2 25 23  0 10.0000000  0 06G03G06G11G14G17G19 1.70,16.5,3.85
  20705027.250
  23143710.250
  19315471.750
  19769876.750
  18739013.250
  23419195.250
 23  2 25 23 30 14.0000000  0 06G03G06G12G17G19G20 +1.800,14.5,3.85
  21607794.750
  25729513.750
  20139074.250
  19437009.750
  26114073.250
  21056032.750
 23  2 26  0  0 11.0000000  0 06G06G11G12G17G19G20 +2.000,13.5,3.85
  20649216.250
  21059920.750
  22159815.250
  23041511.750
  21025138.750
  22859788.750
 23  2 26  0 30  6.0000000  0 07G06G11G12G17G19G20G25 2.00,13.0,3.85
  23750942.250
  23309971.750
  18033170.250
  20315081.250
  18079639.750
  18387837.250
  19867086.750
 23  2 26  1  0  8.0000000  0 07G05G11G12G17G19G20G25 2.00,13.0,3.85
  19196980.750
  22744288.750
  23201293.250
  20626734.750
  18253603.250
  23082993.750
  18529144.250
 23  2 26  1 30  6.0000000  0 06G02G05G11G12G19G20 2.00,12.5,3.85
  19760869.250
  23275594.750
  22120602.250
  22521767.750
  18334877.750
  21824675.750
 23  2 26  2  0  8.0000000  0 08G02G05G06G11G12G20G25G29 2.00,12.0,3.85
  18209899.750
  21527359.250
  23927633.750
  21594758.250
  22175578.250
  20833322.250
  22315993.250
  23977744.250
 23  2 26  2 30  8.0000000  0 07G02G05G11G12G20G25G29 2.00,10.5,3.85
  22374170.250
  19745989.250
  20851975.750
  21811174.250
  19817594.250
  21421845.250
  21749642.250
 23  2 26  3  0  6.0000000  0 06G02G05G11G15G20G25 2.00,10.0,3.85
  19985326.250
  23692439.250
  19600679.250
  21500510.750
  18459046.250
  20248318.750
 23  2 26  3 30 11.0000000  0 04G11G12G13G20 +2.000,10.0,3.85
  21644053.250
  23574464.750
  21024172.750
  20502694.250
 23  2 26  4  0  8.0000000  0 07G02G05G11G13G15G20G29 2.00,9.5,3.85
  21220242.250
  20380404.750
  23212854.750
  21055588.750
  21220836.250
  22111672.750
  20242747.250
 23  2 26  4 30  7.0000000  0 06G02G05G11G13G15G20 2.00,10.0,3.85
  18655784.750
  18759289.750
  21836362.750
  18410439.750
  18094548.750
  20756800.250
 23  2 26  5  0 12.0000000  0 06G05G11G13G15G18G29 +2.000,11.0,3.85
  22135838.250
  19404486.250
  21042510.750
  20181641.750
  21717111.250
  21164401.750
 23  2 26  5 30  6.0000000  0 06G02G05G13G15G18G29 2.03,10.0,3.85
  21129993.250
  23009971.250
  21512283.250
  20106433.250
  21030570.250
  22016402.250
 23  2 26  6  0 10.0000000  0 07G02G10G13G15G18G23G24 2.06,9.0,3.85
  19034507.250
  21581271.250
  19965426.750
  18066679.250
  18155195.750
  19123294.750
  20856727.750
 23  2 26  6 30 10.0000000  0 07G02G10G13G15G18G23G27 2.09,10.0,3.85
  23333253.750
  18582443.750
  18808399.750
  22509917.750
  21684868.750
  22465244.250
  19174775.750
 23  2 26  7  0  6.0000000  0 07G02G10G15G18G23G24G27 2.11,9.5,3.85
  21839044.750
  21590528.750
  21160576.750
  19502196.250
  19899513.250
  20679364.750
  22564629.250
 23  2 26  7 30  9.0000000  0 06G02G10G18G24G27G32 2.14,10.0,3.85
  20863063.250
  18965054.750
  23978057.250
  18383116.750
  20647004.250
  19988728.250
 23  2 26  8  0 10.0000000  0 07G08G10G15G18G23G27G32 2.17,9.5,3.85
  19852531.750
  22339803.750
  19365860.250
  22720202.250
  21750233.250
  19006705.750
  23152882.750
 23  2 26  8 30 11.0000000  0 05G10G23G24G27G32 +2.200,10.0,3.85
  21026545.750
  21108623.250
  22124856.250
  18828723.250
  21715100.750
 23  2 26  9  0 11.0000000  0 07G10G18G21G23G28G31G32 +1.720,10.5,3.85
  21018013.750
  18457474.250
  19032356.250
  21822612.250
  23496876.250
  18409105.250
  21616366.750
 23  2 26  9 30 11.0000000  0 07G10G21G22G23G28G31G32 +2.200,11.0,3.85
  19596282.250
  22993867.750
  20920662.250
  21129319.250
  21026514.750
  21745600.750
  20065096.250
 23  2 26 10  0  7.0000000  0 06G10G12G21G28G31G32 2.14,12.0,3.85
  20802318.250
  23875080.250
  23587405.250
  21153200.750
  21629228.250
  21030966.750
 23  2 26 10 30  5.0000000  0 08G10G12G21G22G23G25G28G32 2.09,12.0,3.85
  20109358.250
  22694353.750
  22288396.750
  20002831.250
  22872422.250
  21238940.750
  19385384.750
  19940398.750
 23  2 26 11  0  8.0000000  0 08G01G10G21G22G25G28G31G32 2.03,13.0,3.85
  21231869.750
  20313263.250
  21894495.250
  19222792.750
  20574936.250
  18553903.250
  18498046.750
  19585468.250
 23  2 26 11 30  6.0000000  0 08G01G10G21G25G26G28G31G32 1.97,13.0,3.85
  20818296.750
  20762409.750
  21755123.750
  20330747.250
  20390230.250
  18044085.750
  23764514.750
  19363118.750
 23  2 26 12  0  6.0000000  0 06G03G22G26G28G31G32 1.91,13.0,3.85
  19921592.250
  18217420.250
  18895568.750
  18023459.250
  23585952.750
  19498779.750
 23  2 26 12 30  6.0000000  0 06G03G22G26G28G31G32 1.86,11.5,3.85
  18420614.250
  23705577.750
  23343434.750
  23893585.250
  23367661.750
  19472482.750
 23  2 26 13  0 13.0000000  0 06G03G04G16G22G26G31 +1.800,11.0,3.85
  20144318.750
  22085783.750
  21036134.750
  20248768.250
  19033806.750
  20231544.250
 23  2 26 13 30  6.0000000  0 06G03G04G16G22G26G31 1.88,11.5,3.85
  21305564.250
  22312128.250
  21144551.250
  21999957.250
  20156180.750
  22237316.250
 23  2 26 14  0  9.0000000  0 08G04G09G16G22G26G28G29G31 1.96,11.0,3.85
  20330802.250
  23125829.250
  19275289.750
  21657327.250
  19381240.750
  22565058.750
  18150178.250
  22023071.250
 23  2 26 14 30  6.0000000  0 07G03G04G09G16G22G27G28 2.04,13.5,3.85
  20433912.250
  18745258.750
  21117692.250
  18028836.750
  21717990.250
  21057440.250
  22577978.250
 23  2 26 15  0 11.0000000  0 07G03G04G08G09G16G27G31 2.12,14.5,3.85
  21493614.250
  18377637.750
  21668369.750
  20174108.750
  18162373.750
  20081993.750
  23077954.250
 23  2 26 15 30 12.0000000  0 06G04G07G09G16G26G27 +2.200,16.0,3.85
  21026071.250
  18242427.250
  22118309.750
  21353933.250
  23946667.750
  22052825.750
 23  2 26 16  0  9.0000000  0 07G04G07G08G09G16G26G27 2.20,16.5,3.85
  19375711.750
  21522417.750
  20276985.750
  19692864.750
  20162165.750
  23126618.750
  19729805.750
 23  2 26 16 30 11.0000000  0 05G04G08G09G16G27 +2.200,17.0,3.85
  21475700.750
  21017958.250
  21026320.750
  22547326.750
  21229569.250
 23  2 26 17  0 11.0000000  0 06G04G07G08G09G16G27 +2.200,15.0,3.85
  22757098.250
  21846782.750
  21026208.750
  21640360.250
  23907203.250
  22038855.750
 23  2 26 17 30  9.0000000  0 06G07G08G09G21G27G30 2.04,15.0,3.85
  21294500.750
  21142573.750
  22311613.750
  23809633.250
  22894756.250
  23447453.750
 23  2 26 18  0 10.0000000  0 06G07G08G09G14G21G30 1.88,14.5,3.85
  21141490.250
  21848665.750
  23470650.750
  23747985.250
  23220316.250
  22728244.750
 23  2 26 18 30 11.0000000  0 06G01G08G09G17G21G27 +1.720,15.0,3.85
  22018020.750
  20974855.250
  22912528.250
  22418197.250
  21018315.250
  23759022.750
 23  2 26 19  0  6.0000000  0 06G01G07G14G17G21G30 1.74,17.0,3.85
  23300107.750
  21899232.250
  22970331.250
  23673878.750
  23147071.750
  22031194.750
 23  2 26 19 30 10.0000000  0 08G01G07G08G13G14G17G21G30 1.76,17.5,3.85
  23677699.750
  23560589.250
  20462914.250
  19622365.250
  23513828.750
  23935898.250
  18472612.750
  22903801.750
 23  2 26 20  0 13.0000000  0 07G01G07G13G14G17G19G21 1.78,16.5,3.85
  18275847.750
  19334696.750
  20552652.750
  17991452.250
  18252551.250
  20591185.250
  19964201.250
 23  2 26 20 30 21.0000000  0 07G01G07G14G17G19G21G30 +1.800,17.0,3.85
  21906099.750
  23914594.750
  21198939.750
  21387707.750
  23076558.750
  24321665.750
  21953773.750
 23  2 26 21  0  6.0000000  0 08G01G03G06G14G17G19G21G30 2.00,16.0,3.85
  20426604.250
  22982774.250
  21711267.250
  19073156.250
  19213466.250
  20211629.750
  23316290.250
  20726955.250
 23  2 26 21 30 12.0000000  0 04G03G14G17G21 +2.200,16.0,3.85
  24015030.750
  20991407.250
  21026643.250
  20214903.250
 23  2 26 22  0 11.0000000  0 05G03G06G14G17G19 +2.200,16.5,3.85
  23201760.250
  20866573.250
  21026946.750
  20834135.250
  20498138.250
 23  2 26 22 30 11.0000000  0 04G03G06G17G19 +2.200,15.5,3.85
  23043944.750
  20077234.750
  21026891.250
  20126981.750
 23  2 26 23  0  7.0000000  0 06G06G11G14G17G19G24 1.96,15.0,3.85
  21106837.750
  23166247.250
  23890549.750
  22779047.250
  21406302.750
  18318768.750
 23  2 26 23 30 11.0000000  0 07G03G06G11G17G19G20G24 +1.720,14.5,3.85
  18993663.250
  20629085.750
  21815788.750
  22773800.750
  21018272.750
  18159039.750
  18257865.750
 23  2 27  0  0  8.0000000  0 07G06G11G12G17G19G20G25 1.96,14.0,3.85
  21829404.750
  22121674.250
  23165705.250
  18251471.250
  22199474.750
  23829374.750
  19348936.250
 23  2 27  0 30 11.0000000  0 05G06G11G19G20G25 +2.200,13.5,3.85
  20608989.750
  20055602.750
  20927862.250
  21026060.250
  22501192.750
 23  2 27  1  0 10.0000000  0 07G05G06G11G17G19G20G25 1.96,14.0,3.85
  23904961.750
  22929352.750
  21636140.250
  19626758.250
  23241063.250
  21880633.250
  23320711.750
 23  2 27  1 30 11.0000000  0 07G02G05G12G19G20G25G29 +1.720,13.5,3.85
  24104878.250
  21582017.750
  21018283.250
  22915218.250
  20234535.250
  21672478.250
  18207734.750
 23  2 27  2  0 12.0000000  0 07G02G05G09G11G19G20G25 +2.000,14.0,3.85
  18320083.250
  21626472.250
  19365210.250
  21851460.250
  18860772.750
  21041023.750
  22537420.250
 23  2 27  2 30 10.0000000  0 06G02G05G11G13G20G29 1.93,15.0,3.85
  23853257.250
  21253213.250
  22483593.750
  19054797.250
  21425432.250
  23174259.250
 23  2 27  3  0  5.0000000  0 07G02G11G12G13G15G20G25 1.86,15.0,3.85
  23502198.750
  23274029.250
  18795396.250
  18126760.250
  18913392.750
  22126842.750
  23945606.250
 23  2 27  3 30  5.0000000  0 07G02G05G11G13G15G20G29 1.79,15.0,3.85
  23344810.250
  21775997.750
  18302172.750
  23462444.250
  23964298.250
  23160092.250
  22253388.750
 23  2 27  4  0 11.0000000  0 07G02G05G11G13G15G20G29 +1.720,15.0,3.85
  21731000.750
  21018349.250
  23887657.750
  21537965.250
  21642215.250
  22790243.250
  20790698.750
 23  2 27  4 30  7.0000000  0 06G02G05G13G15G20G29 1.96,14.5,3.85
  23122151.750
  23358455.250
  22887763.750
  22500185.750
  19382100.250
  22619516.750
 23  2 27  5  0 11.0000000  0 05G02G05G13G15G18 +2.200,14.0,3.85
  21026729.250
  22199442.250
  21029247.250
  20092686.750
  21562802.250
 23  2 27  5 30  8.0000000  0 06G02G05G13G15G18G29 2.20,14.0,3.85
  23143069.250
  19130714.250
  23596686.250
  22118489.750
  22939500.250
  18152772.750
 23  2 27  6  0 11.0000000  0 05G02G13G15G18G29 +2.200,14.0,3.85
  22012422.250
  23021075.250
  21061389.250
  21026508.750
  23842782.250
 23  2 27  6 30  6.0000000  0 07G02G10G13G15G18G23G27 2.20,14.5,3.85
  23932535.250
  18992658.750
  19474067.750
  23130602.250
  22186139.250
  22926608.750
  19616938.250
 23  2 27  7  0  6.0000000  0 06G02G10G15G18G23G24 2.20,15.5,3.85
  19123177.750
  18658579.750
  18461227.750
  22698754.250
  23026729.250
  23767344.250
 23  2 27  7 30  7.0000000  0 06G10G15G18G23G27G32 2.20,16.0,3.85
  18583337.250
  20122974.250
  23766422.750
  23470721.750
  20383439.250
  19573301.750
 23  2 27  8  0 11.0000000  0 06G10G18G23G24G27G32 +2.200,16.5,3.85
  21026513.750
  21608207.250
  20524530.250
  21250285.250
  23838795.750
  21818918.250
 23  2 27  8 30  9.0000000  0 06G10G18G21G23G24G32 2.20,16.5,3.85
  19001796.750
  21113287.250
  23526533.750
  19179225.250
  20252619.250
  19678318.750
 23  2 27  9  0 11.0000000  0 06G10G22G23G24G28G32 +2.200,16.5,3.85
  21026708.250
  22787168.250
  21931996.750
  23472222.750
  23363448.250
  21612051.750
 23  2 27  9 30  5.0000000  0 07G10G12G22G23G28G31G32 2.20,16.5,3.85
  20125306.250
  23680131.250
  21372406.750
  21752889.750
  21411108.750
  22101721.250
  20570492.250
 23  2 27 10  0  5.0000000  0 07G01G10G21G22G23G28G31 2.20,16.5,3.85
  18034822.250
  21122550.750
  23824791.250
  21718795.750
  23412170.750
  21325571.250
  21766791.750
 23  2 27 10 30 11.0000000  0 05G10G22G25G28G32 +2.200,17.5,3.85
  21027443.750
  20793176.750
  22026955.250
  20155055.250
  20789945.750
 23  2 27 11  0  6.0000000  0 06G10G21G22G28G31G32 2.20,18.0,3.85
  18452318.750
  19954318.750
  23212986.250
  22554398.750
  22465969.250
  23635015.250
 23  2 27 11 30  7.0000000  0 07G10G21G22G25G28G31G32 2.20,18.5,3.85
  20687450.250
  21600949.750
  18318788.750
  20473908.750
  23841764.750
  23540679.250
  19191832.750
 23  2 27 12  0 11.0000000  0 06G01G22G26G28G31G32 +2.200,17.5,3.85
  22517613.750
  19680959.750
  20203314.750
  19538184.250
  19087698.750
  21027632.750
 23  2 27 12 30  5.0000000  0 08G16G22G25G26G28G29G31G32 2.20,17.0,3.85
  22915823.250
  20682175.250
  18110471.750
  20190379.750
  20921634.750
  19021966.750
  20387102.250
  22507508.750
 23  2 27 13  0 11.0000000  0 06G16G22G26G28G29G31 +2.200,17.5,3.85
  21582322.250
  21027699.750
  19712202.250
  21614875.250
  24584391.250
  21049046.750
 23  2 27 13 30  5.0000000  0 07G03G04G16G22G26G29G32 2.20,18.0,3.85
  22964100.250
  23817111.250
  22646847.750
  23724143.750
  21808558.750
  20643959.250
  20425412.250
 23  2 27 14  0  9.0000000  0 06G16G22G26G28G29G31 2.20,19.5,3.85
  23287352.750
  19870876.250
  23542294.750
  20779581.750
  22302700.250
  20240044.250
 23  2 27 14 30  9.0000000  0 06G03G09G16G26G27G31 2.20,20.0,3.85
  21031750.750
  21443339.750
  18487190.750
  19749506.750
  21377469.250
  22666179.750
 23  2 27 15  0 26.0000000  0 06G03G08G09G16G26G27 +2.200,22.0,3.85
  18746986.750
  18586775.750
  23136286.750
  21300665.750
  23386182.250
  23044638.250
 23  2 27 15 30 11.0000000  0 05G04G07G08G16G27 +2.000,22.0,3.85
  20089519.250
  23175635.750
  22114556.250
  20489996.250
  21023508.250
 23  2 27 16  0 11.0000000  0 05G04G07G09G16G27 +2.000,22.5,3.85
  21024522.750
  22994097.250
  21233793.250
  21865926.250
  21290972.750
 23  2 27 16 30 11.0000000  0 04G04G07G08G09 +2.000,22.5,3.85
  21571759.750
  22094207.750
  20933116.250
  21024478.250
 23  2 27 17  0  6.0000000  0 06G04G07G09G21G27G30 2.00,24.0,3.85
  23623176.250
  22482688.750
  22429835.250
  19342234.750
  22854877.750
  19026404.250
 23  2 27 17 30 11.0000000  0 05G04G07G08G09G30 +2.000,25.5,3.85
  23937447.250
  21065500.250
  21024688.250
  22262960.250
  23147416.750
 23  2 27 18  0 11.0000000  0 07G07G08G09G14G21G27G30 +2.200,26.0,3.85
  18523703.750
  19355362.250
  21029085.250
  21052243.250
  20541383.750
  21780087.250
  20021645.750
 23  2 27 18 30 12.0000000  0 05G01G07G09G21G30 +1.600,28.5,3.85
  21034792.250
  18556022.750
  22240094.250
  20141315.750
  19352517.250
 23  2 27 19  0 11.0000000  0 05G01G07G13G21G30 +2.000,28.0,3.85
  21049334.750
  19829788.750
  22674817.250
  21024984.750
  19849043.250
 23  2 27 19 30 11.0000000  0 05G07G08G13G17G30 +2.000,26.0,3.85
  21788925.250
  18739600.250
  23722898.750
  21965400.250
  21024995.250
 23  2 27 20  0 11.0000000  0 07G07G13G14G17G19G21G30 +2.000,28.0,3.85
  22306613.750
  23416481.250
  20776473.250
  21024884.250
  23277416.750
  22900613.750
  20837115.250
 23  2 27 20 30  9.0000000  0 07G01G07G14G17G19G21G30 1.78,27.0,3.85
  22445788.750
  18562691.750
  21664157.250
  21847624.750
  23445009.250
  18942628.250
  22533261.250
 23  2 27 21  0 11.0000000  0 07G01G03G14G17G19G21G30 +1.560,25.5,3.85
  21444427.250
  23776569.250
  19988075.250
  20119237.750
  21017969.250
  18384489.250
  21771470.750
 23  2 27 21 30 11.0000000  0 05G01G03G17G19G30 +2.000,25.5,3.85
  23013025.250
  23703814.750
  20812001.250
  21025146.250
  23465523.750
 23  2 27 22  0  8.0000000  0 07G01G06G14G17G19G24G30 2.00,24.0,3.85
  18785330.750
  21522904.750
  21872515.250
  21636969.750
  21220216.250
  17987983.250
  19257469.750
 23  2 27 22 30 11.0000000  0 05G03G06G14G17G19 +2.000,22.5,3.85
  18087136.750
  21025423.250
  22733620.750
  22089536.750
  21120439.750
 23  2 27 23  0 12.0000000  0 05G03G06G11G17G19 +2.000,22.0,3.85
  18455970.750
  20704261.250
  22648835.750
  22455682.750
  21025844.250
 23  2 27 23 30 10.0000000  0 07G06G11G12G14G17G19G20 +2.000,21.0,3.85
  20933869.250
  21999392.750
  23386602.750
  18962149.250
  23123863.250
  21025983.750
  24263767.750
 23  2 28  0  0  9.0000000  0 06G06G11G12G17G19G20 2.00,20.5,3.85
  22225998.250
  22398543.250
  23386147.250
  18672034.750
  22589643.250
  18015098.750
 23  2 28  0 30  9.0000000  0 06G05G06G12G17G19G20 2.00,20.5,3.85
  21129660.750
  18438383.750
  18406507.250
  21026958.750
  18752878.750
  18648519.250
 23  2 28  1  0  6.0000000  0 07G02G05G06G09G11G12G20 2.00,19.0,3.85
  23560178.250
  21326021.250
  20617482.250
  23150368.250
  19232992.750
  19651391.250
  19387830.250
 23  2 28  1 30 10.0000000  0 07G02G05G09G11G19G25G29 +2.000,19.5,3.85
  23585729.750
  21026144.750
  23837886.250
  20222602.750
  22629747.250
  21223830.750
  23630911.250
 23  2 28  2  0  6.0000000  0 08G02G05G06G09G12G20G25G29 1.92,18.5,3.85
  18753884.750
  22055067.250
  18885388.250
  19940069.750
  23095633.750
  21573196.250
  23083510.750
  18408114.250
 23  2 28  2 30  5.0000000  0 08G05G11G12G13G15G20G25G29 1.84,17.0,3.85
  22598700.750
  23945420.750
  19037122.250
  20289897.750
  21239145.250
  22866731.250
  18521674.250
  18439629.750
 23  2 28  3  0  6.0000000  0 07G02G05G11G13G20G25G29 1.76,16.0,3.85
  19358680.250
  23208236.750
  19289365.250
  19902710.750
  18138179.750
  19986698.750
  18348747.250
 23  2 28  3 30  6.0000000  0 07G02G05G11G13G15G20G29 1.68,16.5,3.85
  19512256.250
  18051054.250
  20628064.250
  19573702.750
  20028010.750
  19493884.250
  18423018.750
 23  2 28  4  0 11.0000000  0 06G02G05G13G15G20G29 +1.600,15.0,3.85
  21037273.250
  20452293.750
  20821731.250
  20863892.250
  22261498.250
  20139588.750
 23  2 28  4 30 13.0000000  0 07G02G05G11G13G18G20G23 +1.400,15.0,3.85
  21051464.250
  21423418.750
  18553349.250
  20834023.250
  22169325.250
  23463331.750
  23186320.750
 23  2 28  5  0  6.0000000  0 07G02G05G13G15G18G23G29 1.46,15.5,3.85
  19864154.750
  21156249.250
  19916737.750
  18906021.750
  20306272.750
  21321323.750
  20153565.750
 23  2 28  5 30 11.0000000  0 06G02G05G10G13G18G23 +1.520,15.5,3.85
  23646083.750
  19733774.750
  21018022.750
  18177400.250
  23336961.750
  18353303.250
 23  2 28  6  0  6.0000000  0 07G02G10G13G15G18G23G27 1.68,15.0,3.85
  21060227.250
  23276965.250
  22143925.750
  20126805.250
  19970877.250
  20902636.250
  23782835.750
 23  2 28  6 30  6.0000000  0 06G02G10G15G18G23G24 1.84,13.5,3.85
  21699558.750
  22559776.750
  20919147.750
  19855108.750
  20551423.250
  21612595.750
 23  2 28  7  0 10.0000000  0 07G02G10G15G18G23G24G27 +2.000,14.5,3.85
  23275497.250
  22588117.250
  22628948.750
  20773130.250
  21026621.250
  21732138.250
  23723920.250
 23  2 28  7 30 11.0000000  0 05G02G10G15G18G23 +2.000,14.5,3.85
  23388982.750
  21026339.250
  22806119.250
  20392775.750
  19996275.250
 23  2 28  8  0  6.0000000  0 06G10G22G23G24G27G32 1.84,14.0,3.85
  20519152.750
  23082409.750
  20103606.250
  20865511.750
  23479154.750
  21293131.250
 23  2 28  8 30  8.0000000  0 07G08G18G22G23G27G28G32 1.68,14.0,3.85
  18437986.750
  22402652.750
  22221543.750
  20355480.750
  18195852.750
  23273640.750
  20746103.750
 23  2 28  9  0 10.0000000  0 07G10G12G18G22G23G28G31 +1.520,14.0,3.85
  21018228.250
  19078610.750
  18853588.250
  22711765.250
  22023393.750
  23212740.750
  18098602.750
 23  2 28  9 30 11.0000000  0 06G10G22G23G28G31G32 +2.000,14.0,3.85
  21044825.250
  22208167.750
  22770872.250
  22178035.250
  22853415.750
  21462731.750
 23  2 28 10  0  5.0000000  0 07G10G21G22G23G25G28G31 1.93,12.5,3.85
  19810635.750
  22429612.750
  20303698.250
  22183053.750
  21637693.250
  19864974.250
  20285623.250
 23  2 28 10 30 10.0000000  0 06G10G21G22G25G28G31 1.85,11.5,3.85
  19574454.250
  21588772.250
  19213505.250
  20450074.750
  18559501.750
  18705092.250
 23  2 28 11  0  6.0000000  0 07G03G10G21G22G28G31G32 1.78,11.5,3.85
  21331377.750
  19085140.750
  20507491.750
  23697786.750
  23053423.250
  22942641.750
  18184005.250
 23  2 28 11 30  9.0000000  0 06G01G03G22G28G31G32 1.71,12.0,3.85
  18949873.250
  19069908.250
  22565181.750
  22130913.750
  21810919.750
  23501230.250
 23  2 28 12  0  5.0000000  0 06G03G22G26G28G31G32 1.63,11.5,3.85
  22897143.250
  21476385.250
  21852697.750
  21383350.250
  20919180.750
  22885104.750
 23  2 28 12 30 11.0000000  0 07G03G16G22G26G28G31G32 +1.560,11.0,3.85
  22105065.750
  23635451.250
  21639479.750
  21018107.750
  21931194.250
  21386346.250
  23528657.250
 23  2 28 13  0  7.0000000  0 07G03G16G22G26G28G31G32 1.78,11.0,3.85
  18956407.750
  19570984.250
  19245894.250
  23830821.250
  19871812.750
  19298298.750
  21590534.250
 23  2 28 13 30 11.0000000  0 05G16G22G26G28G31 +2.000,11.0,3.85
  21025585.250
  22328716.750
  20343005.750
  23172322.750
  22603872.750
 23  2 28 14  0 11.0000000  0 07G04G16G22G27G28G29G31 2.00,13.0,3.85
  22731740.750
  21744011.750
  18522013.750
  19406108.750
  19429222.750
  20899897.250
  18882070.750
 23  2 28 14 30 11.0000000  0 07G03G04G08G09G16G22G26 +2.000,15.5,3.85
  22317159.250
  20228706.750
  18146580.250
  22455326.250
  19637542.250
  23647965.250
  21026382.750
 23  2 28 15  0 11.0000000  0 05G04G09G16G26G27 +2.000,18.5,3.85
  21025844.750
  22639944.750
  20962803.750
  23135335.750
  22549681.250
 23  2 28 15 30 11.0000000  0 05G04G07G16G26G27 +2.000,21.0,3.85
  21026183.250
  23978996.250
  21498165.250
  18216268.750
  21867181.750
 23  2 28 16  0  8.0000000  0 06G04G07G08G09G16G27 2.00,19.5,3.85
  20024887.250
  21815426.250
  20558040.250
  20129372.750
  20917362.750
  20207650.250
 23  2 28 16 30 10.0000000  0 06G04G07G08G09G16G27 2.00,21.5,3.85
  22320986.250
  22625938.250
  21504456.750
  21678601.750
  23444864.250
  21934874.750
 23  2 28 17  0 11.0000000  0 04G07G08G09G27 +2.000,20.5,3.85
  21687323.250
  21026324.250
  21799353.250
  22251579.250
 23  2 28 17 30  6.0000000  0 07G04G07G08G09G16G21G27 2.00,21.5,3.85
  21969460.750
  18873442.750
  18943219.750
  20246729.750
  22981423.250
  21273467.750
  20875201.750
 23  2 28 18  0  9.0000000  0 06G01G07G09G14G21G27 2.00,24.5,3.85
  23946217.750
  20491350.250
  23167486.250
  22939332.250
  22448866.750
  23935132.750
 23  2 28 18 30  6.0000000  0 06G01G07G08G14G21G30 2.00,24.5,3.85
  18662110.250
  22341986.750
  18170328.250
  18080304.750
