     2.00           OBSERVATION DATA    G(GPS)              RINEX VERSION / TYPE
goGPS-java                              23-Apr-24 09:21:42  PGM / RUN BY / DATE
                                                            MARKER NAME
                                                            MARKER NUMBER
                    Lotek Wireless Inc.                     OBSERVER / AGENCY
7                                                           REC # / TYPE / VERS
                                                            ANT # / TYPE
   119356.0000 -4924509.0000  4038031.0000                  APPROX POSITION XYZ
        0.0000        0.0000        0.0000                  ANTENNA: DELTA H / E / N
     2     0                                                WAVELENGTH FACT L1/2
     1    C1                                                # / TYPES OF OBSERV
  2023     2    18    20    31    5.0000000     UTC         TIME OF FIRST OBS
                                                            END OF HEADER
 23  2 18 21  0 13.0000000  0 00 0.02,23.0,3.85
 23  2 18 21 30 13.0000000  0 00 0.05,23.0,3.85
 23  2 18 22  0 13.0000000  0 00 0.07,23.0,3.85
 23  2 18 22 30 13.0000000  0 00 0.10,22.0,3.85
 23  2 18 23  0 22.0000000  0 00 0.12,21.5,3.85
 23  2 18 23 30  6.0000000  0 06G03G11G14G17G19G24 0.15,15.5,3.85
  23179404.750
  21705794.750
  22264581.750
  21211862.250
  19863532.250
  22741114.250
 23  2 19  0  0  5.0000000  0 06G11G12G14G17G19G24 0.17,12.0,3.85
  18831458.250
  20313917.250
  21367951.250
  19691577.250
  23943864.750
  21148655.750
 23  2 19  0 30 11.0000000  0 06G06G11G12G19G20G25 +0.200,11.5,3.85
  19564737.750
  19935630.250
  21024020.250
  19938376.750
  21705004.750
  23192235.750
 23  2 19  1  0  8.0000000  0 07G05G09G11G12G17G19G25 0.20,11.5,3.85
  22116219.750
  22896795.750
  18455078.250
  19164937.750
  21524763.750
  19253562.250
  20946393.750
 23  2 19  1 30 11.0000000  0 07G05G06G09G11G12G19G25 +0.200,11.5,3.85
  21716660.250
  20519615.750
  23310283.750
  19297604.750
  19752319.750
  20831943.750
  21024615.750
 23  2 19  2  0  9.0000000  0 07G02G05G06G09G11G25G29 0.18,11.5,3.85
  22601167.250
  20134190.250
  20857218.750
  22684876.250
  19013847.250
  20113154.250
  22763753.250
 23  2 19  2 30  8.0000000  0 07G02G06G09G11G20G25G29 0.15,11.0,3.85
  19011610.750
  18793592.750
  19964026.750
  22450373.750
  21676015.750
  23152029.750
  18791655.750
 23  2 19  3  0  6.0000000  0 07G02G05G11G12G20G25G29 0.13,11.0,3.85
  21368350.250
  18764764.250
  19904873.250
  20882299.250
  18866079.250
  20472020.750
  20751880.250
 23  2 19  3 30 10.0000000  0 06G02G12G15G20G25G29 0.10,10.5,3.85
  23161952.250
  18315354.250
  18662807.250
  21704796.250
  23502430.750
  22227744.250
 23  2 19  4  0  6.0000000  0 06G02G05G11G12G18G26 0.08,10.0,3.85
  19337434.250
  23695711.750
  20199761.750
  22140680.250
  21656574.250
  22639427.250
 23  2 19  4 30  8.0000000  0 07G02G13G15G18G20G26G29 0.05,10.0,3.85
  21555579.250
  21393787.750
  21540769.250
  23377864.250
  22522921.750
  19066251.750
  20599380.250
 23  2 19  5  0  6.0000000  0 06G02G15G18G20G23G29 0.03,9.5,3.85
  23637673.250
  23065804.750
  18888822.750
  19815441.250
  19941701.750
  23084946.250
 23  2 19  5 30  5.0000000  0 08G02G05G13G15G18G20G23G29 0.00,9.0,3.85
  19765559.250
  20833419.250
  19736479.250
  18855512.250
  20352429.750
  23027447.750
  21389652.250
  19868289.250
 23  2 19  6  0  6.0000000  0 06G02G05G13G15G23G29 -0.02,9.0,3.85
  21969458.750
  23860963.750
  22370511.750
  20943863.750
  22855002.750
  22881292.750
 23  2 19  6 30  9.0000000  0 08G02G05G10G13G18G23G27G29 -0.05,9.0,3.85
  18314679.250
  20837183.750
  20795302.250
  19261026.250
  23381391.250
  18357377.250
  21302675.250
  20051050.250
 23  2 19  7  0  6.0000000  0 07G02G10G13G24G27G29G32 -0.07,8.5,3.85
  20688110.750
  21855695.250
  22166441.750
  20942114.750
  22457060.250
  23119924.750
  23568609.250
 23  2 19  7 30  6.0000000  0 06G08G10G18G23G24G27 -0.10,8.0,3.85
  19842624.250
  22906052.750
  20870583.250
  21241388.750
  22014552.250
  23905700.750
 23  2 19  8  0  5.0000000  0 07G02G10G18G23G24G27G32 -0.12,8.0,3.85
  19896801.250
  23899905.250
  22984805.250
  22745222.750
  23348485.750
  19624459.250
  18915268.250
 23  2 19  8 30  7.0000000  0 08G02G08G10G15G18G24G27G32 -0.15,8.0,3.85
  22639238.750
  22465169.250
  18933356.750
  22034707.750
  19394516.750
  19077551.750
  21644852.250
  19736628.250
 23  2 19  9  0  6.0000000  0 06G10G18G21G22G23G32 -0.17,7.5,3.85
  20548089.250
  22534021.750
  19136421.250
  22819575.250
  20662729.250
  21227825.250
 23  2 19  9 30  5.0000000  0 06G10G18G21G22G31G32 -0.20,7.5,3.85
  21032118.750
  18550338.250
  19022167.250
  22859093.750
  18388370.250
  21619562.250
 23  2 19 10  0  5.0000000  0 07G01G10G21G22G23G28G32 -0.22,7.5,3.85
  20440553.250
  22280813.250
  19654566.250
  23593286.750
  23842119.250
  23684697.750
  22733708.750
 23  2 19 10 30  5.0000000  0 07G01G10G21G22G23G31G32 -0.25,7.5,3.85
  20726481.250
  23718452.750
  20474593.250
  18389818.750
  19951326.250
  18494672.250
  23923410.750
 23  2 19 11  0  6.0000000  0 07G01G10G12G21G22G25G28 -0.27,7.0,3.85
  21259210.750
  19378907.750
  21930238.250
  21520806.750
  19227049.750
  20469076.750
  18608025.250
 23  2 19 11 30 10.0000000  0 07G01G03G10G21G22G25G31 -0.30,7.0,3.85
  22124379.750
  23969861.250
  21263702.750
  22805317.750
  20113645.250
  21493490.250
  19383730.250
 23  2 19 12  0 10.0000000  0 06G01G03G10G22G28G32 -0.320,6.5,3.85
  21018580.250
  21472010.750
  21014531.750
  18734628.750
  18239237.250
  19575604.250
 23  2 19 12 14  2.0000000  0 00 +3.000,7.0,3.85,1,70996,-5051271,3880721,4,0.8
 23  2 19 12 30  5.0000000  0 06G01G03G25G26G28G31 1.78,6.5,3.85
  18423743.750
  23284104.750
  18168571.250
  22288259.750
  21456660.250
  21021308.250
 23  2 19 13  0  5.0000000  0 08G03G04G16G22G26G28G29G32 -0.50,6.0,3.85
  23132994.750
  19620726.750
  18914339.250
  22465813.750
  22081826.750
  22668664.750
  20889877.250
  18274025.750
 23  2 19 13 30 15.0000000  0 05G03G04G16G22G31 -2.800,6.0,3.85
  19128635.250
  21027229.250
  20022914.750
  19263121.250
  19262825.750
 23  2 19 14  0  6.0000000  0 06G03G04G16G22G26G32 -1.47,6.0,3.85
  23865600.250
  18812655.750
  23685341.250
  18578407.250
  22715417.250
  21274557.750
 23  2 19 14 30  6.0000000  0 06G03G04G09G26G28G31 -0.14,7.5,3.85
  19112434.250
  18785707.750
  21571961.750
  23897447.750
  21100381.750
  20565059.250
 23  2 19 15  0 11.0000000  0 05G04G22G26G27G31 +1.200,8.0,3.85
  18737944.250
  21773340.750
  19215517.750
  21027362.250
  22127636.250
 23  2 19 15 30 12.0000000  0 05G04G07G09G27G31 +0.800,9.5,3.85
  19266939.250
  23175638.250
  21037955.250
  20942148.250
  18025335.750
 23  2 19 16  0 20.0000000  0 06G03G04G08G09G16G27 +0.400,10.5,3.85
  23361092.250
  18985968.250
  21118326.250
  20041541.250
  19318813.250
  19976640.250
 23  2 19 16 30 20.0000000  0 05G04G07G08G09G16 +0.600,11.5,3.85
  20410925.250
  22504932.250
  21240372.250
  20684213.750
  21184924.250
 23  2 19 17  0 14.0000000  0 04G07G08G09G27 +1.000,13.5,3.85
  21024144.750
  19826951.750
  19863081.250
  20073175.750
 23  2 19 17 30 18.0000000  0 05G04G08G09G16G27 +1.200,16.5,3.85
  22953586.250
  21155175.750
  21798159.750
  18060272.250
  22203921.250
 23  2 19 18  0 13.0000000  0 04G07G08G27G30 +0.600,16.0,3.85
  18920392.250
  18799393.750
  20581540.250
  21052827.750
 23  2 19 18 30  9.0000000  0 07G04G08G09G14G21G27G30 0.58,17.5,3.85
  23691074.250
  20093023.750
  21734039.250
  21932439.750
  21409672.750
  22469277.750
  20913509.250
 23  2 19 19  0 11.0000000  0 07G01G07G09G14G17G21G30 +0.560,18.5,3.85
  20022289.750
  23422031.750
  21018458.250
  19351046.750
  20406593.750
  19058506.750
  18303461.750
 23  2 19 19 30 11.0000000  0 05G07G09G14G21G30 +1.200,18.0,3.85
  20921737.250
  19436053.750
  21957349.250
  22163866.750
  21029397.750
 23  2 19 20  0 12.0000000  0 07G01G07G08G14G17G21G30 +0.600,17.0,3.85
  20204013.750
  20128526.750
  23056151.750
  20043272.750
  20443509.750
  21037643.750
  19452648.250
 23  2 19 20 30  6.0000000  0 06G07G13G14G17G21G30 0.70,17.5,3.85
  23500603.250
  18707751.750
  22122158.250
  22369996.250
  18141766.750
  22111466.750
 23  2 19 21  0  6.0000000  0 06G06G07G14G17G21G30 0.80,17.0,3.85
  18091930.250
  22956358.750
  20213688.750
  20395926.750
  23373051.250
  20995018.750
 23  2 19 21 30  8.0000000  0 07G03G06G13G14G17G19G30 0.90,15.5,3.85
  22880631.250
  21596741.750
  22948397.250
  19002724.250
  19134178.250
  20112739.750
  20696677.250
 23  2 19 22  0 11.0000000  0 05G01G03G06G17G30 +1.000,14.0,3.85
  21028337.750
  21885549.250
  20096551.250
  18918500.750
  21479757.250
 23  2 19 22 30 10.0000000  0 06G06G11G14G17G19G24 0.72,15.0,3.85
  23105545.750
  20460338.250
  23321528.250
  23111974.250
  22747536.750
  19512379.750
 23  2 19 23  0 11.0000000  0 06G03G06G14G17G19G24 +0.440,15.5,3.85
  23029281.250
  20030739.750
  21618571.750
  21018356.750
  20086765.750
  22822918.750
 23  2 19 23 30  7.0000000  0 07G03G11G12G14G17G19G24 0.51,15.0,3.85
  21619768.750
  19939464.250
  21696723.750
  20774195.250
  19638696.750
  18232113.750
  21144966.750
 23  2 20  0  0  7.0000000  0 06G06G11G12G17G19G24 0.58,14.5,3.85
  22183008.250
  23323697.250
  18758370.250
  18365673.250
  22571523.250
  19822433.750
 23  2 20  0 30  6.0000000  0 06G06G11G12G17G19G20 0.66,13.5,3.85
  21698782.250
  21949908.250
  22981999.750
  18155958.250
  22068204.250
  23627920.250
 23  2 20  1  0  6.0000000  0 07G06G11G12G17G19G20G25 0.73,13.0,3.85
  18555763.750
  23966519.750
  18634043.250
  21168247.250
  18876594.750
  18911320.750
  20356427.250
 23  2 20  1 30 11.0000000  0 06G06G09G11G12G17G25 +0.800,12.5,3.85
  21912105.250
  18559339.750
  20593396.250
  21025593.750
  18651170.250
  22223531.250
 23  2 20  2  0  7.0000000  0 08G02G05G06G09G12G19G25G29 0.80,12.0,3.85
  22609892.250
  20105101.250
  21084200.750
  22801688.250
  19579013.750
  21496674.750
  20190290.250
  22721426.750
 23  2 20  2 30  5.0000000  0 06G05G06G11G19G25G29 0.80,11.5,3.85
  23962612.250
  20627104.750
  18225713.250
  21250559.250
  18890154.750
  20356676.750
 23  2 20  3  0  8.0000000  0 07G02G05G11G12G20G25G29 0.80,11.0,3.85
  23177042.250
  20604718.750
  21873013.750
  22910330.250
  20809812.250
  22435477.750
  22507714.250
 23  2 20  3 30  6.0000000  0 06G02G05G12G13G15G20 0.80,11.0,3.85
  18033727.750
  21842529.250
  19407912.250
  18652170.750
  19425862.750
  22727279.750
 23  2 20  4  0 11.0000000  0 05G11G13G15G20G25 +0.800,10.5,3.85
  21942012.750
  21026142.250
  21509922.750
  20807261.250
  22845898.250
 23  2 20  4 30 11.0000000  0 05G13G18G20G23G25 +0.800,10.5,3.85
  19701358.750
  21633951.750
  21027098.250
  22745624.750
  23245309.250
 23  2 20  5  0 10.0000000  0 07G02G05G11G15G18G20G29 +0.800,10.5,3.85
  18692731.750
  18962892.750
  22107688.250
  18060321.750
  19851849.750
  21027297.250
  18217079.250
 23  2 20  5 30  6.0000000  0 06G05G13G15G18G23G29 0.80,10.0,3.85
  22802092.750
  21628355.250
  20669760.250
  22097173.750
  23130800.250
  21815307.250
 23  2 20  6  0  7.0000000  0 08G02G05G10G13G18G23G24G29 0.80,10.0,3.85
  18259727.750
  20255337.250
  21710831.750
  18732731.750
  18004380.250
  19032212.750
  21231282.750
  19286883.750
 23  2 20  6 30 10.0000000  0 07G02G10G13G15G23G27G29 0.80,10.0,3.85
  21120965.250
  23428920.250
  22144981.250
  20168399.250
  21034770.750
  23934796.750
  22963585.250
 23  2 20  7  0  7.0000000  0 06G02G10G13G18G27G32 0.80,10.0,3.85
  18075599.250
  19043324.750
  19621280.250
  22277190.750
  19680505.750
  20701268.250
 23  2 20  7 30 18.0000000  0 06G02G10G15G18G27G32 0.80,9.5,3.85
  21123585.750
  20550648.250
  20454145.250
  18660385.250
  21633462.250
  21822487.250
 23  2 20  8  0 11.0000000  0 05G10G15G23G27G32 +0.800,9.5,3.85
  21027425.250
  22661593.250
  19953250.250
  22870644.250
  22003711.750
 23  2 20  8 30  7.0000000  0 07G08G18G22G23G24G27G32 1.43,9.5,3.85
  21771510.750
  18828799.750
  20800991.250
  23692679.750
  18433795.250
  21023085.750
  18946454.250
 23  2 20  9  0  8.0000000  0 07G08G10G12G18G22G24G32 2.07,9.5,3.85
  18299146.250
  20015646.750
  18696181.250
  22215424.750
  22221688.250
  21318258.250
  20681419.250
 23  2 20  9 30  9.0000000  0 06G10G21G22G23G24G31 2.71,9.0,3.85
  21993757.750
  19894768.250
  23748868.250
  22934314.250
  18491776.250
  19180904.250
 23  2 20  9 44  3.0000000  0 00 +3.000,9.5,3.85,1,66974,-5051699,3880212,4,1.2
 23  2 20 11  0 11.0000000  0 06G01G10G12G21G25G32 -2.400,9.0,3.85
  20258720.750
  18531055.250
  21025196.250
  20584738.250
  19495744.250
  18261007.250
 23  2 20 11 30  5.0000000  0 06G01G10G21G26G28G31 -1.60,9.0,3.85
  20959975.250
  20229230.750
  21686304.250
  21758325.750
  18280800.750
  18180813.750
 23  2 20 12  0  8.0000000  0 06G01G10G22G25G28G32 -0.80,8.5,3.85
  23255391.750
  23358528.250
  20918896.250
  22828044.750
  20459690.750
  21824637.250
 23  2 20 12 30 12.0000000  0 07G01G03G21G22G26G28G32 0.00,8.5,3.85
  21001853.750
  19636968.750
  22034356.750
  18140237.750
  18632345.750
  18014162.750
  19526274.750
 23  2 20 13  0  9.0000000  0 07G01G03G04G16G22G31G32 0.80,8.5,3.85
  23535142.250
  20603646.750
  23028108.750
  22267408.750
  20065817.750
  19789318.250
  21936366.250
 23  2 20 13 30 13.0000000  0 05G03G16G22G26G31 +1.600,9.5,3.85
  20758710.250
  21498755.250
  20980284.750
  19645753.250
  21025539.750
 23  2 20 14  0 31.0000000  0 07G03G04G16G22G26G28G31 +1.400,11.5,3.85
  22254614.250
  23031830.250
  21891028.750
  23026827.250
  21095250.250
  23867217.750
  23313032.750
 23  2 20 14 30 11.0000000  0 06G03G04G22G26G28G29 +1.600,12.0,3.85
  22246118.750
  21730766.750
  23354226.250
  21026103.750
  18275897.250
  19772220.750
 23  2 20 15  0  5.0000000  0 06G03G04G08G16G27G28 1.40,13.5,3.85
  19751893.750
  23786154.750
  21782916.750
  23155898.250
  20006440.250
  21886425.750
 23  2 20 15 30 14.0000000  0 06G03G04G07G08G09G27 +1.200,16.5,3.85
  21075557.250
  23705938.750
  21537014.250
  20824034.250
  19388395.250
  19295752.750
 23  2 20 16  0 22.0000000  0 02G09G27 1.40,19.5,3.85
  18778534.750
  21723922.250
 23  2 20 16 30 11.0000000  0 05G04G08G09G16G27 +1.600,17.5,3.85
  20793033.250
  21444658.250
  20962735.250
  21620728.750
  21026932.750
 23  2 20 17  0 11.0000000  0 05G07G08G09G16G27 +1.600,17.0,3.85
  21026773.750
  19866176.750
  19983282.250
  21639149.250
  20222124.750
 23  2 20 17 30 10.0000000  0 06G07G08G09G14G27G30 1.60,17.5,3.85
  18053890.750
  23323510.750
  18045437.250
  21427193.250
  18480562.250
  20574153.250
 23  2 20 18  0 11.0000000  0 06G04G08G09G14G16G27 +1.600,18.5,3.85
  22731792.750
  19769408.250
  21028320.750
  22779016.750
  23709018.250
  21643062.750
 23  2 20 18 30 13.0000000  0 07G07G08G09G14G21G27G30 +0.800,20.0,3.85
  19572898.250
  20445006.250
  22134910.750
  22076954.750
  21572822.750
  22891179.250
  21048914.750
 23  2 20 19  0 29.0000000  0 06G01G07G08G13G14G21 +1.600,21.0,3.85
  23775595.750
  21356307.750
  23120922.250
  19100377.750
  23163428.250
  22927115.250
 23  2 20 19 30  5.0000000  0 06G01G08G13G14G17G30 1.60,22.5,3.85
  22168805.250
  23479472.750
  23806633.250
  21886300.750
  22519519.750
  20990341.750
 23  2 20 20  0 24.0000000  0 05G01G07G08G17G19 +1.600,23.5,3.85
  21225607.750
  21334836.250
  18301182.250
  21439361.250
  24255103.250
 23  2 20 20 30 13.0000000  0 05G01G07G19G21G30 +1.000,23.5,3.85
  18899539.250
  20143997.750
  21053526.750
  20728810.250
  18657961.750
 23  2 20 21  0 12.0000000  0 05G14G17G19G21G30 +1.400,23.5,3.85
  23702969.250
  17885227.250
  19471770.750
  21026990.750
  18620643.750
 23  2 20 21 30 13.0000000  0 06G01G03G14G17G21G30 +0.800,22.5,3.85
  22410701.750
  18677668.750
  20925151.250
  21051915.250
  19362625.250
  22743247.250
 23  2 20 22  0 11.0000000  0 06G01G06G14G17G19G30 +1.400,23.0,3.85
  23268412.750
  22032542.750
  21026981.750
  21033731.750
  21223488.750
  23721375.750
 23  2 20 22 30  8.0000000  0 06G06G11G14G17G19G24 1.40,24.5,3.85
  18255860.250
  21542970.250
  18659519.250
  18414080.750
  23966925.250
  20722556.250
 23  2 20 23  0 12.0000000  0 06G03G06G11G14G17G19 +1.400,24.0,3.85
  22356110.750
  19265804.750
  21940404.250
  21027826.750
  20369087.250
  19371609.750
 23  2 20 23 30  9.0000000  0 08G03G06G11G12G14G17G19G20 1.30,21.5,3.85
  19062905.750
  21272807.250
  23167276.750
  18899470.750
  18272136.250
  23055790.750
  21597284.250
  19876661.250
 23  2 21  0  0 20.0000000  0 05G06G12G17G19G20 +1.200,21.0,3.85
  21189029.750
  23583009.750
  23409179.250
  21578621.750
  18432358.750
 23  2 21  0 30 11.0000000  0 05G06G11G12G17G19 +1.200,20.0,3.85
  21024889.250
  21155209.750
  22135316.750
  23493721.750
  21383451.250
 23  2 21  1  0 11.0000000  0 07G05G06G11G12G19G20G25 1.20,16.5,3.85
  22770613.250
  20145540.250
  19452492.750
  20074822.250
  20455461.750
  20281374.750
  21738290.750
 23  2 21  1 30  5.0000000  0 07G05G06G09G12G19G20G25 1.20,12.5,3.85
  20002962.750
  19355016.250
  21853054.750
  18366716.750
  19671560.750
  18069655.750
  19496420.750
 23  2 21  2  0 17.0000000  0 05G02G06G11G20G25 +1.200,11.5,3.85
  18449025.750
  23131410.750
  21135506.250
  20666618.750
  22102105.250
 23  2 21  2 30 10.0000000  0 08G02G05G09G11G12G20G25G29 1.20,13.5,3.85
  21124911.750
  18442264.250
  22363766.250
  18859300.250
  19538849.250
  17990969.250
  19499185.250
  20789385.750
 23  2 21  3  0  5.0000000  0 07G02G05G11G12G20G25G29 1.20,12.5,3.85
  18173668.250
  21622477.250
  23007849.250
  18112534.750
  21926457.250
  23579276.250
  23449334.250
 23  2 21  3 30  8.0000000  0 08G02G05G11G12G13G20G25G29 1.20,10.5,3.85
  20881530.250
  18762907.250
  20875362.750
  22474001.250
  21405516.750
  19729302.750
  21582115.750
  19882565.750
 23  2 21  4  0 11.0000000  0 07G02G05G11G15G20G25G29 +1.200,9.5,3.85
  20541866.250
  19115010.250
  21725500.750
  21025411.750
  20600699.750
  22667174.750
  19467661.250
 23  2 21  4 30  8.0000000  0 07G02G05G13G15G18G20G29 1.04,9.0,3.85
  19533922.250
  18980584.250
  19315063.750
  19337209.750
  21212534.250
  20831170.250
  18655120.250
 23  2 21  5  0  6.0000000  0 06G02G13G18G20G23G29 0.88,8.0,3.85
  20501397.250
  20291156.750
  21583324.750
  22980976.250
  22616376.250
  20102545.250
 23  2 21  5 30 11.0000000  0 06G05G13G15G20G23G29 +0.720,8.0,3.85
  22264760.250
  21018284.750
  19981969.250
  18477350.750
  22375949.750
  21262199.750
 23  2 21  6  0 12.0000000  0 06G02G05G10G15G18G29 +0.400,8.0,3.85
  21030469.250
  23126594.750
  18348877.750
  20008482.250
  20677396.250
  22174924.750
 23  2 21  6 30  6.0000000  0 07G02G05G10G15G18G23G29 0.80,8.0,3.85
  19730750.750
  22394149.250
  21884352.750
  18801432.750
  18598418.750
  19532005.750
  21676480.750
 23  2 21  7  0 11.0000000  0 05G02G10G15G23G27 +1.200,7.5,3.85
  22227363.250
  23009823.250
  21451055.750
  21026652.250
  23691009.250
 23  2 21  7 30  6.0000000  0 06G02G10G15G18G23G24 1.20,7.0,3.85
  18549675.250
  23780483.750
  23898919.250
  22013194.750
  22243897.750
  22937394.750
 23  2 21  8  0  6.0000000  0 07G08G10G15G18G24G27G32 1.20,7.0,3.85
  20680137.750
  23480633.750
  19341253.250
  22907754.250
  23077633.750
  19452254.750
  18425484.250
 23  2 21  8 30 11.0000000  0 06G08G10G22G23G24G27 +1.200,7.5,3.85
  18725396.250
  21026668.250
  23596303.750
  20643429.250
  21417000.250
  18045538.250
 23  2 21  9  0 11.0000000  0 07G08G10G18G22G23G24G32 +1.200,8.0,3.85
  19113854.250
  20720515.250
  23122209.250
  22864072.750
  21027178.750
  22179130.750
  21375588.250
 23  2 21  9 30 11.0000000  0 06G10G21G22G23G28G32 +1.200,7.5,3.85
  21027204.750
  18852249.750
  22717620.250
  22062748.750
  23189322.250
  21588535.250
 23  2 21 10  0 11.0000000  0 04G10G21G23G32 +1.200,6.0,3.85
  21027438.250
  18236380.750
  22779232.250
  21431417.750
 23  2 21 10 30  5.0000000  0 08G01G10G22G23G25G28G31G32 0.94,7.0,3.85
  18825118.750
  22119207.750
  22586147.250
  18514834.750
  23903851.250
  22132265.750
  22519386.750
  22237245.250
 23  2 21 11  0 11.0000000  0 07G01G10G21G22G28G31G32 +0.680,7.0,3.85
  20631594.750
  19033200.250
  21018306.750
  18631952.250
  17973273.750
  18089990.750
  18699458.750
 23  2 21 11 30  5.0000000  0 07G03G21G22G25G28G31G32 0.85,7.5,3.85
  22053627.750
  21313995.750
  18488169.750
  19952719.250
  23845308.250
  23713394.750
  18990374.750
 23  2 21 12  0  5.0000000  0 07G01G03G22G26G28G31G32 1.03,6.5,3.85
  22575498.750
  22617056.250
  20173405.250
  21644928.750
  19752502.750
  19420706.750
  21136061.250
 23  2 21 12 30 11.0000000  0 05G03G22G26G31G32 +1.200,7.0,3.85
  21027038.250
  19659425.750
  19996708.750
  19119176.750
  21104248.750
 23  2 21 13  0 34.0000000  0 02G22G32 1.20,7.5,3.85
  21102532.750
  23037599.750
 23  2 21 13 30 11.0000000  0 06G03G04G16G22G26G28 +1.200,7.5,3.85
  21027790.250
  22707492.750
  21624830.250
  21337452.250
  19908884.750
  21982026.250
 23  2 21 14  0  5.0000000  0 06G03G04G16G22G26G31 1.13,9.0,3.85
  18679047.750
  19310649.250
  18172943.750
  19503788.750
  23508479.250
  19807353.750
 23  2 21 14 30  7.0000000  0 07G03G04G16G22G26G29G31 1.07,10.5,3.85
  21782301.750
  21078320.250
  20119598.750
  22922282.250
  20551970.250
  19288961.250
  23308279.750
 23  2 21 15  0 11.0000000  0 07G03G04G09G16G26G27G31 +1.000,12.5,3.85
  22333537.250
  20170409.750
  22379537.750
  19603691.750
  21024877.250
  22303570.750
  23961346.250
 23  2 21 15 30 22.0000000  0 07G03G07G16G22G26G27G31 1.07,14.0,3.85
  18763301.750
  18957558.750
  21168913.250
  20172107.750
  23376388.750
  22705368.250
  20297677.250
 23  2 21 16  0 22.0000000  0 01G16 1.13,15.5,3.85
  21662813.250
 23  2 21 16 30 16.0000000  0 06G04G07G08G09G16G27 +1.200,16.0,3.85
  20654704.750
  22388948.750
  21116979.750
  20716599.250
  21529779.250
  20799661.250
 23  2 21 17  0 12.0000000  0 05G04G08G09G16G27 +1.000,17.0,3.85
  21445511.250
  20561565.250
  20763728.750
  22533716.250
  21025849.750
 23  2 21 17 30 11.0000000  0 04G07G08G16G27 +1.000,19.5,3.85
  21668675.250
  21026176.750
  24230269.750
  22282807.750
 23  2 21 18  0  5.0000000  0 07G04G08G09G14G21G27G30 0.84,21.0,3.85
  18325090.750
  21245128.750
  22571339.250
  18093773.250
  23524061.250
  23203022.750
  23135100.750
 23  2 21 18 30 26.0000000  0 01G27 0.68,26.0,3.85
  23811838.250
 23  2 21 19  0 11.0000000  0 07G01G07G08G14G17G21G30 +0.520,28.0,3.85
  21765551.250
  19500300.750
  21366442.750
  21202868.250
  22151718.250
  21018215.750
  20169792.750
 23  2 21 19 30  8.0000000  0 07G01G07G08G13G17G21G30 0.36,26.0,3.85
  20115077.250
  19116575.750
  21687404.750
  21803873.750
  20457258.750
  20257893.750
  19005502.750
 23  2 21 20  0 14.0000000  0 05G01G07G14G21G30 +0.200,26.5,3.85
  21234813.750
  21499881.250
  21066516.250
  22322568.750
  20612843.250
 23  2 21 20 30  5.0000000  0 06G01G07G14G17G19G30 0.25,22.0,3.85
  18097401.250
  19468770.250
  23709398.250
  23936352.250
  20102733.750
  23898412.750
 23  2 21 21  0  6.0000000  0 06G01G07G14G17G19G30 0.30,21.0,3.85
  23814913.250
  20047821.250
  22928293.750
  23100589.750
  18593984.750
  23952718.250
 23  2 21 21 30  9.0000000  0 07G01G06G14G17G19G21G30 0.35,19.5,3.85
  17993713.250
  18622519.250
  22403509.250
  22519685.750
  23303123.250
  20979057.750
  18350399.750
 23  2 21 22  0 11.0000000  0 07G01G03G06G14G17G19G30 +0.400,19.0,3.85
  23280944.750
  23687685.250
  21750656.250
  20938814.250
  20919047.750
  21018114.750
  23743749.250
 23  2 21 22 30  6.0000000  0 06G03G06G14G17G19G30 0.53,18.5,3.85
  23502893.750
  20978529.750
  21571327.250
  21277956.750
  20755396.750
  19051560.750
 23  2 21 23  0  5.0000000  0 06G03G06G11G14G17G19 0.67,17.5,3.85
  22637143.750
  19458099.250
  22040916.250
  21392430.750
  20665447.750
  19602640.750
 23  2 21 23 30 11.0000000  0 07G03G06G11G14G17G19G20 +0.800,16.5,3.85
  18912453.250
  21026014.750
  22805857.250
  18184410.750
  22880922.250
  21367771.250
  19465027.250
 23  2 22  0  0  6.0000000  0 06G06G11G14G17G19G20 0.76,15.5,3.85
  22803947.250
  23702567.750
  21008336.250
  19066903.750
  23193642.250
  19858634.250
 23  2 22  0 30  6.0000000  0 06G06G11G12G17G19G20 0.72,15.5,3.85
  21683780.250
  21699673.250
  22625005.750
  18178006.750
  22035631.250
  23175042.250
 23  2 22  1  0  5.0000000  0 07G05G11G12G17G19G20G25 0.68,14.5,3.85
  22957805.750
  19804809.250
  20387708.250
  23230097.750
  20907200.250
  20536272.750
  21988941.750
 23  2 22  1 30  6.0000000  0 07G05G06G09G11G19G20G29 0.64,14.0,3.85
  19859154.250
  19480916.250
  21839437.750
  23982557.750
  19806569.250
  18018009.750
  22488278.250
 23  2 22  2  0  5.0000000  0 07G02G09G11G12G20G25G29 0.60,14.5,3.85
  19427003.250
  19827199.250
  22244284.750
  22697582.750
  21713163.250
  23154925.250
  19432374.750
 23  2 22  2 30 10.0000000  0 07G02G06G11G12G19G20G29 0.56,15.5,3.85
  23193057.250
  23587797.750
  21074184.250
  21804088.750
  18286769.250
  20166167.750
  22798116.750
 23  2 22  3  0  6.0000000  0 07G02G05G11G13G20G25G29 0.52,15.0,3.85
  20972638.250
  18466229.750
  19965166.250
  21993415.750
  18866830.250
  20545442.750
  20202231.250
 23  2 22  3 30  9.0000000  0 07G02G05G12G13G15G20G29 0.48,15.5,3.85
  18917860.750
  22875300.250
  20739436.250
  19368334.250
  20075689.750
  23919354.750
  23887963.750
 23  2 22  4  0 11.0000000  0 07G02G05G13G15G18G20G29 0.44,16.5,3.85
  23095362.250
  21779536.250
  23091753.250
  23478731.750
  19228518.250
  23320349.250
  22029498.250
 23  2 22  4 30  6.0000000  0 06G02G13G18G20G23G29 0.40,16.5,3.85
  21358355.250
  21123929.750
  22962706.250
  22817811.250
  18041003.750
  20528156.750
 23  2 22  5  0  8.0000000  0 07G02G05G15G18G20G23G29 0.36,17.0,3.85
  19958504.250
  20489240.750
  19213978.750
  20953142.750
  22588324.250
  21981294.250
  19646766.250
 23  2 22  5 30  9.0000000  0 06G02G13G15G18G23G29 0.32,17.0,3.85
  18734953.250
  18860878.750
  23746374.750
  19036661.750
  20065616.250
  19160169.750
 23  2 22  6  0  5.0000000  0 08G02G05G13G15G18G23G24G29 0.28,16.5,3.85
  23579722.750
  19771034.750
  18204949.250
  22563240.250
  23124971.750
  18144738.250
  20183909.750
  18842506.750
 23  2 22  6 30  9.0000000  0 07G10G13G15G18G23G24G27 0.24,16.5,3.85
  18778800.750
  23976891.250
  21886467.250
  21558359.750
  22467377.250
  23944552.750
  19295198.750
 23  2 22  7  0 12.0000000  0 05G02G15G24G27G32 +0.200,17.0,3.85
  21038361.250
  20282133.750
  20670402.250
  22347490.250
  23160462.750
 23  2 22  7 30 11.0000000  0 06G02G10G15G18G24G27 +0.600,17.0,3.85
  23637302.750
  22645190.750
  23003378.250
  21027135.250
  21841936.750
  23904411.250
 23  2 22  8  0  9.0000000  0 07G08G10G18G23G24G27G32 0.34,17.5,3.85
  22577484.250
  19328763.750
  18940451.750
  18405373.250
  19014686.750
  21428211.250
  20240926.750
 23  2 22  8 30 11.0000000  0 06G10G18G23G24G27G32 +0.080,17.0,3.85
  21311344.250
  22375659.250
  21018274.250
  21833233.750
  18483974.750
  22056408.250
 23  2 22  9  0  6.0000000  0 06G10G22G23G24G28G32 0.13,17.0,3.85
  22132243.750
  18219917.750
  22535031.750
  23746995.250
  19171326.750
  22776938.750
 23  2 22  9 30  5.0000000  0 06G10G21G22G23G31G32 0.17,18.0,3.85
  20895507.250
  18638326.250
  22518540.750
  22028667.250
  23742450.250
  21442103.250
 23  2 22 10  0  5.0000000  0 06G10G12G22G28G31G32 0.22,19.5,3.85
  20163294.250
  23535775.250
  21230371.250
  21114516.750
  21724368.250
  20538340.250
 23  2 22 10 30  7.0000000  0 07G10G21G22G25G28G31G32 0.26,19.5,3.85
  19818921.750
  22327400.750
  20176947.250
  21470034.250
  19682340.750
  20033522.250
  19885264.750
 23  2 22 11  0  5.0000000  0 07G10G21G22G25G28G31G32 0.31,20.0,3.85
  19739114.750
  21644467.250
  19208723.750
  20462589.250
  18539994.250
  18622221.250
  19333277.250
 23  2 22 11 30  8.0000000  0 07G10G21G22G26G28G31G32 0.35,20.0,3.85
  20077422.250
  21387717.250
  18489519.250
  20980225.250
  23866125.250
  23703375.750
  19053314.750
 23  2 22 12  0 11.0000000  0 07G01G03G22G26G28G31G32 +0.400,20.5,3.85
  21203723.250
  21025467.750
  18735410.250
  20042059.750
  18357108.250
  18002213.250
  19762974.750
 23  2 22 12 30 21.0000000  0 05G01G03G22G28G31 -0.400,20.5,3.85
  18177271.750
  22365579.750
  21139550.250
  21120915.750
  20639127.250
 23  2 22 13  0  9.0000000  0 08G03G22G25G26G28G29G31G32 -0.20,20.5,3.85
  23305507.250
  22987560.750
  20723671.750
  22220671.750
  23348823.750
  21072712.250
  22802871.250
  18981844.750
 23  2 22 13 30  8.0000000  0 08G03G04G16G22G26G28G31G32 0.00,20.5,3.85
  22396637.250
  23956760.750
  22848279.750
  22789422.750
  21271522.250
  23470033.750
  22906910.250
  19236501.750
 23  2 22 14  0  9.0000000  0 07G03G04G16G22G26G28G29 0.20,21.0,3.85
  21974818.250
  22437238.750
  21305992.250
  22856090.750
  20801377.250
  23729368.250
  19606039.750
 23  2 22 14 30 11.0000000  0 06G16G22G26G27G29G31 +0.400,21.0,3.85
  20447564.750
  23440250.750
  21028086.250
  23959202.250
  19756541.250
  23823627.750
 23  2 22 15  0  8.0000000  0 06G03G04G16G26G28G31 0.36,21.5,3.85
  22230326.750
  19874817.250
  19372606.750
  20913191.250
  18362955.750
  23855469.750
 23  2 22 15 30 10.0000000  0 07G04G08G09G16G26G27G31 0.32,22.5,3.85
  19081429.750
  21908451.750
  20574246.250
  19107384.250
  21398014.250
  20484278.250
  18305634.250
 23  2 22 16  0  9.0000000  0 07G04G07G08G09G16G26G27 0.28,22.0,3.85
  18593257.250
  21377211.250
  20218732.750
  19338628.750
  19131175.250
  21926390.750
  19309006.250
 23  2 22 16 30  5.0000000  0 06G04G07G08G09G16G27 0.24,22.0,3.85
  18377626.750
  19932143.750
  18663684.750
  18339752.250
  19297308.250
  18443891.750
 23  2 22 17  0 11.0000000  0 07G04G07G08G09G16G27G30 +0.200,24.5,3.85
  21799238.750
  21812596.750
  20740829.750
  21025813.750
  22906952.250
  21314599.750
  24593641.750
 23  2 22 17 30  5.0000000  0 06G04G07G08G09G16G30 0.20,25.0,3.85
  19060248.250
  23365244.750
  22809225.250
  23683617.750
  20156332.250
  19778950.750
 23  2 22 18  0 10.0000000  0 07G07G08G09G16G21G27G30 0.20,25.0,3.85
  22394905.750
  22614833.250
  18009960.250
  20737426.250
  18719049.250
  18663632.750
  18313526.250
 23  2 22 18 30 11.0000000  0 07G01G04G07G08G17G21G30 +0.200,24.0,3.85
  18295306.750
  19955925.250
  21026613.750
  22144082.750
  18693068.250
  22907537.750
  22319568.750
 23  2 22 19  0  9.0000000  0 07G01G07G08G14G17G21G30 0.20,24.5,3.85
  19293998.750
  23192262.250
  19169549.750
  18782864.750
  19680079.250
  18658963.250
  23757252.250
 23  2 22 19 30 10.0000000  0 04G01G07G17G30 +0.200,23.5,3.85
  21027194.250
  20207266.750
  21358070.250
  19985633.250
 23  2 22 20  0  5.0000000  0 08G01G07G08G13G14G17G21G30 -0.05,23.5,3.85
  20634109.250
  21058397.250
  18111646.250
  22734187.750
  20454712.750
  20785521.750
  21841589.250
  20072766.750
 23  2 22 20 30 10.0000000  0 07G01G07G08G13G14G17G30 -0.30,24.5,3.85
  20114641.250
  21624652.750
  18790750.750
  22512642.750
  19676560.250
  19894077.750
  19972584.250
 23  2 22 21  0  8.0000000  0 06G01G03G13G14G19G30 -0.55,23.5,3.85
  19938475.750
  23336358.750
  22495818.750
  18964424.750
  20522222.750
  20113407.250
 23  2 22 21 30 40.0000000  0 03G01G17G21 -0.800,17.5,3.85
  21383854.750
  19783717.250
  24406682.750
 23  2 22 22  0  5.0000000  0 06G01G06G14G17G19G30 -0.40,16.0,3.85
  19753827.250
  23932145.750
  23310060.250
  23262145.750
  23273626.250
  20222775.750
 23  2 22 22 30 14.0000000  0 06G03G06G14G17G19G24 +0.000,15.5,3.85
  23800068.750
  21186733.250
  21975367.250
  21629387.750
  21025469.250
  23758780.750
 23  2 22 23  0 16.0000000  0 06G03G06G12G14G19G24 -0.600,16.0,3.85
  18202784.250
  20922669.750
  19296597.250
  23039468.250
  21105883.750
  23898066.250
 23  2 22 23 30 14.0000000  0 06G11G12G14G17G19G20 +0.000,15.0,3.85
  20767097.750
  22405605.750
  22413750.250
  21026393.750
  19460441.750
  23366983.250
 23  2 23  0  0  6.0000000  0 07G06G11G12G14G20G24G25 0.00,15.0,3.85
  22801208.250
  23578903.250
  18855200.750
  21134160.750
  19652026.250
  20605730.750
  21176599.250
 23  2 23  0 30 10.0000000  0 07G06G11G12G17G19G20G25 0.00,15.0,3.85
  23725385.250
  23623499.750
  18498023.750
  20239573.750
  18074117.750
  19002403.250
  20492275.750
 23  2 23  1  0 32.0000000  0 02G06G17 0.00,15.0,3.85
  22307124.750
  18955594.750
 23  2 23  1 30 11.0000000  0 07G02G05G06G11G12G19G20 +0.000,13.5,3.85
  18662761.750
  22319068.250
  22213502.750
  20630767.250
  21027165.250
  22550035.750
  20574260.750
 23  2 23  2  0 12.0000000  0 06G05G06G12G19G20G29 -0.800,13.0,3.85
  22045465.750
  23762396.750
  22105290.750
  18245797.750
  21030852.750
  18613157.250
 23  2 23  2 30 16.0000000  0 06G02G05G11G12G20G29 -0.200,14.0,3.85
  18032431.250
  21351361.750
  22060891.750
  22844837.250
  21115427.250
  23573218.250
 23  2 23  3  0 11.0000000  0 05G05G06G11G20G29 +0.000,14.0,3.85
  21027610.750
  19537483.750
  22637429.750
  21524480.750
  22668422.750
 23  2 23  3 30  8.0000000  0 07G02G11G12G13G15G25G29 -0.28,14.0,3.85
  23301986.250
  23613304.250
  19353032.250
  23680421.250
  18355137.250
  18383505.250
  22253728.750
 23  2 23  4  0 11.0000000  0 07G02G05G13G15G18G20G29 -0.560,14.5,3.85
  20734415.750
  19532785.250
  20683423.250
  21018324.250
  22798016.750
  21125644.750
  19682107.250
 23  2 23  4 30 16.0000000  0 07G02G05G11G15G18G23G29 +0.000,15.0,3.85
  19591561.250
  19301980.250
  22299607.750
  19235767.750
  21116422.250
  22176655.750
  18818053.250
 23  2 23  5  0 11.0000000  0 05G02G05G13G15G18 -0.200,15.0,3.85
  21025071.250
  21687904.250
  20866154.250
  20233504.750
  21930835.750
 23  2 23  5 30 11.0000000  0 05G05G15G18G23G29 -0.200,15.0,3.85
  22374007.750
  19822462.750
  21025037.250
  22052361.250
  21361675.750
 23  2 23  6  0 16.0000000  0 05G02G13G15G18G29 -0.400,15.5,3.85
  21675331.750
  22375278.250
  20667855.250
  21111273.750
  23055270.250
 23  2 23  6 30 10.0000000  0 07G02G10G15G18G23G27G29 -0.30,15.5,3.85
  18680590.250
  20481587.750
  23787167.250
  23334626.750
  18220556.750
  21009069.250
  20830863.750
 23  2 23  7  0 11.0000000  0 05G10G18G23G27G29 -0.200,15.0,3.85
  21026289.750
  18574250.250
  19155309.250
  21806562.250
  23376816.250
 23  2 23  7 30 11.0000000  0 05G08G10G15G23G27 -0.200,15.0,3.85
  22664382.250
  19670438.750
  20263913.750
  18270811.250
  21026785.250
 23  2 23  8  0 14.0000000  0 07G02G08G10G15G23G27G32 -0.720,15.0,3.85
  21018233.750
  21410657.250
  18102935.250
  20433788.250
  25650283.250
  20339667.250
  18987480.250
 23  2 23  8 30 14.0000000  0 07G08G10G18G23G24G28G32 -0.720,14.5,3.85
  21018242.750
  23145100.250
  18422613.250
  25337234.750
  26197738.250
  20974785.250
  23874669.250
 23  2 23  9  0 11.0000000  0 06G10G18G22G24G28G32 -0.200,14.0,3.85
  21027167.750
  23846412.750
  23047265.750
  22807134.250
  23924015.750
  21660867.750
 23  2 23  9 30 11.0000000  0 05G10G21G22G23G32 -0.200,14.0,3.85
  21027489.250
  24679940.750
  22578122.750
  22262864.250
  21557249.250
 23  2 23 10  0  5.0000000  0 08G10G12G22G23G25G28G31G32 -0.27,13.5,3.85
  23062410.750
  20362649.250
  18046115.750
  19002403.250
  19563790.750
  23864687.250
  18446694.750
  23405503.250
 23  2 23 10 30  6.0000000  0 06G10G12G22G25G31G32 -0.33,14.5,3.85
  21428073.750
  18204008.750
  21676014.250
  22947853.250
  21460109.250
  21440783.250
 23  2 23 11  0 14.0000000  0 05G01G25G28G31G32 -0.400,16.0,3.85
  23640774.250
  22924309.250
  20978504.750
  21024416.750
  21839046.250
 23  2 23 11 30  6.0000000  0 06G03G10G22G25G28G31 -0.45,15.5,3.85
  21365811.750
  19841390.750
  18102015.750
  19676610.750
  23501012.250
  23308970.750
 23  2 23 12  0  9.0000000  0 08G01G12G21G22G25G26G28G31 -0.50,16.5,3.85
  19339653.750
  21499443.250
  20354703.250
  22799430.750
  18975667.250
  23947845.250
  22464222.250
  22088229.250
 23  2 23 12 30 11.0000000  0 06G03G22G25G28G31G32 -0.55,15.5,3.85
  18803829.750
  23702195.250
  20679653.250
  23733824.250
  23239835.750
  19278843.250
 23  2 23 13  0 17.0000000  0 05G03G22G26G28G31 -0.600,15.5,3.85
  22185390.750
  21981034.250
  21093399.750
  22392294.750
  21840744.750
 23  2 23 13 30 11.0000000  0 05G03G04G26G29G31 -0.400,16.5,3.85
  21026047.750
  22456208.750
  19894676.250
  18754230.750
  21651905.750
 23  2 23 14  0 17.0000000  0 06G03G16G22G26G28G31 -0.400,17.5,3.85
  19753289.750
  18918749.250
  20688421.750
  18572443.250
  21575455.750
  21026676.250
 23  2 23 14 30  5.0000000  0 07G03G04G16G26G27G28G31 -0.40,18.0,3.85
  23430522.750
  22338910.250
  21463721.750
  22183213.250
  18871823.250
  19539296.750
  19015196.250
 23  2 23 15  0 12.0000000  0 05G04G09G16G26G31 -0.400,21.5,3.85
  19801651.250
  21853906.250
  19368668.750
  21027827.750
  23972331.250
 23  2 23 15 30 22.0000000  0 05G04G07G09G16G27 -1.200,22.0,3.85
  19833970.750
  23381211.750
  21225415.750
  19939044.250
  21139317.750
 23  2 23 16  0 11.0000000  0 05G04G07G09G16G27 -0.400,22.0,3.85
  20389074.250
  23023070.250
  21027373.250
  20993320.250
  21012089.250
 23  2 23 16 30 11.0000000  0 06G04G07G08G09G16G27 -0.600,22.0,3.85
  21040982.750
  22396421.250
  21137189.250
  20896707.750
  22004748.750
  21024401.250
 23  2 23 17  0 13.0000000  0 05G04G07G08G09G16 -0.400,22.5,3.85
  21928787.750
  21714271.250
  20696446.750
  21065132.750
  23052512.250
 23  2 23 17 30 11.0000000  0 05G04G07G08G27G30 -0.600,23.5,3.85
  20609413.250
  18676529.250
  18216449.750
  19677262.250
  21024811.750
 23  2 23 18  0 10.0000000  0 07G07G08G09G16G21G27G30 -0.70,23.5,3.85
  23793257.250
  18136144.250
  19588481.250
  22333766.750
  20058015.250
  20262643.750
  19634268.750
 23  2 23 18 30 17.0000000  0 07G07G08G09G14G21G27G30 -0.800,26.0,3.85
  18882427.750
  20125134.250
  21954240.750
  21127858.250
  20702514.250
  22755421.250
  20078372.750
 23  2 23 19  0 11.0000000  0 05G07G13G14G21G30 -0.600,23.5,3.85
  20568344.750
  23932790.750
  22031796.250
  21975425.250
  21025536.750
 23  2 23 19 30  9.0000000  0 07G01G07G08G14G17G21G30 -0.80,22.0,3.85
  19146837.750
  18502246.750
  21219470.250
  18945621.750
  19464039.250
  19547005.750
  18171910.750
 23  2 23 20  0  5.0000000  0 07G01G13G14G17G19G21G30 -1.00,22.5,3.85
  18089066.250
  20235233.250
  23888340.750
  18203504.250
  20794372.750
  19418805.750
  23585276.750
 23  2 23 20 30  6.0000000  0 06G01G07G14G17G21G30 -1.20,21.5,3.85
  21475375.250
  23114367.250
  20979748.750
  21189211.250
  23613585.250
  21382410.250
 23  2 23 21  0 15.0000000  0 04G07G13G19G30 -1.400,19.0,3.85
  23295238.250
  23442673.250
  21261982.750
  21087907.250
 23  2 23 21 30  6.0000000  0 07G01G03G06G14G17G19G21 -1.30,18.0,3.85
  23316183.250
  18919111.750
  23362102.750
  21524147.250
  21614083.750
  22205889.750
  20367954.750
 23  2 23 22  0  8.0000000  0 07G01G03G06G14G17G19G30 -1.20,18.5,3.85
  23439700.250
  23417888.750
  21327105.250
  20901325.250
  20821237.750
  20743500.750
  23913989.250
 23  2 23 22 30 11.0000000  0 06G03G06G14G17G19G24 -1.10,15.0,3.85
  19914256.250
  23211539.250
  18189084.750
  23785893.750
  23106411.750
  19840742.250
 23  2 23 23  0  7.0000000  0 07G03G06G11G14G17G19G24 -1.00,14.5,3.85
  18281230.250
  20911268.250
  23293752.250
  23193786.250
  22319686.750
  21127113.750
  23942614.750
 23  2 23 23 30 10.0000000  0 06G06G11G12G14G17G19 -0.90,11.0,3.85
  18483156.250
  20031080.250
  21623779.750
  21939991.250
  20466554.750
  18851240.750
 23  2 24  0  0 11.0000000  0 06G06G11G12G17G19G20 -0.800,10.5,3.85
  21025338.250
  21679060.250
  22893456.250
  23357320.750
  21410675.750
  23660240.750
 23  2 24  0 30 11.0000000  0 05G11G12G17G19G20 -0.800,10.5,3.85
  21025168.250
  21842699.750
  23770763.750
  21579986.250
  22299713.750
 23  2 24  1  0 12.0000000  0 05G06G11G12G19G20 -0.800,10.5,3.85
  22046296.250
  21043646.250
  21555378.250
  22350468.250
  21574402.750
 23  2 24  1 30 11.0000000  0 05G05G06G12G20G25 -0.800,9.5,3.85
  21246185.250
  21404194.250
  20130327.250
  19597744.750
  21025467.750
 23  2 24  2  0  8.0000000  0 08G02G05G11G12G19G20G25G29 -0.87,9.5,3.85
  23751058.250
  21109979.250
  20853945.750
  21362025.750
  23564995.750
  20200487.250
  21659804.750
  23641228.250
 23  2 24  2 30 10.0000000  0 06G05G06G11G12G20G29 -0.95,8.5,3.85
  23139721.250
  20608811.250
  17987664.250
  18826089.750
  23005810.250
  19298561.750
 23  2 24  3  0  6.0000000  0 08G02G05G06G11G12G20G25G29 -1.02,7.0,3.85
  20205972.750
  23792406.250
  22442507.250
  19507366.750
  20813042.250
  18382844.250
  20114770.750
  19343195.750
 23  2 24  3 30  6.0000000  0 07G02G05G11G12G13G20G29 -1.10,5.5,3.85
  20346782.750
  18481194.250
  20816614.750
  22617644.750
  20656494.250
  19670077.250
  19280546.750
 23  2 24  4  0  6.0000000  0 06G02G05G15G18G20G29 -1.17,6.0,3.85
  19968872.750
  18882644.750
  20158025.750
  21966656.250
  20523727.250
  18935263.750
 23  2 24  4 30  5.0000000  0 08G02G05G11G13G15G20G29G30 -1.25,5.0,3.85
  19218067.250
  19053778.750
  22078416.250
  18967472.750
  18793084.250
  20999528.750
  18501751.750
  23852854.750
 23  2 24  5  0  6.0000000  0 06G02G05G13G15G18G29 -1.32,5.5,3.85
  19340513.250
  20129899.750
  19214053.250
  18508008.750
  20158402.750
  19213186.250
 23  2 24  5 30 15.0000000  0 06G02G05G13G15G18G29 -1.400,4.5,3.85
  22099444.750
  23765401.750
  22348648.250
  21087862.750
  22200579.250
  22755156.250
 23  2 24  6  0  6.0000000  0 06G02G13G15G18G23G29 -1.37,4.0,3.85
  18673981.250
  19447122.750
  23672829.250
  18008853.250
  19004647.250
  20164493.250
 23  2 24  6 30  6.0000000  0 06G02G05G13G15G18G24 -1.34,3.5,3.85
  18211191.750
  21047368.750
  19537755.250
  23338517.250
  22763875.750
  18951787.750
 23  2 24  7  0  6.0000000  0 07G02G10G15G18G23G24G27 -1.30,4.0,3.85
  18141024.750
  18317388.250
  23420381.250
  21975108.250
  22499603.250
  23372380.250
  19154899.750
 23  2 24  7 30  8.0000000  0 07G02G10G18G23G24G27G32 -1.27,6.0,3.85
  18500974.750
  23058575.750
  21745612.250
  21728486.750
  22351909.750
  18520404.750
  18161492.750
 23  2 24  8  0 11.0000000  0 06G02G10G18G23G24G32 -1.240,3.5,3.85
  18927440.750
  21778029.250
  21766956.250
  21018383.250
  21659744.250
  22637682.250
 23  2 24  8 30  8.0000000  0 08G08G10G18G22G24G27G28G32 -1.22,1.5,3.85
  23977202.750
  20019112.250
  21496510.750
  22406188.750
  20817300.750
  23497591.250
  23726462.750
  20734686.250
 23  2 24  9  0  5.0000000  0 07G10G22G23G24G28G31G32 -1.20,1.5,3.85
  22882121.250
  18844545.250
  23483066.250
  18825910.750
  19650160.750
  20595274.250
  23504761.250
 23  2 24  9 30  8.0000000  0 06G10G22G23G25G31G32 -1.18,2.5,3.85
  20462153.250
  21940325.750
  21796045.750
  23776604.750
  22966282.750
  20973478.750
 23  2 24 10  0 10.0000000  0 06G10G22G25G28G31G32 -1.16,3.0,3.85
  19148439.750
  20034456.750
  21510445.750
  19798220.250
  20342533.250
  19455268.750
 23  2 24 10 30  5.0000000  0 06G01G10G25G28G31G32 -1.14,2.0,3.85
  19879676.250
  23634045.250
  19027695.250
  23203644.750
  23483076.250
  23589121.250
 23  2 24 11  0  5.0000000  0 07G01G10G12G22G28G31G32 -1.12,1.0,3.85
  22988173.750
  21803651.750
  18097835.250
  20999877.750
  20322868.750
  20335569.250
  21242323.750
 23  2 24 11 30  8.0000000  0 08G01G03G10G21G22G28G31G32 -1.10,1.0,3.85
  20079151.750
  21021221.750
  19807524.750
  20957943.250
  23906938.750
  23336435.750
  23115532.750
  18597677.250
 23  2 24 12  0  5.0000000  0 07G01G10G22G26G28G31G32 -1.08,1.0,3.85
  23529789.750
  17994509.250
  20924589.750
  21917636.750
  20633936.250
  20237982.750
  22077608.750
 23  2 24 12 30  8.0000000  0 07G01G03G22G26G28G31G32 -1.06,0.5,3.85
  21051543.250
  18824035.750
  23853639.250
  23763650.250
  23936779.750
  23431192.750
  19493766.750
 23  2 24 13  0  5.0000000  0 06G03G04G22G26G31G32 -1.04,0.5,3.85
  21497917.250
  23633323.750
  21396067.250
  20400646.250
  21295245.250
  23507139.750
 23  2 24 13 30  6.0000000  0 06G03G04G22G26G28G31 -1.02,0.5,3.85
  23920191.250
  19222067.750
  18475466.250
  22783582.250
  19220418.250
  18656688.250
 23  2 24 14  0 12.0000000  0 04G03G22G26G31 -1.000,0.5,3.85
  20054980.750
  21039457.750
  18867518.750
  21389080.250
 23  2 24 14 30 12.0000000  0 07G04G09G16G22G26G27G31 -1.400,1.5,3.85
  18526166.750
  21030652.750
  23697531.250
  21054024.250
  18564781.250
  20985204.750
  21422327.250
 23  2 24 15  0  6.0000000  0 06G03G04G09G16G26G27 -1.00,3.0,3.85
  22563843.750
  19825573.250
  21797075.750
  19461556.250
  21229776.250
  21709851.750
 23  2 24 15 30 15.0000000  0 06G03G04G08G16G26G27 -0.600,7.0,3.85
  18954342.750
  20922480.750
  23439210.750
  21101249.250
  23553657.250
  22137359.250
 23  2 24 16  0 11.0000000  0 05G04G07G08G09G16 -0.600,14.0,3.85
  20360435.250
  22837908.750
  21627477.250
  20891360.250
  21027759.750
 23  2 24 16 30 10.0000000  0 06G04G08G09G16G27G30 -0.63,10.5,3.85
  20083787.750
  19996203.750
  19836716.750
  21086381.750
  19988872.750
  18231775.750
 23  2 24 17  0  6.0000000  0 06G04G07G08G09G16G27 -0.67,7.0,3.85
  23082188.750
  22644340.250
  21685232.250
  22133617.250
  18221584.750
  22476083.750
 23  2 24 17 30  5.0000000  0 07G07G08G09G14G21G27G30 -0.70,9.0,3.85
  23467592.250
  23103867.750
  18132431.250
  20658945.750
  20101333.250
  18665365.250
  19758889.250
 23  2 24 18  0  6.0000000  0 07G01G04G09G14G21G27G30 -0.73,13.5,3.85
  23800611.750
  23652429.750
  21781060.250
  22565145.750
  22014790.750
  22474359.750
  21569773.250
 23  2 24 18 30  6.0000000  0 07G07G08G09G13G14G17G30 -0.77,13.0,3.85
  23794622.750
  19157214.750
  21024543.750
  21968345.750
  19954284.750
  21164053.250
  18901741.250
 23  2 24 19  0 11.0000000  0 04G07G08G21G30 -0.800,10.0,3.85
  21025001.750
  23203696.250
  22377892.750
  21373937.750
 23  2 24 19 30 11.0000000  0 05G01G07G17G21G30 -0.800,11.0,3.85
  21024656.750
  20557900.750
  21325025.750
  21555377.250
  20117171.250
 23  2 24 20  0  5.0000000  0 06G01G07G14G17G21G30 -0.80,12.0,3.85
  21909639.750
  22655445.750
  21689845.750
  21982987.250
  23359547.250
  21470540.250
 23  2 24 20 30 10.0000000  0 06G01G07G14G17G21G30 -0.80,10.5,3.85
  18956112.750
  20723551.250
  18395582.750
  18597624.750
  21190382.250
  18912144.750
 23  2 24 21  0  7.0000000  0 08G01G03G07G13G14G17G21G30 -0.80,12.0,3.85
  23272857.750
  20264855.750
  19777036.250
  19846837.750
  22115605.250
  22270589.250
  20060635.250
  23515402.250
 23  2 24 21 30  6.0000000  0 07G01G03G14G17G19G21G30 -0.80,13.5,3.85
  21189318.750
  22562439.750
  19292758.750
  19366642.750
  19863051.750
  18265700.750
  21603804.750
 23  2 24 22  0  6.0000000  0 06G01G03G11G14G17G19 -0.80,12.5,3.85
  20006019.750
  19775087.250
  21115263.250
  23368467.750
  23254044.250
  23090068.250
 23  2 24 22 30  6.0000000  0 06G03G06G14G17G19G24 -0.80,11.0,3.85
  23037852.250
  20253478.750
  21409352.250
  20954294.750
  20201292.750
  22931858.250
 23  2 24 23  0 16.0000000  0 04G03G06G17G19 -0.80,10.0,3.85
  20132307.750
  22665164.750
  18173557.250
  22912683.750
 23  2 24 23 30  5.0000000  0 07G03G06G11G12G14G17G19 -0.80,10.5,3.85
  23038022.750
  18871735.250
  20303843.750
  21848067.250
  22472862.250
  20911567.750
  19248786.250
 23  2 25  0  0 17.0000000  0 07G06G11G12G17G19G20G25 -0.800,9.0,3.85
  18681309.750
  19211324.750
  20366953.750
  21045646.250
  19062377.250
  21101754.250
  22621215.750
 23  2 25  0 30 18.0000000  0 06G06G12G17G19G20G25 -0.80,7.0,3.85
  23210183.250
  23642356.250
  19760129.250
  23541046.750
  18052459.250
  19534231.250
 23  2 25  1  0 19.0000000  0 05G06G11G12G19G20 -0.800,7.0,3.85
  21699482.250
  20595115.750
  21076674.750
  22004772.750
  21026290.750
 23  2 25  1 30  5.0000000  0 06G05G09G11G12G20G25 -1.10,7.5,3.85
  20020236.750
  22404552.250
  18684700.750
  19079674.250
  18467501.750
  19897314.750
 23  2 25  2  0 18.0000000  0 07G02G05G06G11G20G25G29 -1.400,7.5,3.85
  21051755.250
  18389455.750
  20273444.250
  18302091.250
  23587009.750
  19061672.750
  20880983.250
 23  2 25  2 30 10.0000000  0 06G05G06G11G12G20G25 -1.34,6.0,3.85
  20888207.750
  18541580.250
  21865083.250
  22762842.250
  20857558.750
  22439759.750
 23  2 25  3  0  5.0000000  0 06G02G05G12G13G15G20 -1.29,7.5,3.85
  23724685.750
  21372522.250
  18561389.750
  18509320.250
  19354752.250
  22047353.250
 23  2 25  3 30  9.0000000  0 07G02G05G11G12G15G20G25 -1.23,9.5,3.85
  19358207.750
  23584103.750
  19990767.250
  21857422.750
  20190814.250
  18846154.750
  20820289.750
 23  2 25  4  0 10.0000000  0 07G02G05G11G13G15G20G29 -1.17,10.0,3.85
  21766706.250
  20803273.750
  23597284.750
  21636174.750
  21860156.750
  22491382.250
  20758518.750
 23  2 25  4 30  6.0000000  0 08G02G05G11G13G15G18G20G29 -1.11,8.0,3.85
  23452956.750
  23421649.750
  20477504.750
  23202518.750
  22958482.250
  18827304.250
  19398569.750
  22802323.750
 23  2 25  5  0  9.0000000  0 08G02G05G13G15G18G20G23G29 -1.06,7.5,3.85
  18671333.250
  19590539.750
  18583374.750
  23796446.750
  19396556.250
  21731133.250
  20414806.250
  18643953.250
 23  2 25  5 30 14.0000000  0 05G02G10G16G18G23 -1.000,8.0,3.85
  21041533.250
  18827501.250
  19675372.250
  21041570.750
  22064661.250
 23  2 25  6  0  5.0000000  0 07G02G10G13G15G18G23G27 -1.00,11.0,3.85
  22525328.750
  19241510.750
  23375512.250
  21541452.250
  21754782.250
  22737882.750
  19762421.250
 23  2 25  6 30  5.0000000  0 06G02G10G15G18G23G27 -1.00,9.0,3.85
  19742494.750
  21180872.250
  18895795.750
  18197642.750
  19015719.750
  21745244.750
 23  2 25  7  0 19.0000000  0 06G02G10G18G23G24G27 -1.000,8.5,3.85
  23279576.750
  23233930.750
  21024507.750
  21484038.750
  22306630.250
  18144058.250
 23  2 25  7 30 15.0000000  0 07G02G08G10G18G24G27G32 -1.00,8.5,3.85
  19591719.250
  20970860.250
  23914742.750
  22768253.250
  23268963.750
  19488143.250
  18978622.250
 23  2 25  8  0 11.0000000  0 07G02G08G10G18G23G27G32 -1.00,9.0,3.85
  22429571.250
  22487967.750
  19051905.250
  19234646.250
  18376509.750
  21567576.750
  19887581.250
 23  2 25  8 30 14.0000000  0 06G08G10G18G22G27G32 -1.000,8.5,3.85
  22755607.750
  18700635.750
  20393360.250
  21024504.250
  22340446.750
  19402038.250
 23  2 25  9  0 11.0000000  0 08G10G21G22G23G24G28G31G32 -1.00,11.0,3.85
  22695686.750
  20794053.250
  18592173.750
  23399240.750
  18809141.250
  19321421.750
  20248656.250
  23306204.750
 23  2 25  9 30 13.0000000  0 07G10G22G23G25G28G31G32 -1.000,8.0,3.85
  19445911.750
  20847286.750
  20880919.750
  22633513.750
  21024843.250
  21772214.250
  19936552.750
 23  2 25 10  0  5.0000000  0 06G10G21G22G28G31G32 -1.00,7.0,3.85
  20294494.250
  23163956.750
  21088225.250
  20797684.250
  21308967.250
  20564194.750
 23  2 25 10 30  8.0000000  0 08G10G12G21G22G25G28G31G32 -1.00,7.5,3.85
  21961817.750
  18610958.250
  18225728.250
  21975450.250
  23219951.250
  21383031.750
  21625624.250
  21855747.250
 23  2 25 11  0  6.0000000  0 06G01G10G21G28G31G32 -1.00,8.5,3.85
  19230793.750
  18180445.750
  19842233.750
  22556202.250
  22534607.250
  23533326.750
 23  2 25 11 30 10.0000000  0 06G10G22G26G28G31G32 -1.00,9.5,3.85
  21280837.750
  19226884.250
  21228065.750
  18685951.250
  18437103.750
  19975927.250
 23  2 25 12  0  5.0000000  0 06G01G03G22G26G28G31 -1.00,9.5,3.85
  18226509.750
  23394459.250
  21543769.750
  22379926.750
  21300156.750
  20885045.750
 23  2 25 12 30  8.0000000  0 07G03G04G16G26G28G31G32 -1.00,9.5,3.85
  19008154.250
  21559887.250
  20865299.250
  23939835.250
  18306711.750
  23786301.750
  19871001.750
 23  2 25 13  0 14.0000000  0 04G22G26G28G31 -1.00,8.0,3.85
  20336981.250
  19228148.750
  20838995.250
  20278828.750
 23  2 25 13 30 20.0000000  0 07G03G04G16G22G26G28G31 -1.000,11.0,3.85
  19641195.250
  20788819.750
  19629720.250
  20269950.750
  18498189.750
  21045031.250
  20481721.250
 23  2 25 14  0 20.0000000  0 05G03G16G22G28G31 -1.800,11.0,3.85
  21030037.250
  19875291.750
  22062031.750
  22965589.250
  22421241.250
 23  2 25 14 30  6.0000000  0 07G03G04G07G09G16G29G31 -1.65,10.0,3.85
  23052320.750
  21564256.750
  19877647.750
  18009294.750
  20791149.250
  20495716.750
  18672691.250
 23  2 25 15  0 16.0000000  0 07G03G04G07G08G09G16G27 -1.50,13.5,3.85
  21351494.250
  18417853.250
  22398983.250
  21838903.250
  20300823.750
  18129191.250
  20211375.750
 23  2 25 15 30  5.0000000  0 06G03G04G08G09G16G27 -1.35,12.5,3.85
  19901841.750
  21726232.250
  18093981.250
  22924370.250
  21976759.750
  22851545.250
 23  2 25 16  0 20.0000000  0 05G04G07G09G16G27 -1.200,13.0,3.85
  20601523.750
  22910717.750
  21021511.250
  21331331.750
  21041096.250
 23  2 25 16 30  6.0000000  0 06G04G07G08G09G16G27 -1.20,14.0,3.85
  23881774.750
  18839343.250
  23613291.750
  23534901.250
  18923602.250
  23711722.250
 23  2 25 17  0  8.0000000  0 06G04G07G08G09G14G27 -1.20,14.0,3.85
  22780409.250
  22108851.250
  21215906.250
  21746719.250
  19597640.750
  22116720.250
 23  2 25 17 30  8.0000000  0 07G04G07G08G09G14G21G30 -1.20,17.5,3.85
  22414308.250
  20012469.250
  19752601.250
  20850274.250
  23147430.750
  22586502.750
  22233804.250
 23  2 25 18  0 14.0000000  0 06G07G08G09G14G21G30 -1.20,19.5,3.85
  18816527.750
  19400664.750
  20969739.250
  21496471.250
  20956864.250
  20488114.250
 23  2 25 18 30  6.0000000  0 06G07G08G09G14G17G21 -1.20,18.0,3.85
  23594186.750
  19076403.750
  20980374.250
  19655565.250
  20807552.750
  19302973.250
 23  2 25 19  0  7.0000000  0 06G01G07G13G14G17G30 -1.20,17.5,3.85
  18388175.750
  22804529.750
  19916016.250
  18016108.250
  18766791.750
  23046457.750
 23  2 25 19 30 11.0000000  0 06G01G07G13G17G21G30 -1.20,23.5,3.85
  19151873.750
  18859612.250
  21040787.750
  19432576.250
  19811712.750
  18310678.250
 23  2 25 20  0 10.0000000  0 06G01G07G13G17G19G30 -1.20,19.5,3.85
  18205166.250
  19109327.750
  20439244.250
  18232324.250
  20658142.750
  23822074.750
 23  2 25 20 30 11.0000000  0 06G13G14G17G19G21G30 -1.20,22.5,3.85
  20288353.250
  23172620.750
  23367921.250
  19161647.750
  20131181.750
  23804245.250
 23  2 25 21  0 12.0000000  0 06G01G13G14G17G19G30 -1.20,22.5,3.85
  23852858.250
  20427367.750
  22597447.750
  22745254.250
  23840526.750
  18130497.250
 23  2 25 21 30  7.0000000  0 06G01G03G06G14G17G30 -1.20,19.0,3.85
  21970773.250
  23117745.250
  21421877.750
  19969227.250
  20025003.250
  22400352.250
 23  2 25 22  0  5.0000000  0 08G01G03G06G11G17G19G24G30 -1.20,19.5,3.85
  22215424.250
  21778941.750
  19529432.750
  22985571.750
  19337375.750
  19088461.750
  21887545.750
  22693583.250
 23  2 25 22 30 11.0000000  0 04G03G17G19G24 -1.200,17.5,3.85
  23902295.250
  21855138.250
  21027414.750
  23762140.250
 23  2 25 23  0  7.0000000  0 07G03G06G11G12G14G19G24 -0.85,16.0,3.85
  20073258.250
  22515502.250
  18690850.250
  20489271.750
  19138255.250
  22789583.250
  19667730.250
 23  2 25 23 30  6.0000000  0 08G03G11G12G14G17G19G20G24 -0.50,13.5,3.85
  18937340.750
  21983606.750
  23476994.250
  18420710.750
  22765136.250
  21055587.750
  18401140.750
  18242770.250
 23  2 26  0  0 11.0000000  0 05G06G12G17G19G20 16.08000,12.5,3.85
  18240826.750
  22146194.250
  23025942.750
  21009743.250
  22848138.250
 23  2 26  0 30  6.0000000  0 06G05G06G11G12G19G20 0.20,11.0,3.85
  19804959.750
  22540055.750
  22107625.250
  22829767.250
  22865647.250
  23189998.250
 23  2 26  1  0 10.0000000  0 07G02G06G11G12G19G20G25 0.55,11.5,3.85
  23645014.250
  20258366.250
  19066921.750
  19525555.750
  20566304.750
  19412931.250
  20853750.750
 23  2 26  1 30 12.0000000  0 06G02G11G12G19G20G25 0.9002,11.0,3.85
  18682025.250
  21034802.750
  21436005.250
  23241165.250
  20743476.750
  22176124.750
 23  2 26  2  0 11.0000000  0 07G02G05G06G11G20G25G29 -16.40000,10.5,3.85
  18406923.250
  21726085.750
  18116611.250
  21783055.250
  21025116.750
  22506690.250
  18181800.250
 23  2 26  2 30 11.0000000  0 06G05G06G11G20G25G29 +1.600,10.5,3.85
  20952963.750
  18786682.750
  22059982.250
  21025410.250
  22629985.250
  22954612.750
 23  2 26  3  0  5.0000000  0 06G02G05G11G13G20G25 1.60,9.5,3.85
  20528678.750
  18240224.750
  20143752.750
  21229411.750
  19001906.750
  20791490.750
 23  2 26  3 30  6.0000000  0 07G02G05G11G12G13G20G29 1.60,9.0,3.85
  22412635.750
  20741439.750
  23205903.250
  19139832.750
  22592088.250
  22063956.250
  21324667.750
 23  2 26  4  0  5.0000000  0 07G02G05G11G13G15G18G20 1.60,9.5,3.85
  23956160.250
  23114778.750
  19951505.750
  23793091.750
  23959449.250
  19818952.250
  18849556.750
 23  2 26  4 30  8.0000000  0 08G02G05G11G13G18G20G23G29 1.60,7.5,3.85
  19477420.250
  19581192.250
  22659271.750
  19232775.250
  20764580.250
  21578884.750
  21795036.250
  18899263.750
 23  2 26  5  0  5.0000000  0 06G02G13G15G18G23G29 1.60,10.0,3.85
  21074072.250
  21028434.750
  20170297.250
  21706731.250
  22723676.750
  21148854.750
 23  2 26  5 30  5.0000000  0 06G02G05G13G15G23G29 1.60,9.0,3.85
  23001903.250
  18885079.250
  23383374.750
  21978269.750
  23922745.750
  23888195.250
 23  2 26  6  0 10.0000000  0 07G02G05G13G15G18G23G29 1.60,7.5,3.85
  18863823.250
  21387502.750
  19793588.250
  23891128.750
  23979658.750
  18951736.250
  20583645.750
 23  2 26  6 30  5.0000000  0 06G02G05G10G15G23G24 1.60,8.0,3.85
  20796248.250
  23725119.250
