     2.00           OBSERVATION DATA    G(GPS)              RINEX VERSION / TYPE
goGPS-java                              23-Apr-24 09:28:05  PGM / RUN BY / DATE
                                                            MARKER NAME
                                                            MARKER NUMBER
                    Lotek Wireless Inc.                     OBSERVER / AGENCY
7                                                           REC # / TYPE / VERS
                                                            ANT # / TYPE
   119356.0000 -4924509.0000  4038031.0000                  APPROX POSITION XYZ
        0.0000        0.0000        0.0000                  ANTENNA: DELTA H / E / N
     2     0                                                WAVELENGTH FACT L1/2
     1    C1                                                # / TYPES OF OBSERV
  2023     2     9    19    57   10.0000000     UTC         TIME OF FIRST OBS
                                                            END OF HEADER
 23  2 10  0  0 11.0000000  0 06G03G06G12G17G19G24 +1.600,17.0,3.85
  18471760.250
  21026374.750
  25169608.750
  22507521.750
  21251699.750
  24079271.750
 23  2 10  0 30 11.0000000  0 05G06G11G12G19G24 +1.600,17.0,3.85
  21026106.250
  22474178.250
  24054420.750
  21392562.750
  24510192.250
 23  2 10  1  0  8.0000000  0 07G03G06G11G12G17G19G25 1.40,16.5,3.85
  23420088.750
  18543299.250
  19110440.250
  20304626.250
  20934325.750
  18921726.750
  22498846.750
 23  2 10  1 30 19.0000000  0 07G04G09G11G12G19G20G25 +1.200,16.0,3.85
  25449958.750
  24910213.250
  20365857.750
  21161037.250
  20989692.250
  21560140.750
  23001518.750
 23  2 10  2  0 10.0000000  0 07G05G06G11G12G19G20G25 1.27,15.0,3.85
  18233313.750
  22559322.750
  21501450.750
  21999897.750
  22862236.250
  21956508.250
  23368604.750
 23  2 10  2 30  8.0000000  0 06G05G11G12G19G20G25 1.35,13.5,3.85
  22938049.750
  21515162.250
  21906989.750
  23573212.750
  21314946.750
  22715997.250
 23  2 10  3  0  7.0000000  0 06G05G11G19G20G25G29 1.42,12.5,3.85
  21412902.250
  21248306.750
  17995996.750
  20554286.750
  21997405.250
  23942013.250
 23  2 10  3 30  9.0000000  0 06G02G05G11G12G25G29 1.50,12.5,3.85
  22648724.750
  20018763.750
  20950194.750
  21809479.750
  21510148.750
  22152642.250
 23  2 10  4  0  8.0000000  0 08G02G05G12G13G15G20G25G29 1.57,11.5,3.85
  19262982.750
  22901450.750
  20026485.250
  20088213.250
  20937410.750
  20871264.750
  19307736.750
  18415788.750
 23  2 10  4 30  6.0000000  0 06G02G05G11G12G15G18 1.65,11.0,3.85
  19279795.750
  23474114.250
  19887452.750
  21702280.250
  20161018.250
  21685132.750
 23  2 10  5  0  6.0000000  0 07G02G05G11G15G18G25G29 1.72,10.5,3.85
  21471233.750
  20455613.750
  23276674.750
  21605646.250
  23397262.750
  18332842.250
  20469622.250
 23  2 10  5 30 11.0000000  0 07G02G05G11G18G20G23G29 +1.800,10.0,3.85
  18579830.750
  18487956.250
  21582117.750
  19947990.750
  20521050.750
  21025848.250
  17906997.750
 23  2 10  6  0 11.0000000  0 06G02G05G13G15G20G29 +1.800,9.0,3.85
  21025422.250
  21876237.250
  20929481.750
  20167879.750
  18094386.250
  20947740.250
 23  2 10  6 30 11.0000000  0 07G02G05G10G13G18G23G29 +1.800,8.0,3.85
  19967639.250
  21672515.750
  23772629.750
  20260270.750
  19977286.750
  21024852.250
  20666785.750
 23  2 10  7  0  5.0000000  0 07G02G10G13G15G23G24G29 1.85,7.0,3.85
  22820557.750
  19563185.750
  23641854.250
  21827912.250
  23066133.750
  18913347.250
  18347805.750
 23  2 10  7 30  6.0000000  0 07G02G10G15G18G23G24G29 1.90,6.0,3.85
  19462226.250
  20933024.750
  18602282.750
  23927387.250
  18769569.250
  20058177.250
  21719580.750
 23  2 10  8  0  5.0000000  0 08G02G10G15G18G23G24G27G32 1.95,5.5,3.85
  21939020.750
  21946017.250
  21228282.750
  19703317.750
  20188364.250
  21031647.750
  22832502.250
  23335622.750
 23  2 10  8 30 13.0000000  0 06G02G10G18G24G27G32 +2.000,5.5,3.85
  21115449.750
  19490143.750
  18307693.750
  18837351.250
  21026182.750
  20546609.750
 23  2 10  9  0  9.0000000  0 07G08G10G18G23G24G27G32 2.27,5.0,3.85
  21035809.250
  23613961.750
  23752063.250
  22920266.250
  23573680.250
  20086116.750
  18445322.250
 23  2 10  9 30  5.0000000  0 07G08G10G18G22G23G24G32 2.54,5.0,3.85
  22309649.250
  18290232.250
  19926723.750
  20683738.750
  18248917.750
  19184652.750
  18980032.750
 23  2 10 10  0  5.0000000  0 07G10G18G21G23G24G28G32 2.81,5.0,3.85
  19106035.750
  22283477.250
  23240268.750
  19775579.750
  21150076.250
  21814505.250
  19704479.250
 23  2 10 10 30  5.0000000  0 06G10G21G22G23G28G32 3.08,4.5,3.85
  20103880.750
  23619811.750
  21557676.250
  21499088.750
  21765204.250
  20586590.250
 23  2 10 11  0  5.0000000  0 07G10G22G23G25G28G31G32 3.36,4.5,3.85
  22535256.250
  23373442.250
  18617259.250
  18814961.750
  23105794.250
  23611785.250
  22803718.750
 23  2 10 11 30  8.0000000  0 08G01G10G21G23G25G28G31G32 3.63,4.5,3.85
  19010841.750
  22879630.250
  19158028.250
  19540664.250
  18193193.250
  22355163.250
  22598554.250
  22782117.750
 23  2 10 12  0  5.0000000  0 08G01G10G21G22G25G28G31G32 3.90,4.5,3.85
  19663224.750
  18585493.250
  20254396.750
  23675251.250
  19016949.250
  23001838.750
  22985870.250
  23957470.250
 23  2 10 12 30  5.0000000  0 08G01G10G21G22G26G28G31G32 4.17,4.5,3.85
  21901202.750
  21723905.250
  22796601.250
  19707798.750
  21789919.750
  19157389.750
  18917598.250
  20448090.250
 23  2 10 13  0  5.0000000  0 07G01G03G21G22G26G31G32 4.44,4.5,3.85
  23258150.750
  22477585.750
  18286817.750
  20604133.750
  21518170.250
  19940457.750
  21825340.750
 23  2 10 13 30  7.0000000  0 08G01G03G04G16G26G28G31G32 4.71,4.5,3.85
  18861161.250
  22470382.750
  19034848.250
  18402291.250
  21448724.750
  21723296.750
  21217977.250
  23319200.750
 23  2 10 14  0  5.0000000  0 07G03G04G22G26G28G31G32 4.98,4.0,3.85
  22670185.250
  18737043.750
  22637578.250
  21593752.750
  23127033.750
  22578399.750
  18840114.750
 23  2 10 14  1 52.0000000  0 00 +5.000,4.5,3.85,1,65535,-5055065,3876012,6,1.4
 23  2 10 15 30  6.0000000  0 06G03G04G09G22G27G28 1.24,6.0,3.85
  19221729.750
  23776728.250
  20258837.750
  20422788.750
  20204178.750
  21319563.250
 23  2 10 16  0 10.0000000  0 08G03G04G07G09G16G26G27G31 -0.04,7.0,3.85
  22421104.750
  19537171.750
  23593540.750
  21459578.250
  19229196.250
  21048206.250
  21366374.250
  18003899.750
 23  2 10 16 30  5.0000000  0 06G04G07G08G09G26G27 -1.31,7.5,3.85
  23859637.750
  21279383.250
  20284808.750
  19097051.250
  20561719.750
  19017586.750
 23  2 10 17  0 18.0000000  0 04G07G08G09G27 -2.600,7.5,3.85
  21093330.250
  19834188.750
  19147511.250
  19156922.750
 23  2 10 17 30 10.0000000  0 06G04G07G08G09G16G27 -2.52,7.5,3.85
  22095002.750
  23133298.250
  21873087.750
  21767143.250
  23102422.250
  21931891.750
 23  2 10 18  0  6.0000000  0 06G04G07G08G09G16G30 -2.44,8.0,3.85
  21921622.750
  21337675.250
  20395017.750
  20898784.750
  23036838.250
  18000928.250
 23  2 10 18 30 10.0000000  0 06G04G07G08G14G27G30 -2.36,5.5,3.85
  23403737.750
  21073713.250
  20761057.250
  18221758.250
  22381832.250
  23323110.250
 23  2 10 19  0  6.0000000  0 06G04G07G09G21G27G30 -2.28,4.5,3.85
  21454616.750
  23450897.750
  19537553.750
  19618017.250
  20237724.250
  19172292.750
 23  2 10 19 30 11.0000000  0 07G01G08G09G13G14G17G30 -2.200,5.0,3.85
  20553654.750
  19129040.750
  21027372.750
  21780706.750
  19789484.250
  20920852.750
  18744176.750
 23  2 10 20  0 11.0000000  0 06G01G07G09G17G21G30 +1.400,4.5,3.85
  21331416.750
  19677118.750
  18029860.250
  21683918.750
  21018271.750
  19983282.250
 23  2 10 20 30 11.0000000  0 05G07G14G17G19G30 +1.800,7.5,3.85
  21025287.750
  21228820.250
  21664890.250
  18699041.250
  20541742.250
 23  2 10 21  0  6.0000000  0 06G01G07G13G14G17G21 1.83,10.0,3.85
  22677635.750
  23492490.750
  18894689.250
  22437712.250
  22702510.750
  18207721.750
 23  2 10 21 30  6.0000000  0 06G07G13G14G17G19G30 1.86,10.5,3.85
  22798885.750
  23462558.750
  20388744.250
  20573914.750
  22438809.750
  20972677.250
 23  2 10 22  0  5.0000000  0 07G03G06G14G17G19G21G30 1.89,10.0,3.85
  22527861.250
  21375475.750
  18456660.750
  18599455.750
  19759097.750
  22484093.250
  19928425.250
 23  2 10 22 30 13.0000000  0 00 1.91,18.0,3.85
 23  2 10 23  0 13.0000000  0 00 1.94,22.0,3.85
 23  2 10 23 30 13.0000000  0 00 1.97,23.0,3.85
 23  2 11  0  0 11.0000000  0 05G06G11G14G19G24 +2.000,19.0,3.85
  21025872.250
  23198475.250
  23593971.250
  21280769.750
  18141036.750
 23  2 11  0 30 11.0000000  0 05G06G11G12G19G24 +2.000,18.5,3.85
  21025682.250
  22354731.750
  23883823.750
  21401251.750
  18569973.750
 23  2 11  1  0 11.0000000  0 05G06G12G17G19G24 +2.000,19.0,3.85
  19445041.750
  21025043.250
  21870376.250
  19820210.750
  23379225.750
 23  2 11  1 30 10.0000000  0 07G05G09G11G12G17G19G25 1.82,14.0,3.85
  23165260.750
  23868120.250
  19377138.750
  20123643.250
  22387490.750
  20104948.750
  21911643.250
 23  2 11  2  0 11.0000000  0 07G05G09G11G12G19G20G25 +1.640,1.5,3.85
  23573661.250
  19079208.750
  21018318.750
  21490333.250
  22479082.250
  21381935.250
  22786462.250
 23  2 11  2 30 22.0000000  0 04G11G19G20G25 +2.000,-0.5,3.85
  18972750.250
  21136101.250
  18694646.250
  20096735.250
 23  2 11  3  0 16.0000000  0 05G05G09G11G20G25 +2.200,-2.0,3.85
  21029148.250
  18544286.750
  21026524.250
  20281281.750
  21737786.250
 23  2 11  3 30 31.0000000  0 05G05G12G20G25G29 +2.200,-2.0,3.85
  21345351.250
  23348877.250
  21392192.250
  22975977.250
  23391669.750
 23  2 11  4  0 10.0000000  0 07G02G05G11G12G13G15G20 2.40,-2.5,3.85
  18835174.250
  22535713.250
  18427529.250
  19835155.250
  19585818.250
  20408845.750
  23291357.250
 23  2 11  4 30 16.0000000  0 05G05G11G12G25G29 +2.600,-3.0,3.85
  20474415.750
  22951005.750
  24840273.250
  23805753.250
  21119339.250
 23  2 11  5  0  5.0000000  0 07G02G05G11G13G15G20G29 2.60,-3.0,3.85
  18394032.750
  23495148.750
  20362980.250
  18257973.750
  18442837.750
  19272119.250
  23417574.250
 23  2 11  5 30  8.0000000  0 06G02G13G15G18G20G29 2.60,-3.0,3.85
  18510913.750
  18274005.250
  23977605.750
  19799005.750
  20606786.750
  23904248.250
 23  2 11  6  0 11.0000000  0 05G02G13G15G18G29 +2.600,-3.0,3.85
  21083340.750
  21027337.750
  20193359.250
  21717674.250
  21110187.750
 23  2 11  6 30 11.0000000  0 06G02G05G15G18G24G29 +2.160,-3.5,3.85
  22043067.750
  23851617.250
  21018270.250
  21948809.250
  19308673.250
  22862969.250
 23  2 11  7  0 11.0000000  0 05G02G10G15G18G23 +2.600,-4.0,3.85
  21894325.250
  24468183.250
  20912887.250
  21024792.750
  22014050.250
 23  2 11  7 30  7.0000000  0 06G02G05G13G18G23G24 2.53,-4.0,3.85
  19126784.250
  21995280.750
  20557149.750
  23487430.750
  18291176.750
  19514139.250
 23  2 11  8  0  7.0000000  0 06G02G15G18G23G24G27 2.47,-4.0,3.85
  19231818.750
  18531001.750
  22901886.250
  23317729.750
  18122642.750
  19974228.250
 23  2 11  8 30 11.0000000  0 06G02G10G15G18G23G24 +2.400,-4.0,3.85
  21018637.250
  19159239.250
  20404988.750
  18145754.750
  17964322.750
  18569900.250
 23  2 11  9  0 17.0000000  0 04G10G23G24G32 +2.200,-4.5,3.85
  21728474.250
  21122576.250
  21802724.250
  22537483.750
 23  2 11  9 30 13.0000000  0 06G08G10G18G23G27G32 +2.800,-4.5,3.85
  19182867.750
  21058578.750
  22920821.750
  21116177.750
  18810198.750
  21738506.250
 23  2 11 10  0 11.0000000  0 06G10G22G23G28G31G32 +3.000,-5.0,3.85
  21025173.750
  22912951.750
  21798878.750
  23596133.250
  18491659.750
  21612847.250
 23  2 11 10 30  5.0000000  0 06G10G12G23G25G28G32 3.10,-5.5,3.85
  22899421.750
  20565583.250
  18398737.250
  20008699.750
  18421024.750
  23359948.750
 23  2 11 11  0 10.0000000  0 06G10G22G23G25G28G32 +3.200,-5.5,3.85
  20802068.750
  21539003.250
  22971290.750
  22940321.750
  21220564.750
  21026697.250
 23  2 11 11 30 10.0000000  0 07G10G12G22G23G25G28G32 +3.200,-5.5,3.85
  21191182.750
  23774991.750
  21118875.250
  23919412.750
  22367418.750
  20516944.750
  21025450.250
 23  2 11 12  0  5.0000000  0 06G10G22G25G26G31G32 3.30,-5.5,3.85
  18351935.250
  23291244.750
  18665986.250
  20394348.750
  22577449.750
  23634564.750
 23  2 11 12 30 11.0000000  0 06G01G10G22G28G31G32 +3.400,-6.0,3.85
  22468552.250
  22407056.250
  20220462.250
  19703896.750
  19438166.750
  21026855.750
 23  2 11 13  0 19.0000000  0 05G03G22G28G31G32 +3.400,-6.0,3.85
  23376173.750
  21655654.750
  21448334.750
  21025435.250
  22947689.250
 23  2 11 13 27 25.0000000  0 00 +5.000,-5.0,3.85,1,67077,-5050897,3881261,4,2.4
 23  2 11 17 30  9.0000000  0 07G04G07G08G09G16G27G30 -1.23,7.0,3.85
  19877614.750
  20693281.250
  19472359.750
  19441618.750
  20901231.750
  19635487.750
  23614721.250
 23  2 11 18  0 11.0000000  0 05G04G07G14G16G27 -2.000,7.5,3.85
  19925310.250
  19086209.750
  22528340.250
  21028430.750
  19193026.250
 23  2 11 18 30 11.0000000  0 04G08G09G14G27 -2.000,7.0,3.85
  21027274.250
  22176901.250
  18321047.250
  22741127.750
 23  2 11 19  0 11.0000000  0 05G01G16G21G27G30 -2.000,7.5,3.85
  22697422.250
  23932029.250
  21026280.250
  21896639.250
  20536448.250
 23  2 11 19 30  6.0000000  0 07G01G07G08G09G17G21G30 -1.93,8.0,3.85
  20515859.750
  23788223.750
  19350304.250
  21290739.250
  20876049.250
  19478430.250
  18745380.750
 23  2 11 20  0 22.0000000  0 05G01G07G08G17G21 -1.8664,8.5,3.85
  21384355.250
  19904751.250
  19862862.750
  21724606.250
  21193377.250
 23  2 11 20 30 15.0000000  0 06G01G07G08G17G19G30 -1.800,9.0,3.85
  21311109.250
  21103512.250
  18007049.250
  21549282.250
  18518041.250
  20510143.750
 23  2 11 21  0 17.0000000  0 02G01G07 -1.800,8.5,3.85
  21137044.250
  22109346.750
 23  2 11 21 30 13.0000000  0 05G01G14G17G19G21 -2.600,8.5,3.85
  21049995.750
  20376221.750
  20555215.250
  22322007.250
  23427055.250
 23  2 11 22  0 13.0000000  0 07G01G03G06G14G17G19G30 -2.200,8.0,3.85
  22366465.250
  25009445.750
  23788274.750
  21056210.750
  21191094.250
  22248746.250
  22656858.250
 23  2 11 22 30 18.0000000  0 04G03G06G14G17 -2.200,7.5,3.85
  24217180.750
  22490842.750
  21147902.250
  21186394.250
 23  2 11 23  0 12.0000000  0 04G03G14G17G24 -1.800,6.5,3.85
  23442862.750
  21221832.250
  21044439.250
  23505025.250
 23  2 11 23 30 16.0000000  0 06G03G11G14G17G19G24 -2.200,5.5,3.85
  22590974.750
  22458595.750
  21111831.250
  20560566.750
  19670980.250
  22398359.250
 23  2 12  0  0 24.0000000  0 05G03G11G12G14G17 -2.000,4.5,3.85
  22164565.750
  20586229.250
  22380885.750
  21265650.750
  20189220.250
 23  2 12  0 30 11.0000000  0 06G03G11G14G17G19G20 -1.600,2.5,3.85
  21815930.250
  18672094.750
  21313084.250
  19618585.750
  17841822.250
  21027145.250
 23  2 12  1  0 33.0000000  0 01G12 -1.60,1.5,3.85
  20348078.250
 23  2 12  1 30 11.0000000  0 06G06G11G12G17G19G20 -1.600,0.0,3.85
  21026277.750
  20516965.250
  21216522.750
  23652324.750
  21348129.250
  21515045.750
 23  2 12  2  0  9.0000000  0 08G02G05G09G11G12G17G19G25 -1.50,-0.5,3.85
  23159992.250
  21054102.250
  22676215.250
  18674551.750
  19123559.750
  22672322.750
  20231689.750
  20350066.750
 23  2 12  2 30 11.0000000  0 07G02G05G09G11G19G20G25 -1.400,-1.5,3.85
  20900614.250
  18438796.250
  21027919.250
  23362205.250
  19621037.750
  23014185.250
  18425106.750
 23  2 12  3  0 40.0000000  0 04G06G09G11G20 -2.200,-2.0,3.85
  23895966.750
  25050652.750
  21545593.750
  20747885.750
 23  2 12  3 30 22.0000000  0 02G06G20 -2.000,-2.5,3.85
  21145511.750
  25768738.750
 23  2 12  4  0  9.0000000  0 07G05G11G12G13G15G20G29 -1.93,-3.0,3.85
  23761953.250
  19744895.250
  21220757.750
  20671135.750
  21464862.750
  18607363.250
  19071586.250
 23  2 12  4 30  9.0000000  0 07G11G12G13G15G18G20G25 -1.87,-3.0,3.85
  20892283.250
  22839248.250
  20121866.250
  20636887.750
  22247535.750
  19763484.250
  21778663.250
 23  2 12  5  0 16.0000000  0 06G05G11G13G20G25G29 -1.800,-3.5,3.85
  20504391.250
  23408137.750
  21104503.750
  22321874.250
  18526372.250
  20333192.750
 23  2 12  5 30 11.0000000  0 04G05G11G13G15 -1.200,-4.0,3.85
  17875989.250
  21026142.250
  25867077.250
  25503784.750
 23  2 12  6  0 10.0000000  0 05G02G13G15G20G23 -1.000,-4.0,3.85
  21947871.250
  21935610.750
  21027428.750
  19285453.250
  23538822.750
 23  2 12  6 30  8.0000000  0 07G02G05G10G13G15G18G29 -1.00,-4.5,3.85
  23944701.250
  19858508.750
  21487465.750
  18372180.250
  22917267.250
  23750549.750
  18881987.250
 23  2 12  7  0 11.0000000  0 04G02G10G15G18 -1.000,-4.5,3.85
  21025431.750
  23437626.750
  20059483.750
  20051950.750
 23  2 12  7 30  9.0000000  0 07G02G05G18G23G24G29G32 -1.10,-4.0,3.85
  23050774.250
  19964157.750
  21316773.250
  22076039.250
  23232210.250
  19490126.250
  19832064.750
 23  2 12  8  0 22.0000000  0 05G02G10G15G18G24 -1.200,-4.5,3.85
  21225210.250
  20786830.250
  20541902.750
  18811914.750
  19912962.750
 23  2 12  8 30 11.0000000  0 04G02G10G15G24 -0.800,-5.0,3.85
  21026256.750
  18939579.750
  20419026.750
  18418472.250
 23  2 12  9  0 11.0000000  0 06G08G10G22G23G24G32 -0.600,-4.5,3.85
  19115229.250
  21550497.250
  18262435.250
  21027809.250
  21736985.250
  22339046.250
 23  2 12  9 30  8.0000000  0 07G08G10G18G23G27G31G32 -0.55,-5.0,3.85
  21373492.750
  23154492.750
  19223913.750
  23304259.250
  21057955.750
  21574763.750
  23822245.250
 23  2 12 10  0  6.0000000  0 06G10G12G18G23G28G31 -0.50,-5.5,3.85
  21149215.750
  19327531.750
  18740657.250
  22019215.750
  23582369.250
  18459464.750
 23  2 12 10 30  6.0000000  0 06G10G12G23G25G31G32 -0.45,-5.5,3.85
  19050277.250
  22632565.750
  20641281.250
  22029338.750
  21101433.250
  19487214.750
 23  2 12 11  0 11.0000000  0 04G10G23G25G31 -0.400,-5.5,3.85
  21027012.250
  23280537.750
  23033044.250
  21734628.250
 23  2 12 11 30  6.0000000  0 08G10G12G21G23G25G28G31G32 -0.33,-6.0,3.85
  21070683.250
  23595963.250
  23177971.750
  23862787.750
  22124503.750
  20253883.250
  20428050.250
  20841404.750
 23  2 12 12  0  8.0000000  0 07G12G21G23G25G26G28G32 -0.27,-6.0,3.85
  21627090.250
  20993452.750
  22656348.750
  19695642.250
  21228222.750
  23624441.750
  18691000.250
 23  2 12 12 30 11.0000000  0 04G22G28G31G32 -0.200,-5.5,3.85
  20157323.750
  19674619.250
  19384004.250
  21026990.750
 23  2 12 13  0 11.0000000  0 06G03G22G26G28G31G32 -0.600,-5.5,3.85
  21249805.250
  19663882.250
  20274013.750
  19503797.750
  19065067.250
  21018402.750
 23  2 12 13 30  9.0000000  0 06G03G16G22G28G31G32 -0.30,-5.5,3.85
  19831100.750
  21574275.750
  19211321.750
  19433724.750
  18910875.750
  21057780.750
 23  2 12 14  0 11.0000000  0 05G16G22G26G31G32 +0.000,-4.5,3.85
  21715625.750
  21026896.750
  19773620.750
  21047055.750
  23348039.250
 23  2 12 14 30 11.0000000  0 05G03G22G26G28G31 +0.000,-1.5,3.85
  20305878.250
  21025881.750
  19155059.250
  21845229.750
  21295696.750
 23  2 12 15  0  6.0000000  0 06G04G22G26G27G28G31 -0.20,2.0,3.85
  19679482.750
  21148527.750
  18857726.250
  22462186.750
  22063944.750
  21536605.250
 23  2 12 15 30 13.0000000  0 06G03G16G22G27G28G31 -0.400,5.0,3.85
  20619142.250
  18112703.250
  21877084.750
  21051730.750
  22734262.750
  22232155.750
 23  2 12 16  0 10.0000000  0 05G04G09G16G27G31 +0.200,9.5,3.85
  22213424.750
  23951175.750
  22049648.750
  23873316.250
  21027634.750
 23  2 12 16 30 11.0000000  0 05G04G08G09G16G27 +0.200,11.5,3.85
  20059285.250
  22151722.250
  21075227.250
  20418043.250
  21026628.750
 23  2 12 17  0 15.0000000  0 01G27 +0.200,11.5,3.85
  21098427.750
 23  2 12 17 30 11.0000000  0 05G08G09G16G27G30 +0.200,12.0,3.85
  20751504.250
  20806436.750
  22386901.750
  21026164.750
  18828382.750
 23  2 12 18  0 17.0000000  0 05G04G07G08G09G27 +0.200,12.0,3.85
  22169008.250
  21085662.750
  20303817.750
  20971270.750
  21381759.750
 23  2 12 18 30 11.0000000  0 07G04G08G09G14G21G27G30 -0.200,12.0,3.85
  23924085.750
  21018263.250
  22238394.750
  18146852.250
  23593204.250
  22825802.750
  23216017.250
 23  2 12 19  0  6.0000000  0 06G01G07G08G09G17G21 -0.30,12.5,3.85
  18868044.750
  21208255.750
  21990059.750
  23656158.750
  19242128.250
  23263797.750
 23  2 12 19 30 15.0000000  0 04G01G07G14G21 -0.400,13.0,3.85
  21083373.750
  18528450.250
  20415738.250
  20154541.250
 23  2 12 20  0 10.0000000  0 06G01G07G08G14G17G21 0.00,13.0,3.85
  20994112.250
  19683832.250
  22121243.250
  20677446.750
  21328746.750
  20923043.250
 23  2 12 20 30 11.0000000  0 06G01G13G14G17G21G30 +0.400,13.0,3.85
  20156433.750
  22114850.750
  19986435.250
  20370956.750
  21027449.250
  19420683.250
 23  2 12 21  0 21.0000000  0 04G01G07G19G21 -0.200,13.0,3.85
  21197404.250
  22321582.750
  23451304.250
  22956812.750
 23  2 12 21 30 11.0000000  0 06G01G07G14G17G21G30 +0.400,12.5,3.85
  21026320.250
  23066882.250
  20276682.250
  20450252.250
  23486164.750
  21097657.750
 23  2 12 22  0 25.0000000  0 04G01G03G14G17 -0.200,12.5,3.85
  22685263.250
  25098277.750
  21270277.750
  21396495.250
 23  2 12 22 30 11.0000000  0 05G01G03G06G14G30 +0.400,12.0,3.85
  23185824.250
  23976759.750
  22176543.250
  21025336.250
  23636205.750
 23  2 12 23  0 21.0000000  0 04G03G14G17G24 +0.400,11.0,3.85
  21115325.250
  19008886.750
  18787585.250
  21142898.250
 23  2 12 23 30 19.0000000  0 05G03G06G12G14G17 -0.200,9.0,3.85
  23164653.250
  20131592.750
  18805243.750
  21777606.250
  21160955.250
 23  2 13  0  0 13.0000000  0 05G03G12G14G17G19 +0.600,7.0,3.85
  23017725.750
  22998195.250
  22183148.750
  21027740.250
  19589111.250
 23  2 13  0 30 16.0000000  0 07G06G11G12G14G17G19G20 -0.200,5.0,3.85
  23727004.750
  18820427.750
  20243841.750
  21726827.250
  19940200.250
  18117055.750
  21099545.250
 23  2 13  1  0 15.0000000  0 05G06G12G17G19G20 +0.200,3.5,3.85
  18611940.250
  19839736.750
  21093487.750
  18976435.250
  20451725.250
 23  2 13  1 30 17.0000000  0 06G05G06G12G17G19G20 0.20,2.5,3.85
  23973673.750
  21136880.750
  21169640.750
  23779263.750
  21454124.750
  21410091.750
 23  2 13  2  0  6.0000000  0 07G02G05G06G09G17G19G25 0.20,1.5,3.85
  21470288.250
  19306714.750
  18443979.250
  21054512.750
  21211186.750
  18762230.250
  18690720.250
 23  2 13  2 30 13.0000000  0 00 0.20,1.5,3.85
 23  2 13  3  0 22.0000000  0 02G11G20 +0.200,2.5,3.85
  21144634.750
  20304768.250
 23  2 13  3 30 17.0000000  0 06G05G06G11G13G20G29 +0.400,2.0,3.85
  23049168.750
  21130695.250
  18365969.750
  20779234.250
  23294731.250
  18941129.250
 23  2 13  4  0 11.0000000  0 04G02G11G13G20 +0.800,2.0,3.85
  22258059.250
  22166748.250
  22852801.250
  21025336.750
 23  2 13  4 30 10.0000000  0 08G02G05G11G13G15G18G20G29 0.90,1.5,3.85
  19304741.750
  23801839.250
  20399775.750
  19406221.250
  19873835.250
  21527487.250
  19275353.250
  18241748.750
 23  2 13  5  0 11.0000000  0 07G02G05G11G13G15G20G25 +1.000,1.5,3.85
  21669703.750
  21027253.750
  23967060.250
  21477628.250
  21540113.750
  22884623.250
  19108654.750
 23  2 13  5 30 10.0000000  0 08G02G05G13G15G18G20G23G29 1.00,1.5,3.85
  21933606.250
  22234939.250
  21718882.750
  21283110.750
  23054648.250
  18344482.750
  18116541.750
  21481240.750
 23  2 13  6  0  9.0000000  0 06G02G05G13G15G20G29 1.00,2.5,3.85
  20764616.250
  21984755.750
  20801318.750
  19817298.750
  18233654.750
  20998626.250
 23  2 13  6 30 11.0000000  0 05G02G05G13G15G24 +1.000,3.0,3.85
  21024811.250
  23036755.750
  21520846.250
  19997938.750
  23933574.250
 23  2 13  7  0  6.0000000  0 07G02G05G13G15G23G24G29 1.07,2.5,3.85
  20181825.750
  22779372.750
  21226517.250
  19232980.250
  20056498.750
  21674423.750
  22038432.250
 23  2 13  7 30 10.0000000  0 07G02G13G18G23G24G27G32 1.13,3.0,3.85
  20340703.750
  21904154.250
  18507510.750
  19222046.750
  20312820.750
  21886706.250
  22863926.750
 23  2 13  8  0 11.0000000  0 04G10G18G24G27 +1.200,4.0,3.85
  19914005.250
  18071592.750
  19066808.750
  21026245.750
 23  2 13  8 30 11.0000000  0 04G10G15G23G24 +1.200,4.5,3.85
  22069731.750
  23787569.250
  21025419.750
  21625105.250
 23  2 13  9  0 11.0000000  0 04G02G10G23G24 +1.200,5.0,3.85
  19056694.750
  21024378.250
  20590095.750
  21333860.750
 23  2 13  9 30 11.0000000  0 06G10G21G23G24G27G32 +0.840,5.0,3.85
  20770104.250
  19256184.250
  21018346.750
  22120019.250
  18833759.750
  21425395.250
 23  2 13 10  0 11.0000000  0 06G10G12G18G23G31G32 +1.400,4.5,3.85
  21027020.250
  25118679.250
  24817421.750
  22000016.250
  18167423.750
  21587729.250
 23  2 13 10 30  6.0000000  0 06G10G22G23G25G31G32 1.40,4.5,3.85
  23937969.250
  19155824.250
  19629622.250
  20791162.250
  19812075.250
  18352841.250
 23  2 13 11  0 10.0000000  0 05G12G23G25G31G32 +1.400,4.0,3.85
  21631657.250
  21026244.750
  20561621.750
  19210692.250
  18825207.250
 23  2 13 11 30  9.0000000  0 06G10G12G22G25G28G32 1.40,3.0,3.85
  19708512.750
  22174176.250
  19384006.250
  20635268.750
  18742492.750
  19409289.750
 23  2 13 12  0 11.0000000  0 05G10G22G25G26G32 +1.400,2.5,3.85
  20924685.750
  19569388.750
  21024466.750
  22349378.750
  20037682.250
 23  2 13 12 30 11.0000000  0 05G22G26G28G31G32 +1.600,2.0,3.85
  20092915.750
  21691479.250
  19647486.250
  19332547.250
  21027506.250
 23  2 13 13  0 11.0000000  0 04G22G26G28G32 +1.600,1.0,3.85
  21135697.250
  21593421.250
  21026653.250
  22556523.750
 23  2 13 13 30  5.0000000  0 06G16G22G26G28G31G32 1.60,2.0,3.85
  18327851.750
  22181247.750
  21637312.250
  22454460.250
  21923971.750
  18095418.250
 23  2 13 14  0 11.0000000  0 04G22G26G31G32 +1.600,5.0,3.85
  21025156.250
  19672188.750
  21083971.750
  23405029.250
 23  2 13 14 30  8.0000000  0 07G03G16G22G26G28G29G31 1.61,9.0,3.85
  18293269.250
  23897842.750
  19071023.250
  23127502.250
  19911788.750
  21934465.750
  19363891.250
 23  2 13 15  0 13.0000000  0 00 1.62,14.5,3.85
 23  2 13 15 30 13.0000000  0 00 1.64,18.5,3.85
 23  2 13 16  0 13.0000000  0 00 1.65,20.0,3.85
 23  2 13 16 30 13.0000000  0 00 1.66,21.0,3.85
 23  2 13 17  0 13.0000000  0 00 1.67,21.5,3.85
 23  2 13 17 30 13.0000000  0 00 1.68,22.0,3.85
 23  2 13 18  0 13.0000000  0 00 1.69,22.0,3.85
 23  2 13 18 30 13.0000000  0 00 1.71,22.5,3.85
 23  2 13 19  0 13.0000000  0 00 1.72,22.5,3.85
 23  2 13 19 30 13.0000000  0 00 1.73,22.5,3.85
 23  2 13 20  0 13.0000000  0 00 1.74,23.0,3.85
 23  2 13 20 30 13.0000000  0 00 1.75,23.0,3.85
 23  2 13 21  0 13.0000000  0 00 1.76,23.0,3.85
 23  2 13 21 30 13.0000000  0 00 1.78,23.0,3.85
 23  2 13 22  0 13.0000000  0 00 1.79,23.0,3.85
 23  2 13 22 30 24.0000000  0 07G01G03G06G14G17G19G30 +1.800,22.5,3.85
  23536193.750
  18096235.250
  22213960.750
  21268061.750
  21261195.750
  21420214.250
  18002826.750
 23  2 13 23  0 23.0000000  0 04G03G06G17G19 +1.400,24.0,3.85
  23698871.750
  21228709.750
  21434117.750
  20954847.250
 23  2 13 23 30  8.0000000  0 07G03G06G11G14G17G19G24 1.70,23.0,3.85
  20792617.750
  23666104.250
  20297487.750
  19489534.750
  18808562.250
  23774107.750
  20531290.250
 23  2 14  0  0 15.0000000  0 04G06G11G17G19 +2.000,10.5,3.85
  20774358.750
  22616313.750
  22594856.250
  21098984.250
 23  2 14  0 30  7.0000000  0 06G06G11G12G17G19G20 2.04,6.0,3.85
  18555505.750
  19528167.250
  20898820.750
  20808498.750
  18943459.750
  21732192.250
 23  2 14  1  0  8.0000000  0 06G06G11G12G17G19G20 2.09,4.5,3.85
  20247724.250
  20339706.750
  21306467.750
  22753109.750
  20606225.250
  21878763.750
 23  2 14  1 30 10.0000000  0 06G05G11G12G17G19G20 2.13,3.0,3.85
  23681080.750
  20387755.750
  21000412.250
  23768726.250
  21425681.250
  21183771.750
 23  2 14  2  0 10.0000000  0 08G05G06G09G11G12G19G20G25 2.18,2.5,3.85
  21884429.250
  21298711.250
  23763657.750
  19869593.750
  20284042.750
  21624836.750
  19958539.250
  21361882.250
 23  2 14  2 30  5.0000000  0 07G05G06G11G12G20G25G29 2.22,1.5,3.85
  19694396.750
  20975818.750
  18970221.250
  19409532.250
  18483946.250
  19903662.250
  22299837.750
 23  2 14  3  0  8.0000000  0 06G05G06G12G20G25G29 2.27,1.0,3.85
  23350924.250
  20273200.750
  18505280.750
  22928031.250
  18433537.750
  19685779.250
 23  2 14  3 30  6.0000000  0 06G02G05G11G12G20G29 2.31,0.5,3.85
  23326084.250
  20806907.750
  22232922.750
  23351342.750
  21148126.250
  22610522.250
 23  2 14  4  0  9.0000000  0 08G02G05G11G13G15G20G25G29 2.36,0.0,3.85
  20634493.750
  18550038.250
  20701683.250
  21153812.750
  21881491.250
  19557986.250
  21416589.750
  19644259.250
 23  2 14  4 30 11.0000000  0 07G02G05G12G13G15G18G29 +2.400,0.5,3.85
  22084903.250
  20695646.750
  25405379.750
  22131546.250
  22549625.250
  24243161.250
  21025962.750
 23  2 14  5  0  5.0000000  0 06G02G05G13G15G18G29 2.40,0.0,3.85
  21127814.250
  20610432.250
  20916125.250
  20916550.750
  22766909.750
  20270872.250
 23  2 14  5 30 11.0000000  0 05G02G13G15G18G29 +2.400,0.0,3.85
  21393940.750
  21198543.750
  20688638.750
  22428093.750
  21024814.250
 23  2 14  6  0  9.0000000  0 06G02G13G18G20G23G29 2.50,0.0,3.85
  21982453.250
  22072364.250
  22331427.750
  19579387.750
  23376567.750
  22325738.750
 23  2 14  6 30 10.0000000  0 05G02G15G18G23G29 +2.600,0.0,3.85
  19857712.750
  18834490.250
  19452922.250
  20482910.750
  21026947.250
 23  2 14  7  0  8.0000000  0 07G02G05G15G18G23G27G29 2.42,-0.5,3.85
  22483916.750
  19151423.750
  21554035.750
  21299973.250
  22228962.250
  19072957.250
  18450722.750
 23  2 14  7 30 11.0000000  0 06G02G10G18G23G27G29 +2.240,0.0,3.85
  22282508.750
  22973340.750
  20352064.250
  21018158.250
  23670678.750
  18879321.250
 23  2 14  8  0  6.0000000  0 06G10G15G18G23G24G32 2.28,0.0,3.85
  23012562.750
  23224747.250
  21310609.750
  21508012.750
  22198633.750
  18223142.750
 23  2 14  8 30 11.0000000  0 07G10G15G18G23G24G27G32 +2.320,0.0,3.85
  21018034.750
  22972748.750
  20529737.750
  20052020.250
  20656457.250
  23033882.250
  21945530.250
 23  2 14  9  0 12.0000000  0 06G10G22G23G24G27G32 +2.400,0.5,3.85
  21036037.250
  23615261.750
  20691706.750
  21474360.750
  18108688.250
  21786086.250
 23  2 14  9 30  6.0000000  0 06G10G23G24G28G31G32 2.70,1.0,3.85
  20252026.750
  20596298.250
  21757431.250
  23406609.250
  18383084.750
  20895629.750
 23  2 14 10  0 11.0000000  0 05G10G18G24G31G32 +3.000,2.5,3.85
  20481761.250
  24467006.750
  23189723.750
  23449384.250
  21027393.750
 23  2 14 10 30  6.0000000  0 07G10G12G22G23G28G31G32 3.97,4.0,3.85
  19375959.250
  22798061.750
  20503626.750
  21158572.250
  20440870.750
  21063418.750
  19758182.750
 23  2 14 11  0  8.0000000  0 08G10G21G22G23G25G28G31G32 4.95,5.0,3.85
  20658438.750
  23208548.250
  21083374.750
  23075515.750
  22397998.750
  20624886.750
  20994361.750
  20745325.250
 23  2 14 11 30  6.0000000  0 07G01G10G21G22G25G28G32 5.92,5.5,3.85
  18190061.750
  22651821.750
  18597215.250
  22196713.750
  23456815.250
  21541469.250
  22281722.750
 23  2 14 11 32 30.0000000  0 00 +6.000,6.5,3.85,1,67075,-5050913,3881263,4,1.4
 23  2 15  9  0 11.0000000  0 06G10G18G23G24G27G32 -1.800,10.5,3.85
  21027340.250
  22178673.250
  20771565.250
  21595913.250
  18251008.250
  21760818.250
 23  2 15  9 30  7.0000000  0 07G08G10G18G22G23G28G32 -1.78,10.0,3.85
  19368962.750
  20845229.250
  23538773.750
  22928945.750
  21286108.250
  23865842.250
  21477478.250
 23  2 15 10  0 10.0000000  0 07G10G21G22G23G28G31G32 -1.75,10.0,3.85
  18867958.250
  22574053.250
  20478618.750
  20038623.750
  20862938.250
  21669919.750
  19397954.250
 23  2 15 10 30  5.0000000  0 06G10G22G23G28G31G32 -1.73,10.0,3.85
  22867534.250
  23909346.750
  18745231.750
  23784592.250
  18380896.750
  23219929.250
 23  2 15 11  0  6.0000000  0 06G10G21G22G28G31G32 -1.70,9.5,3.85
  21833834.750
  18306608.750
  22151436.250
  21654114.750
  21989130.250
  21870338.250
 23  2 15 11 30  6.0000000  0 06G01G10G21G22G28G31 -1.68,9.5,3.85
  21127000.250
  19731512.250
  21592656.250
  19144973.250
  18480106.750
  18548764.750
 23  2 15 12  0  5.0000000  0 07G01G21G22G26G28G31G32 -1.65,9.0,3.85
  18735000.250
  19555284.250
  22633434.250
  19101692.250
  22023693.250
  21851945.750
  23224075.750
 23  2 15 12 30  6.0000000  0 06G01G22G26G28G31G32 -1.63,8.5,3.85
  22511249.250
  20024242.250
  21305742.750
  19658388.750
  19299108.250
  21085730.250
 23  2 15 13  0 11.0000000  0 05G03G16G22G28G31 -1.600,8.5,3.85
  22201163.250
  24358711.750
  21027562.250
  21020981.750
  20538936.250
 23  2 15 13 30 11.0000000  0 04G03G04G16G22 -1.600,8.5,3.85
  21026861.250
  23288167.250
  22444081.250
  20754074.750
 23  2 15 14  0  9.0000000  0 06G03G04G16G22G26G28 -1.60,9.5,3.85
  18673042.250
  20178293.250
  19108716.750
  19094189.750
  23553005.250
  19781965.750
 23  2 15 14 30 10.0000000  0 07G03G04G09G16G26G28G31 -1.60,11.0,3.85
  19228766.250
  19618497.750
  22583541.250
  18527665.250
  18052244.750
  20997166.250
  20452461.750
 23  2 15 15  0 11.0000000  0 04G04G22G26G31 -1.600,12.5,3.85
  21025259.250
  23180339.250
  20755120.750
  23566262.250
 23  2 15 15 30 17.0000000  0 07G03G04G07G16G27G28G31 -2.200,16.0,3.85
  21522598.250
  19080149.750
  23247373.750
  18613186.250
  21119835.250
  23632819.750
  23136100.250
 23  2 15 16  0  6.0000000  0 06G03G04G08G09G16G27 -2.04,18.0,3.85
  21160623.250
  23387812.750
  20185468.750
  18848707.250
  23433729.750
  18775294.250
 23  2 15 16 30 14.0000000  0 05G03G04G07G09G16 -1.88,21.0,3.85
  19172388.750
  20373049.750
  23112214.750
  21070653.750
  20916926.750
 23  2 15 17  0 10.0000000  0 06G04G07G08G09G16G27 -1.72,19.0,3.85
  19674661.250
  21159617.750
  19892601.750
  19585810.250
  20581533.250
  19703646.750
 23  2 15 17 30  6.0000000  0 06G04G07G08G09G16G27 -1.56,20.0,3.85
  20745807.250
  20680225.750
  19622795.750
  19927652.250
  21822669.250
  20224963.750
 23  2 15 18  0 11.0000000  0 06G04G07G08G14G27G30 -1.400,22.5,3.85
  22818073.750
  21027176.250
  20501858.750
  18295280.250
  21890382.250
  23413168.250
 23  2 15 18 30 10.0000000  0 06G04G07G08G09G27G30 -1.46,25.5,3.85
  20023907.250
  22520147.250
  22777093.250
  18197986.250
  18849574.250
  18413257.750
 23  2 15 19  0  6.0000000  0 06G07G09G14G17G21G30 -1.51,25.5,3.85
  23650542.750
  20617592.250
  19963967.750
  21259711.750
  19531674.750
  18921628.750
 23  2 15 19 30  5.0000000  0 07G01G07G08G09G14G17G30 -1.57,25.5,3.85
  20894325.250
  18833373.750
  20841415.750
  22893020.750
  20384646.250
  21255408.750
  19371364.250
 23  2 15 20  0  7.0000000  0 06G01G07G14G17G21G30 -1.63,27.0,3.85
  21446435.750
  20664173.250
  21219347.750
  21752184.750
  21755501.750
  20417728.750
 23  2 15 20 30  8.0000000  0 06G01G07G14G17G19G30 -1.69,29.0,3.85
  22343387.750
  22805433.250
  22151927.750
  22466831.750
  19142820.750
  21797875.250
 23  2 15 21  0  6.0000000  0 06G01G07G14G17G19G30 -1.74,29.5,3.85
  22700693.250
  18239758.750
  22243548.750
  22450362.750
  18519036.750
  22572300.750
 23  2 15 21 30 11.0000000  0 07G01G06G07G14G17G19G30 -1.800,24.0,3.85
  20830580.750
  23152384.250
  23172971.750
  19830503.250
  19988574.750
  21362651.750
  21018547.750
 23  2 15 22  0 11.0000000  0 05G01G14G17G19G30 -1.400,21.0,3.85
  21982882.250
  20267679.250
  20361533.750
  21024644.750
  22370914.750
 23  2 15 22 30 11.0000000  0 05G06G11G14G17G30 -1.400,19.0,3.85
  21652966.250
  19217999.250
  21087464.750
  21025161.750
  24025238.750
 23  2 15 23  0 19.0000000  0 07G03G06G11G14G17G19G24 -1.600,18.0,3.85
  23959872.250
  21318635.250
  18420662.750
  22166995.250
  21801905.250
  21165119.750
  23887984.750
 23  2 15 23 30 10.0000000  0 06G06G11G14G17G19G24 -1.40,16.0,3.85
  21689379.750
  18126810.250
  23860316.250
  23038078.750
  21874344.750
  18671308.750
 23  2 16  0  0  8.0000000  0 06G06G11G12G17G19G20 -1.20,13.5,3.85
  21656805.750
  23274447.250
  18909897.750
  23612655.750
  22012412.750
  19860907.250
 23  2 16  0 30 17.0000000  0 05G06G11G17G19G20 -1.000,11.5,3.85
  21141004.750
  21868777.750
  23474825.250
  21527869.250
  23905996.750
 23  2 16  1  0 10.0000000  0 08G05G06G11G12G17G19G20G25 -1.00,10.0,3.85
  19225712.750
  21233203.250
  21094355.250
  21953437.250
  23781060.250
  21578586.750
  22437440.750
  23896343.250
 23  2 16  1 30  9.0000000  0 06G05G06G11G12G19G20 -1.00,9.0,3.85
  20556594.750
  18532680.750
  23599901.250
  18143139.750
  18842541.250
  18203497.750
 23  2 16  2  0  8.0000000  0 06G05G11G12G19G20G25 -1.00,8.5,3.85
  17996658.250
  22334894.250
  22732698.750
  18287073.250
  22254098.750
  23659883.750
 23  2 16  2 30  9.0000000  0 07G05G09G11G12G19G20G25 -1.00,8.5,3.85
  19135097.250
  22303570.750
  18751470.250
  19239480.750
  21392675.750
  18139374.750
  19576783.250
 23  2 16  3  0  9.0000000  0 07G02G05G06G11G12G20G29 -1.00,10.0,3.85
  18724104.250
  22065952.250
  19385249.750
  22809955.750
  23607137.750
  21856939.750
  18276103.250
 23  2 16  3 30  8.0000000  0 07G02G05G11G12G20G25G29 -1.00,8.5,3.85
  21829025.750
  19398093.250
  21044773.250
  22297781.250
  19930584.250
  21637691.250
  21017687.250
 23  2 16  4  0  5.0000000  0 07G02G05G11G12G15G25G29 -1.00,8.5,3.85
  20777820.250
  18857061.250
  21160047.250
  22906553.750
  21809669.750
  21933783.750
  19741044.750
 23  2 16  4 30  9.0000000  0 07G02G05G11G13G15G25G29 -1.00,9.0,3.85
  22055763.750
  20890314.250
  23636653.750
  22007488.250
  22322852.750
  18655746.250
  21020787.750
 23  2 16  5  0  5.0000000  0 06G02G13G15G20G23G29 -1.00,9.0,3.85
  19049796.750
  18813985.750
  18683698.250
  20749863.750
  21618333.750
  18297289.250
 23  2 16  5 30 10.0000000  0 07G02G13G15G18G20G23G29 -1.00,9.0,3.85
  22540602.750
  22398262.750
  21740915.750
  23399847.250
  19395314.250
  18447213.250
  22347723.750
 23  2 16  6  0 11.0000000  0 04G15G18G23G29 -1.000,9.5,3.85
  18827952.750
  19982767.250
  21024548.250
  20397641.250
 23  2 16  6 30 10.0000000  0 07G02G05G10G15G18G23G29 -0.93,9.5,3.85
  19957667.250
  22244310.250
  22909574.750
  18949612.750
  19343981.750
  20356026.250
  21356294.250
 23  2 16  7  0 10.0000000  0 06G02G10G18G23G24G29 -0.87,9.0,3.85
  18063785.750
  19783269.750
  22667997.250
  23542662.750
  18938751.250
  20225147.750
 23  2 16  7 30 11.0000000  0 04G02G18G23G24 -0.800,8.5,3.85
  21027569.750
  18911510.750
  19470680.250
  20386790.750
 23  2 16  8  0  7.0000000  0 07G02G10G18G23G24G27G32 -0.80,8.0,3.85
  20145830.750
  18833940.250
  23427615.750
  23460946.250
  18106476.750
  20222917.750
  19956108.750
 23  2 16  8 30 11.0000000  0 05G10G15G22G23G32 -0.800,7.5,3.85
  21025774.250
  23445808.250
  23917297.250
  20219197.250
  21897297.250
 23  2 16  9  0 16.0000000  0 05G08G10G23G24G27 -1.400,7.0,3.85
  19168877.250
  21268326.250
  21106298.250
  21978117.250
  18651223.750
 23  2 16  9 30  6.0000000  0 08G08G10G21G22G23G28G31G32 -1.13,7.0,3.85
  23813737.750
  19189708.750
  23424999.750
  21209159.750
  19729358.750
  22072432.750
  23016734.250
  19810577.750
 23  2 16 10  0  8.0000000  0 06G10G21G22G28G31G32 -0.87,7.0,3.85
  20250951.750
  23871908.250
  21788706.250
  22098809.750
  22881313.750
  20763705.750
 23  2 16 10 30 11.0000000  0 04G10G21G22G32 -0.600,6.5,3.85
  21027543.250
  18030583.750
  21976236.250
  21345851.250
 23  2 16 11  0  8.0000000  0 08G01G10G12G21G22G28G31G32 -0.72,5.5,3.85
  22903708.750
  20578164.250
  23317011.250
  22962355.250
  20781005.750
  20246984.750
  20545735.250
  20559180.250
 23  2 16 11 30 11.0000000  0 04G10G21G28G31 -0.84,4.5,3.85
  21027050.750
  25197481.250
  25625227.250
  19662437.250
 23  2 16 12  0  5.0000000  0 07G01G10G22G26G28G31G32 -0.96,4.5,3.85
  18389013.750
  18061112.750
  22249199.250
  18553897.750
  21662664.250
  21461656.750
  22902694.750
 23  2 16 12 30  9.0000000  0 06G03G10G21G22G26G31 -1.08,4.5,3.85
  19346572.750
  20252497.750
  20846873.750
  23266335.250
  18389338.250
  22564472.750
 23  2 16 13  0 13.0000000  0 06G03G16G22G26G31G32 -1.200,4.5,3.85
  22089186.750
  24164422.750
  21049935.250
  21070103.250
  20601714.750
  22666218.250
 23  2 16 13 30  8.0000000  0 06G03G16G22G26G28G31 -0.80,5.0,3.85
  20340721.250
  21641287.250
  20175581.250
  19268600.250
  20596599.750
  20048097.250
 23  2 16 14  0 11.0000000  0 06G03G16G22G26G29G31 -0.400,5.0,3.85
  20737893.250
  21026129.250
  21239500.250
  19614105.250
  18460798.750
  21402701.750
 23  2 16 14 30  8.0000000  0 07G03G04G16G22G26G28G31 -0.40,5.5,3.85
  22997802.750
  23214427.750
  22139922.750
  23942611.750
  21812658.750
  18834311.750
  18291652.750
 23  2 16 15  0  5.0000000  0 06G03G04G16G26G27G31 -0.40,6.0,3.85
  18108902.250
  22929973.250
  22095617.750
  22842328.750
  19463802.250
  19690653.750
 23  2 16 15 30 11.0000000  0 04G03G04G09G27 -0.400,6.5,3.85
  21699883.750
  19068843.250
  21092284.750
  21024385.750
 23  2 16 16  0 11.0000000  0 06G03G04G08G09G16G27 -0.760,7.0,3.85
  23664315.750
  19731475.750
  22367042.750
  21087340.250
  19848513.750
  21017988.750
 23  2 16 16 30  8.0000000  0 06G04G07G08G09G16G27 -0.57,8.0,3.85
  18641677.250
  21230166.750
  20034631.750
  19234150.750
  19240724.750
  19234440.750
 23  2 16 17  0 28.0000000  0 06G04G07G08G09G16G27 -0.38,9.0,3.85
  21384436.750
  22654910.750
  21401145.750
  21183143.750
  22325671.750
  21325568.750
 23  2 16 17 30 11.0000000  0 04G04G07G08G27 -0.200,9.0,3.85
  21026732.250
  20725424.750
  19725976.250
  20441213.250
 23  2 16 18  0 10.0000000  0 05G04G07G09G16G30 -0.200,8.0,3.85
  22506774.250
  20477473.250
  21025954.250
  23538878.750
  22802544.750
 23  2 16 18 30  5.0000000  0 06G04G07G08G09G21G30 -0.30,7.0,3.85
  22246021.750
  18528672.250
  18904168.750
  20381189.750
  20784067.750
  20339954.250
 23  2 16 19  0 13.0000000  0 04G07G09G14G21 -0.400,6.5,3.85
  19241135.750
  22374425.250
  21456377.250
  21056457.250
 23  2 16 19 30 17.0000000  0 04G07G13G17G21 -0.200,7.5,3.85
  18890139.250
  22202292.250
  21129075.750
  20292071.250
 23  2 16 20  0  5.0000000  0 06G01G07G17G19G21G30 -0.13,7.5,3.85
  22708532.250
  22102897.250
  23000250.750
  20091446.750
  23146398.250
  21746919.750
 23  2 16 20 30  8.0000000  0 07G01G07G14G17G19G21G30 -0.07,7.0,3.85
  22735284.250
  23360409.250
  22524876.250
  22820762.250
  19416545.250
  18106967.250
  22251900.750
 23  2 16 21  0 27.0000000  0 04G01G06G07G14 +0.000,6.5,3.85
  21319422.250
  19155310.250
  22996635.250
  20796657.250
 23  2 16 21 30  5.0000000  0 06G01G06G14G17G19G30 0.00,6.0,3.85
  21295876.750
  23353422.750
  20206497.250
  20359134.250
  21636065.250
  21518115.250
 23  2 16 22  0 11.0000000  0 04G14G17G19G30 +0.000,5.5,3.85
  20945513.250
  21024874.250
  21590625.750
  23172911.750
 23  2 16 22 30  6.0000000  0 06G03G06G14G17G19G30 -0.10,4.5,3.85
  21508108.250
  19397708.750
  19024861.750
  18930793.250
  18824920.750
  22063180.250
 23  2 16 23  0 11.0000000  0 05G03G06G11G14G19 -0.200,4.0,3.85
  23764569.250
  21037480.250
  18064797.750
  22069410.750
  20939518.250
 23  2 16 23 30  8.0000000  0 07G03G06G11G14G17G19G24 -0.07,3.0,3.85
  22990249.250
  19587201.250
  21918762.750
  21930266.750
  21033279.250
  19805925.750
  22623793.750
 23  2 17  0  0  8.0000000  0 07G06G11G12G14G17G19G20 0.07,2.5,3.85
  19376237.750
  20876001.750
  22459657.750
  22890660.750
  21394641.750
  19743721.750
  23398079.250
 23  2 17  0 30 11.0000000  0 04G06G12G19G20 +0.200,2.5,3.85
  18462422.750
  20273897.750
  18846552.250
  21024235.750
 23  2 17  1  0 11.0000000  0 05G06G12G17G19G20 +0.400,2.5,3.85
  20038959.750
  20591338.750
  22605499.250
  20377605.750
  21026914.750
 23  2 17  1 30  9.0000000  0 06G05G09G11G19G20G25 0.42,2.0,3.85
  20757130.250
  22113022.750
  23976646.250
  19319898.750
  18482025.750
  19901945.250
 23  2 17  2  0  6.0000000  0 07G05G06G09G11G19G25G29 0.45,1.5,3.85
  23260203.250
  23466407.750
  19540016.750
  21781989.750
  23826824.750
  23027473.250
  19900669.750
 23  2 17  2 30  9.0000000  0 08G02G05G06G09G11G12G20G29 0.47,1.5,3.85
  23676229.750
  21053798.250
  23050524.750
  18375348.250
  20836840.750
  21355837.250
  20166706.250
  23573052.250
 23  2 17  3  0  5.0000000  0 06G02G05G06G20G25G29 0.50,1.0,3.85
  22680784.750
  20038822.750
  23542166.250
  19934343.750
  21492503.750
  22175995.250
 23  2 17  3 30  9.0000000  0 07G05G11G12G13G15G20G25 0.52,0.5,3.85
  22787819.750
  18543069.750
  19865693.250
  20023479.750
  20883395.250
  23413310.750
  19152944.250
 23  2 17  4  0  5.0000000  0 08G02G05G11G13G15G18G20G25 0.55,0.5,3.85
  22548999.250
  20719121.250
  23093120.250
  22856117.250
  23471918.750
  18990877.250
  21949492.250
  23898650.250
 23  2 17  4 30  6.0000000  0 06G02G05G11G13G15G29 0.57,0.0,3.85
  21135616.750
  20087332.250
  22878443.250
  21046178.750
  21307020.750
  20121050.750
 23  2 17  5  0 10.0000000  0 06G02G11G13G15G20G29 +0.600,0.5,3.85
  21464636.750
  18409656.250
  21224648.250
  21024416.250
  23329682.750
  20774809.250
 23  2 17  5 30  9.0000000  0 07G02G05G13G15G18G20G23 0.68,0.0,3.85
  21820212.750
  22640470.250
  21712048.750
  20979280.250
  22588486.750
  18817391.750
  23628838.250
 23  2 17  6  0  5.0000000  0 07G02G05G13G15G18G23G29 0.76,0.0,3.85
  19172228.250
  20852831.750
  19440498.750
  18158226.750
  19225043.250
  20264714.250
  19850821.250
 23  2 17  6 30  7.0000000  0 06G02G05G15G18G24G29 0.84,0.0,3.85
  21502372.750
  23872024.750
  20505276.750
  20783347.750
  23660185.250
  23014182.750
 23  2 17  7  0  5.0000000  0 07G02G05G10G15G18G24G29 0.92,0.0,3.85
  19156309.750
  21984954.250
  20695451.750
  18286961.750
  23658950.750
  19826607.750
  21410515.750
 23  2 17  7 30 12.0000000  0 05G02G18G23G24G27 +1.000,0.0,3.85
  21027855.250
  18820628.750
  19319376.250
  20184055.250
  21963658.250
 23  2 17  8  0  8.0000000  0 06G02G10G18G23G24G27 1.04,0.0,3.85
  22109119.250
  20567481.250
  19325716.250
  19270031.750
  19894198.750
  22062312.250
 23  2 17  8 30  6.0000000  0 06G02G10G18G23G24G27 1.08,-0.5,3.85
  18796652.750
  21547458.250
  21617518.250
  20822225.750
  21471306.750
  23966755.250
 23  2 17  9  0 11.0000000  0 04G10G18G22G24 1.12,-0.5,3.85
  21026711.250
  22598402.250
  23417924.750
  21878168.250
 23  2 17  9 30 10.0000000  0 07G10G18G22G24G27G28G31 1.16,-0.5,3.85
  21371530.750
  18489256.250
  23324878.250
  23366300.250
  20048477.250
  18115635.250
  19043160.750
 23  2 17 10  0  6.0000000  0 06G10G22G23G28G31G32 1.20,-0.5,3.85
  22619078.250
  18086300.750
  17991594.750
  18322748.750
  19079395.750
  23113024.250
 23  2 17 10 30  6.0000000  0 07G10G12G21G22G23G31G32 1.24,-0.5,3.85
  19314119.250
  22505852.250
  22229469.750
  20171174.250
  21370676.250
  20452423.250
  19597234.250
 23  2 17 11  0  6.0000000  0 07G01G10G12G23G25G28G32 1.28,-0.5,3.85
  19037469.250
  22859873.250
  19538563.250
  19506479.750
  18211473.750
  22380090.750
  22783010.250
 23  2 17 11 30  5.0000000  0 07G10G21G25G26G28G31G32 1.32,-1.0,3.85
  19387471.250
  21085803.250
  19841025.250
  21824567.750
  23847410.750
  23846838.750
  18788795.750
 23  2 17 12  0  6.0000000  0 07G10G22G25G26G28G31G32 1.36,-1.0,3.85
  23975601.750
  22010450.750
  23693856.750
  18149682.250
  21450911.750
  21221391.250
  22727356.750
 23  2 17 12 30 11.0000000  0 06G10G22G26G28G31G32 +1.400,-1.0,3.85
  22976800.250
  19832794.750
  20790282.250
  19558160.250
  19157560.750
  21025709.250
 23  2 17 13  0 17.0000000  0 05G16G22G26G31G32 +0.800,-0.5,3.85
  22329988.750
  19442832.250
  19319428.750
  19037070.750
  21125200.750
 23  2 17 13 30  7.0000000  0 06G04G16G22G26G31G32 1.20,-1.0,3.85
  19133326.750
  18212029.250
  22975003.250
  21954513.250
  22890165.750
  19138296.250
 23  2 17 14  0 11.0000000  0 05G03G04G16G22G29 +1.600,0.0,3.85
  20890834.750
  22123826.250
  21025442.750
  21468288.250
  18600402.750
 23  2 17 14 30 13.0000000  0 00 1.64,8.5,3.85
 23  2 17 15  0 13.0000000  0 00 1.68,18.0,3.85
 23  2 17 15 30  5.0000000  0 06G03G04G08G09G16G27 1.72,12.0,3.85
  22088990.250
  19279107.250
  22791799.750
  21226533.750
  18936357.750
  21135060.250
 23  2 17 16  0  5.0000000  0 07G04G07G08G09G16G26G27 1.76,1.5,3.85
  20128736.250
  23558355.250
  22598740.250
  21393154.250
  20313184.250
  22792829.750
  21314368.750
 23  2 17 16 30 11.0000000  0 07G04G07G08G09G16G26G27 +1.800,1.0,3.85
  20530078.250
  22966150.750
  21731963.250
  21020318.250
  21188915.250
  24104728.250
  21026758.750
 23  2 17 17  0 16.0000000  0 06G04G07G08G09G26G27 +1.400,3.0,3.85
  21226302.250
  22303617.250
  21064653.750
  20928174.250
  19337392.250
  21091760.750
 23  2 17 17 30 10.0000000  0 07G04G07G08G09G16G27G30 1.60,7.5,3.85
  20201161.250
  19668971.750
  18730564.250
  19205475.250
  21284420.750
  19555705.750
  22340098.250
 23  2 17 18  0 11.0000000  0 06G04G07G08G09G21G27 +1.800,9.5,3.85
  23289116.750
  21024567.250
  20694748.250
  21747292.750
  23639669.750
  22284892.250
 23  2 17 18 30 10.0000000  0 06G07G08G09G14G21G30 1.90,11.5,3.85
  18504104.750
  19003886.250
  20540308.750
  21231497.750
  20693371.750
  20234270.750
 23  2 17 19  0 10.0000000  0 04G07G08G09G21 +2.000,12.5,3.85
  19274254.250
  20676979.750
  22565683.250
  21027503.750
 23  2 17 19 30 11.0000000  0 07G01G07G08G14G17G21G30 +1.480,14.0,3.85
  21376228.750
  19670623.250
  21886986.750
  20969432.750
  21737429.250
  21018254.750
  19991499.250
 23  2 17 20  0 11.0000000  0 04G01G07G13G17 +2.000,15.5,3.85
  20748998.250
  20326193.750
  22594490.750
  21026519.250
 23  2 17 20 30 14.0000000  0 04G01G17G21G30 +1.400,17.0,3.85
  19579335.250
  19624581.250
  21071434.250
  19159936.750
 23  2 17 21  0  5.0000000  0 07G01G07G13G14G19G21G30 1.70,18.0,3.85
  20944309.250
  22734170.750
  23406928.750
  20363633.250
  22432115.750
  23205277.750
  20914127.750
 23  2 17 21 30 11.0000000  0 05G03G14G19G21G30 +2.000,18.0,3.85
  25133916.750
  21026089.250
  22348843.750
  19018205.250
  22466726.750
 23  2 17 22  0  7.0000000  0 07G01G03G06G14G17G19G30 2.00,17.5,3.85
  22191511.250
  23498958.750
  21860660.250
  20267009.250
  20332556.250
  20804026.250
  22613352.750
 23  2 17 22 30 11.0000000  0 04G01G06G17G19 +2.000,17.0,3.85
  23809720.750
  21325124.250
  21025112.750
  20830670.750
 23  2 17 23  0 10.0000000  0 06G03G06G11G14G17G24 2.07,16.5,3.85
  20396573.750
  23576477.750
  20522362.750
  18797611.250
  18324817.750
  20263050.250
 23  2 17 23 30  8.0000000  0 06G06G11G14G17G19G24 2.13,15.5,3.85
  23612485.250
  19842204.750
  20127062.250
  19155110.750
  23863189.250
  20715954.750
 23  2 18  0  0 11.0000000  0 04G06G11G17G19 +2.200,14.0,3.85
  20651222.750
  22029617.250
  22726489.750
  21028006.250
 23  2 18  0 30  9.0000000  0 07G06G11G12G17G19G20G24 2.20,12.5,3.85
  21761689.250
  22251018.750
  23398588.750
  18161910.250
  22140562.750
  18115116.750
  19684428.250
 23  2 18  1  0 11.0000000  0 04G12G17G19G20 +2.200,11.5,3.85
  21087964.250
  23277078.250
  21027229.750
  21468074.750
 23  2 18  1 30 10.0000000  0 06G05G11G12G17G19G20 2.20,10.0,3.85
  21765101.250
  19170937.250
  19649535.750
  23005040.250
  20606643.750
  19572051.750
 23  2 18  2  0  9.0000000  0 07G02G05G06G11G19G20G29 2.20,8.5,3.85
  20650258.750
  18225263.750
  18697655.750
  22927706.250
  19070844.250
  22682722.750
  20864838.750
 23  2 18  2 30 11.0000000  0 06G02G06G09G11G12G19 +2.200,7.5,3.85
  21444418.750
  21026075.250
  22267872.750
  18748098.750
  19302302.250
  21579895.750
 23  2 18  3  0  5.0000000  0 06G05G06G12G13G20G25 2.27,6.5,3.85
  21808168.750
  19498997.750
  23735099.250
  19786802.250
  21808954.750
  23390415.250
 23  2 18  3 30  9.0000000  0 07G02G11G12G13G20G25G29 2.33,5.0,3.85
  19581627.250
  19109047.750
  20501477.750
  20348454.750
  23971339.250
  19740742.750
  18684969.250
 23  2 18  4  0 11.0000000  0 05G02G11G15G20G29 +2.400,4.0,3.85
  21461072.750
  22167244.750
  22267525.750
  21027689.750
  20394452.750
 23  2 18  4 30  5.0000000  0 06G05G11G13G15G20G29 2.39,3.0,3.85
  19036696.250
  21866891.750
  19834350.250
  20038673.250
  20766949.250
  18976273.750
 23  2 18  5  0  7.0000000  0 07G02G11G15G18G20G23G29 2.37,2.5,3.85
  21568306.250
  18666906.750
  21057312.750
  22896215.250
  23588652.750
  23955123.750
  20943223.250
 23  2 18  5 30 11.0000000  0 05G02G13G18G20G23 +2.360,2.0,3.85
  21073965.750
  21003663.250
  21751399.250
  24206469.750
  22788576.750
 23  2 18  6  0  6.0000000  0 06G02G05G13G15G23G29 5.78,1.0,3.85
  19244070.750
  21033650.750
  19579094.750
  18222605.250
  20234306.750
  20038504.250
 23  2 18  6  2  0.0000000  0 00 +6.000,1.5,3.85,1,70034,-5052849,3878696,4,11.6
 23  2 18 10 30 11.0000000  0 05G10G12G22G23G25 -3.000,-3.0,3.85
  18840724.250
  21957512.250
  19605428.750
  20983717.750
  21026391.750
 23  2 18 11  0 15.0000000  0 04G10G23G28G31 +0.600,-3.0,3.85
  21073875.250
  23787257.250
  20443433.250
  20668339.750
 23  2 18 11 30 10.0000000  0 07G12G21G22G23G25G26G32 0.80,-3.5,3.85
  22886228.750
  22298146.750
  19672416.250
  23796895.250
  21017194.250
  22809785.250
  19997223.750
 23  2 18 12  0  8.0000000  0 07G01G10G21G22G28G31G32 1.00,-4.0,3.85
  21599107.750
  21487910.750
  22518673.750
  19369578.250
  18839958.250
  18582949.250
  20147545.250
 23  2 18 12 30 14.0000000  0 06G10G21G25G28G31G32 +1.200,-3.5,3.85
  20586256.250
  21026484.750
  19718540.750
  23056157.750
  22636839.250
  18541998.250
 23  2 18 13  0 14.0000000  0 05G03G22G26G31G32 +1.200,-3.5,3.85
  20065661.250
  19281616.250
  19021490.750
  18919515.750
  21025278.750
 23  2 18 13 30 11.0000000  0 07G03G16G26G28G29G31G32 +0.880,-4.0,3.85
  21020394.250
  22051501.750
  19928050.750
  21574612.250
  18790919.250
  21018420.250
  23276819.750
 23  2 18 14  0 19.0000000  0 07G03G04G16G22G26G28G31 +0.960,-2.5,3.85
  22164003.250
  23254990.250
  22126329.750
  22803203.250
  21018366.250
  23592692.750
  23035950.750
 23  2 18 14 30  8.0000000  0 08G03G04G09G16G22G26G29G31 1.04,0.0,3.85
  23246470.750
  23108904.750
  19949972.250
  22059551.750
  18278956.250
  22043259.750
  20808308.250
  18653858.250
 23  2 18 15  0 13.0000000  0 06G03G04G16G26G27G28 1.12,3.5,3.85
  22615432.750
  21044514.750
  20301016.250
  21335134.250
  23409444.750
  18744461.250
 23  2 18 15 30 18.0000000  0 05G04G09G16G26G27 +1.200,6.0,3.85
  21037859.750
  22894369.250
  20770146.750
  22685081.250
  22801624.750
 23  2 18 16  0 13.0000000  0 04G03G04G07G16 +0.800,8.0,3.85
  19030015.750
  20791239.750
  18100481.750
  21048973.750
 23  2 18 16 30 21.0000000  0 05G04G08G09G16G27 +1.600,9.5,3.85
  20498191.750
  21513296.250
  20872185.750
  21213285.250
  20901970.250
 23  2 18 17  0 18.0000000  0 06G04G07G08G09G16G27 1.60,11.5,3.85
  21126284.750
  21996113.250
  20778908.750
  20727880.750
  22130592.250
  20915235.250
 23  2 18 17 30 11.0000000  0 06G04G07G08G09G16G27 +1.600,13.0,3.85
  21726382.750
  20963089.750
  20090422.750
  20648672.250
  22818802.750
  21025790.750
 23  2 18 18  0 11.0000000  0 06G04G08G09G21G27G30 +1.600,15.0,3.85
  23750856.250
  21025345.750
  22150496.750
  23810731.250
  22711365.250
  23448331.250
 23  2 18 18 30 11.0000000  0 05G01G04G09G21G30 +1.600,16.0,3.85
  23202694.250
  23526572.750
  21594548.250
  21507263.750
  21024515.250
 23  2 18 19  0 11.0000000  0 05G01G07G08G17G21 +1.600,17.5,3.85
  21024475.750
  18261722.250
  19783890.750
  21402657.750
  19955778.250
 23  2 18 19 30 11.0000000  0 06G01G08G09G14G17G30 +1.600,18.5,3.85
  20666187.750
  21447737.250
  23548454.250
  20301720.750
  21024105.750
  19348001.250
 23  2 18 20  0 11.0000000  0 05G01G07G17G21G30 +1.800,23.0,3.85
  21850023.250
  21602045.750
  22107324.750
  22551848.250
  21027284.250
 23  2 18 20 30 13.0000000  0 00 1.80,20.5,3.85
 23  2 18 21  0 13.0000000  0 00 1.80,21.5,3.85
 23  2 18 21 30 13.0000000  0 00 1.80,22.0,3.85
 23  2 18 22  0 13.0000000  0 00 1.80,22.0,3.85
 23  2 18 22 30 13.0000000  0 00 1.80,21.0,3.85
 23  2 18 23  0 13.0000000  0 00 1.80,21.0,3.85
 23  2 18 23 30 11.0000000  0 05G03G11G14G17G19 +1.800,15.5,3.85
  22993108.250
  21513668.750
  22080217.250
  21025257.250
  19675215.250
 23  2 19  0  0  8.0000000  0 07G06G11G12G14G17G19G20 1.83,12.5,3.85
  23402233.750
  18669732.250
  20151275.250
  21211113.750
  19533105.250
  23784499.250
  21057758.250
 23  2 19  0 30  5.0000000  0 07G06G09G12G17G19G20G25 1.86,12.0,3.85
  22022436.250
  21225442.750
  23485127.250
  18450831.250
  22396206.250
  18171005.750
  19658344.250
 23  2 19  1  0  6.0000000  0 06G06G09G12G17G19G25 1.89,11.5,3.85
  21366112.250
  19338546.250
  21602522.750
  23962087.750
  21690918.750
  23384074.250
 23  2 19  1 30  9.0000000  0 07G09G11G12G17G19G20G25 1.91,11.5,3.85
  19744044.250
  21727066.750
  22181837.250
  19673827.750
  23261098.750
  22035814.250
  23454346.250
 23  2 19  2  0  8.0000000  0 06G06G09G11G12G25G29 1.94,11.0,3.85
  20534318.250
  22361651.250
  18690755.750
  19098804.750
  19789833.750
  22440109.750
 23  2 19  2 30  7.0000000  0 08G02G05G06G11G12G20G25G29 1.97,11.0,3.85
  19809088.750
  23145567.750
  19591684.250
  23248288.250
  23843733.250
  22473782.250
  23949831.750
  19588961.750
 23  2 19  3  0 11.0000000  0 07G02G06G11G12G20G25G29 +2.000,10.5,3.85
  21025935.250
  22288852.250
  19566938.750
  20546174.750
  18527447.250
  20134056.250
  20407966.250
 23  2 19  3 30  6.0000000  0 06G02G05G06G15G25G29 2.00,10.0,3.85
  21230130.750
  18972184.250
  23916704.750
  22727801.250
  21568967.750
  20296218.250
 23  2 19  4  0 11.0000000  0 07G02G05G11G15G18G20G29 +2.000,10.0,3.85
  22097745.250
  20463132.750
  22964863.250
  22801523.750
  18419196.250
  21827619.250
  21024594.250
