     2.00           OBSERVATION DATA    G(GPS)              RINEX VERSION / TYPE
goGPS-java                              17-Apr-24 12:15:48  PGM / RUN BY / DATE
                                                            MARKER NAME
                                                            MARKER NUMBER
                    Lotek Wireless Inc.                     OBSERVER / AGENCY
7                                                           REC # / TYPE / VERS
                                                            ANT # / TYPE
    73993.0000 -5057250.0000  3872763.0000                  APPROX POSITION XYZ
        0.0000        0.0000        0.0000                  ANTENNA: DELTA H / E / N
     2     0                                                WAVELENGTH FACT L1/2
     1    C1                                                # / TYPES OF OBSERV
  2023     2    21     2    27   38.0000000     UTC         TIME OF FIRST OBS
                                                            END OF HEADER
 23  2 21  2 30 13.0000000  0 00 0.13,23.0,3.85
 23  2 21  3  0 13.0000000  0 00 1.62,23.5,3.85
 23  2 21  3 30 11.0000000  0 08G02G05G11G12G15G20G25G29 3.11,21.5,3.85
  23210403.750
  21100644.250
  23219389.750
  18825308.250
  18494283.750
  22069225.250
  23922557.750
  22211932.250
 23  2 21  4  0 11.0000000  0 05G02G12G18G20G29 +4.600,17.0,3.85
  18831473.750
  22086669.750
  21024751.750
  18891569.750
  23756076.250
 23  2 21  4 30 11.0000000  0 04G15G18G20G29 +4.600,17.0,3.85
  19161300.250
  21024276.750
  20648728.250
  18476255.750
 23  2 21  5  0 10.0000000  0 06G02G05G13G18G23G29 4.40,17.0,3.85
  20011737.250
  20411580.750
  19805177.750
  21088484.750
  22130003.750
  19622584.750
 23  2 21  5 30 20.0000000  0 06G02G13G15G18G23G29 +4.200,17.0,3.85
  20787070.750
  20858750.750
  19823389.250
  21176169.750
  22212460.750
  21115364.750
 23  2 21  6  0 20.0000000  0 04G02G15G18G29 +0.200,17.0,3.85
  22205474.750
  21180995.250
  21843457.750
  23361346.250
 23  2 21  6 30 40.0000000  0 04G02G10G23G29 +0.000,17.5,3.85
  21647951.750
  23773265.750
  21424590.250
  23614058.250
 23  2 21  7  0 30.0000000  0 05G10G18G23G24G27 +0.400,17.5,3.85
  21285686.750
  18628453.750
  19304966.750
  20346799.250
  21966342.250
 23  2 21  7 30 11.0000000  0 04G02G18G23G27 +0.800,16.5,3.85
  23343549.750
  20804428.750
  21025691.250
  23728996.250
 23  2 21  8  0 12.0000000  0 06G02G10G18G24G27G32 +0.800,16.5,3.85
  21515908.750
  19051888.750
  18494457.250
  18655237.750
  21025784.250
  20001484.250
 23  2 21  8 30 14.0000000  0 05G18G22G23G27G32 +0.400,17.0,3.85
  22308278.250
  18018055.750
  21054265.750
  18460267.750
  22202490.250
 23  2 21  9  0 11.0000000  0 06G10G22G23G24G27G32 +0.800,17.0,3.85
  21024473.750
  23175558.250
  21334436.250
  22480979.250
  19199429.750
  21683457.750
 23  2 21  9 30 34.0000000  0 05G10G22G28G31G32 +0.400,17.0,3.85
  21433903.250
  23121594.750
  23594249.750
  18444664.750
  21993857.750
 23  2 21 10  0 15.0000000  0 05G10G23G28G31G32 +0.200,17.0,3.85
  21086086.750
  22843111.250
  22187568.750
  22828708.250
  21486011.250
 23  2 21 10 30 15.0000000  0 02G21G32 +1.000,17.0,3.85
  21099652.250
  18625646.750
 23  2 21 11  0 17.0000000  0 04G21G22G28G32 +0.200,17.0,3.85
  23352065.750
  20961858.750
  20308684.750
  21030309.750
 23  2 21 11 30 11.0000000  0 04G01G10G21G28 +1.000,16.5,3.85
  20254606.750
  19643434.250
  21026842.250
  23554758.750
 23  2 21 12  0 17.0000000  0 05G01G03G22G28G31 +0.400,17.0,3.85
  21126158.750
  21150494.750
  18717366.250
  18299325.250
  23963806.250
 23  2 21 12 30 16.0000000  0 04G03G22G26G28 +0.600,17.0,3.85
  21053549.250
  19691371.250
  20036107.750
  19617929.750
 23  2 21 13  0 23.0000000  0 05G03G22G26G28G31 +0.800,17.0,3.85
  21747838.250
  21325756.250
  20678305.250
  21635894.250
  21096336.750
 23  2 21 13 30 14.0000000  0 05G03G04G22G26G31 +0.800,16.5,3.85
  22155107.250
  23828627.250
  22467655.750
  21038981.250
  22544189.750
 23  2 21 14  0 40.0000000  0 03G03G04G31 +0.200,17.0,3.85
  20344139.250
  20944761.250
  21476753.750
 23  2 21 14 30 12.0000000  0 05G03G04G22G26G27 +0.800,13.0,3.85
  21039259.250
  20328119.250
  22182452.750
  19807562.750
  22991361.750
 23  2 21 15  0 17.0000000  0 04G07G09G16G26 +1.000,10.0,3.85
  19909807.250
  23905218.750
  21132554.750
  22557350.750
 23  2 21 15 30 19.0000000  0 05G04G08G16G26G27 +1.200,10.5,3.85
  19676163.750
  22643846.250
  19630094.750
  21837524.250
  21167992.250
 23  2 21 16  0 11.0000000  0 05G03G08G09G16G27 +1.400,12.0,3.85
  18814535.750
  21977070.750
  21029384.750
  20650810.750
  20986652.750
 23  2 21 16 30 17.0000000  0 05G04G08G09G16G27 +0.800,13.5,3.85
  21129890.750
  21591638.250
  21191901.250
  22005876.250
  21275024.250
 23  2 21 17  0 16.0000000  0 02G04G09 0.80,14.0,3.85
  21088894.750
  20406020.750
 23  2 21 17 30 14.0000000  0 05G04G09G14G16G21 +0.800,14.5,3.85
  19209318.750
  17901377.750
  21070505.250
  20303992.750
  20529392.250
 23  2 21 18  0 13.0000000  0 05G07G08G09G21G30 +1.200,15.5,3.85
  21024315.750
  21129874.250
  22467819.250
  23411292.250
  23009747.750
 23  2 21 18 30 16.0000000  0 05G01G07G08G21G30 +0.600,16.5,3.85
  23510655.750
  20095365.750
  21087906.250
  22039777.250
  21474725.250
 23  2 21 19  0 10.0000000  0 06G08G09G14G17G21G30 0.73,18.0,3.85
  19821110.750
  21846330.250
  19661303.750
  20620898.250
  19480891.250
  18627877.250
 23  2 21 19 30  9.0000000  0 06G01G07G13G14G17G30 0.87,18.5,3.85
  18153486.250
  23152160.250
  19832072.250
  23890931.250
  18497110.250
  23034867.750
 23  2 21 20  0 16.0000000  0 04G01G17G19G30 +1.000,19.0,3.85
  18107310.750
  18292320.750
  21036849.250
  23482138.750
 23  2 21 20 30 11.0000000  0 06G01G07G14G17G19G30 +1.400,19.5,3.85
  19018952.750
  20404332.250
  18630963.250
  18862732.250
  21026063.750
  18831480.750
 23  2 21 21  0 11.0000000  0 04G06G14G19G30 +1.400,19.0,3.85
  21025554.250
  25870359.750
  19146174.750
  18519022.750
 23  2 21 21 30 17.0000000  0 06G03G06G13G14G19G30 +1.200,19.5,3.85
  22466907.250
  21056602.750
  22982612.750
  18838339.750
  19735287.750
  20795409.250
 23  2 21 22  0 17.0000000  0 04G06G14G17G30 +0.800,19.0,3.85
  19105588.250
  18292677.750
  18266483.250
  21109263.250
 23  2 21 22 30 31.0000000  0 07G01G03G06G14G17G19G24 +1.400,18.5,3.85
  18879969.250
  23781835.250
  21248482.250
  21865091.750
  21558175.750
  21024561.250
  23759920.750
 23  2 21 23  0 13.0000000  0 05G06G11G14G17G19 +1.200,18.0,3.85
  19846775.250
  22426871.250
  21795882.250
  21057943.750
  19988414.250
 23  2 21 23 30 14.0000000  0 04G06G11G14G19 +1.400,17.5,3.85
  21078535.250
  22857430.250
  18250224.750
  21419349.250
 23  2 22  0  0 11.0000000  0 06G06G11G12G17G19G20 +1.600,17.0,3.85
  20635858.250
  21531611.250
  22850766.750
  22902157.750
  21027419.250
  23689735.750
 23  2 22  0 30 11.0000000  0 05G06G11G12G17G19 +1.600,16.5,3.85
  21027557.250
  21039665.250
  21958396.250
  23526880.750
  21383804.250
 23  2 22  1  0  9.0000000  0 07G05G06G11G12G19G20G25 1.60,16.0,3.85
  20745162.250
  18386208.750
  23582525.250
  18166222.750
  18699627.250
  18324001.250
  19761988.250
 23  2 22  1 30 11.0000000  0 07G02G05G06G12G17G19G25 +1.600,15.5,3.85
  18778680.250
  22498284.250
  22122375.250
  21026413.250
  18888392.250
  22455799.750
  22072030.750
 23  2 22  2  0  7.0000000  0 07G02G05G09G11G12G19G25 1.56,14.5,3.85
  21033738.750
  18457976.750
  21443774.250
  23857856.750
  18316470.250
  20390859.250
  18767154.250
 23  2 22  2 30  7.0000000  0 06G05G09G19G20G25G29 1.52,14.0,3.85
  22837359.750
  20908827.750
  20620285.750
  22490384.750
  18013886.750
  19118002.250
 23  2 22  3  0  5.0000000  0 06G02G05G13G20G25G29 1.48,13.5,3.85
  23884891.250
  21386693.250
  18928455.250
  21786646.250
  23462684.250
  23114456.750
 23  2 22  3 30  6.0000000  0 06G02G05G12G15G25G29 1.44,13.0,3.85
  20762457.750
  18729837.750
  22593908.750
  21936701.750
  21656410.750
  19738244.250
 23  2 22  4  0 12.0000000  0 06G02G05G11G20G25G29 +1.400,13.0,3.85
  20807080.750
  19496903.250
  22165693.750
  21039755.750
  23135480.250
  19743808.750
 23  2 22  4 30  5.0000000  0 06G02G05G15G18G23G29 1.50,13.0,3.85
  19080410.250
  18658102.250
  18814944.250
  20679497.250
  21759690.250
  18253324.750
 23  2 22  5  0  8.0000000  0 07G02G11G13G15G18G23G29 1.60,13.0,3.85
  23732248.250
  21460007.750
  23551159.750
  22993641.250
  18723848.250
  19755700.250
  23424092.750
 23  2 22  5 30 10.0000000  0 07G02G05G10G13G15G18G29 1.70,13.5,3.85
  22587818.750
  18028018.250
  20755547.750
  22715270.750
  21604903.250
  22880728.750
  23016649.250
 23  2 22  6  0 11.0000000  0 07G02G10G15G18G23G24G29 +1.800,13.5,3.85
  21492478.750
  18653591.250
  20473714.750
  21025999.750
  22039532.750
  24093467.750
  22756266.750
 23  2 22  6 30  8.0000000  0 06G10G13G15G18G23G29 1.80,13.5,3.85
  22964573.250
  22174231.250
  20084697.250
  19754169.750
  20658751.750
  23051455.250
 23  2 22  7  0  9.0000000  0 06G02G10G23G24G27G32 1.80,13.5,3.85
  20689885.250
  21256331.750
  19331023.250
  20323625.750
  21981658.750
  22806364.750
 23  2 22  7 30  9.0000000  0 07G02G10G15G18G23G24G32 1.80,14.0,3.85
  20626839.750
  19618297.750
  19983737.750
  18011122.750
  18154123.750
  18829289.750
  20804413.250
 23  2 22  8  0 11.0000000  0 05G10G18G23G27G32 +1.800,14.0,3.85
  21024110.750
  20651449.750
  20107514.750
  23124458.750
  21940635.250
 23  2 22  8 30  9.0000000  0 07G08G10G18G22G23G27G32 2.23,14.0,3.85
  20516577.250
  22738440.750
  23815123.750
  19254349.750
  22451677.750
  19909330.750
  23485307.250
 23  2 22  9  0 10.0000000  0 08G10G18G22G23G24G28G31G32 2.66,14.5,3.85
  21588666.750
  18216003.250
  23669849.250
  22000592.250
  23210430.250
  18633101.750
  19608215.750
  22231691.750
 23  2 22  9 30  5.0000000  0 06G10G22G25G28G31G32 3.08,15.0,3.85
  20604763.750
  22222471.250
  18175065.250
  22630338.250
  23455613.750
  21146914.750
 23  2 22 10  0  8.0000000  0 07G10G21G22G23G25G31G32 3.51,15.0,3.85
  20092881.250
  23201310.250
  21149954.750
  21943928.250
  22726024.250
  21651632.750
  20460676.750
 23  2 22 10 30  5.0000000  0 07G10G21G22G23G28G31G32 3.94,15.5,3.85
  20160633.250
  22655367.250
  20507860.750
  22636782.250
  20020466.750
  20372491.250
  20219067.750
 23  2 22 10 34 29.0000000  0 00 +4.000,16.5,3.85,1,66978,-5051715,3880239,4,1.0
 23  2 22 13  0 14.0000000  0 07G03G16G22G26G28G31G32 -0.11,17.0,3.85
  19670293.750
  21097662.250
  19364796.250
  18597652.250
  19722581.750
  19175890.250
  21360331.750
 23  2 22 13 30  6.0000000  0 06G03G04G16G26G31G32 -0.95,17.0,3.85
  19152046.250
  20709726.750
  19617144.250
  18035538.750
  19665955.250
  22000643.250
 23  2 22 14  0 14.0000000  0 05G03G04G16G22G31 -1.800,17.5,3.85
  20142109.750
  20603713.250
  19471907.250
  21027008.250
  21350977.750
 23  2 22 14 30 17.0000000  0 06G03G04G16G22G27G31 -1.800,18.0,3.85
  21138592.250
  20235164.250
  19317494.250
  22313397.250
  22827333.250
  22697576.250
 23  2 22 15  0 27.0000000  0 05G04G16G26G27G31 -2.400,18.5,3.85
  21266285.750
  20768729.250
  22318174.250
  23312945.250
  25260852.250
 23  2 22 15 30 24.0000000  0 02G08G09 -2.20,19.0,3.85
  23970732.750
  22640795.250
 23  2 22 16  0 10.0000000  0 07G04G07G08G09G16G26G27 -2.00,19.0,3.85
  23843479.750
  20632912.750
  19473280.250
  18594006.250
  18386025.250
  21181222.750
  18563784.250
 23  2 22 16 30 12.0000000  0 05G04G07G08G09G27 -1.800,19.5,3.85
  21025632.250
  22574862.750
  21307908.750
  20984753.750
  21090256.250
 23  2 22 17  0 40.0000000  0 03G08G09G27 -2.600,20.0,3.85
  21460202.250
  21753758.250
  22046410.750
 23  2 22 17 30 40.0000000  0 05G04G07G08G09G30 -2.600,21.5,3.85
  23457342.750
  21735893.250
  21192064.750
  22075565.750
  18141565.750
 23  2 22 18  0  9.0000000  0 06G07G08G09G21G27G30 -2.34,22.0,3.85
  19093858.750
  19316185.750
  20708036.750
  21427245.750
  21358005.750
  21002825.250
 23  2 22 18 30  6.0000000  0 06G01G07G08G14G21G30 -2.07,22.5,3.85
  21270563.250
  17991422.750
  19105091.750
  20323401.250
  19882500.250
  19279701.250
 23  2 22 19  0 22.0000000  0 06G07G13G14G17G21G30 -1.800,23.0,3.85
  20668107.250
  18146693.250
  22238310.750
  23141798.250
  22131612.750
  21220212.250
 23  2 22 19 30  6.0000000  0 06G01G07G08G13G14G21 -1.70,23.0,3.85
  20082119.750
  19255372.750
  21895214.750
  21801813.250
  19843509.250
  20347464.750
 23  2 22 20  0 10.0000000  0 04G01G07G17G19 -1.600,23.0,3.85
  20883118.750
  21311643.250
  21026423.250
  23695093.750
 23  2 22 20 30 11.0000000  0 07G01G07G13G17G19G21G30 -2.040,23.0,3.85
  18980624.750
  20495747.250
  21367079.750
  18753800.250
  20824207.750
  21018592.250
  18837819.750
 23  2 22 21  0  6.0000000  0 06G01G14G17G19G21G30 -1.82,23.0,3.85
  21099509.250
  20124673.750
  20288842.750
  21680757.750
  23755723.250
  21277542.750
 23  2 22 21 30 11.0000000  0 05G03G06G14G17G19 -1.600,22.5,3.85
  22512818.750
  21025035.250
  18997159.250
  19095372.250
  19780314.250
 23  2 22 22  0 11.0000000  0 06G03G06G14G17G19G30 -2.000,21.5,3.85
  23707695.250
  21691742.750
  21074431.250
  21018321.250
  21025743.750
  17992108.250
 23  2 22 22 30 11.0000000  0 05G03G06G14G19G24 -1.600,20.0,3.85
  22848023.750
  20234832.250
  21025189.750
  20065713.250
  22794336.750
 23  2 22 23  0 22.0000000  0 02G06G17 -2.200,19.5,3.85
  19899758.750
  21216492.250
 23  2 22 23 30 15.0000000  0 06G06G11G12G14G17G24 -1.400,18.5,3.85
  19101896.250
  20765837.750
  22394299.750
  22422609.250
  21028025.250
  22493894.250
 23  2 23  0  0 40.0000000  0 04G06G11G12G17 -1.40,18.5,3.85
  21213060.750
  21974794.250
  23232170.750
  23521448.250
 23  2 23  0 30 11.0000000  0 06G06G11G12G17G19G20 -1.400,17.5,3.85
  19746074.750
  19643319.250
  20508665.750
  22265141.250
  20095615.250
  21026825.250
 23  2 23  1  0  6.0000000  0 06G05G06G11G12G19G20 -1.40,17.0,3.85
  19328279.750
  23234574.250
  22334088.250
  22877866.250
  23546229.750
  22974061.750
 23  2 23  1 30 11.0000000  0 05G05G06G19G20G25 -1.400,16.0,3.85
  21138393.250
  21026800.250
  21371124.250
  19391276.250
  20806343.750
 23  2 23  2  0  8.0000000  0 07G05G06G11G12G19G20G25 -1.45,15.5,3.85
  22490255.250
  18205290.250
  22062383.250
  22542130.250
  18691836.250
  21471573.750
  22913587.250
 23  2 23  2 30  7.0000000  0 07G02G05G11G12G20G25G29 -1.51,15.0,3.85
  23895664.250
  21228000.250
  21929486.750
  22712978.250
  20986014.250
  22523461.250
  23441434.250
 23  2 23  3  0  6.0000000  0 08G02G05G11G12G13G20G25G29 -1.56,14.5,3.85
  23228300.750
  20775395.250
  22383925.250
  23621717.750
  18192055.250
  21269029.750
  22971622.750
  22410729.250
 23  2 23  3 30  6.0000000  0 07G02G11G12G15G20G25G29 -1.61,14.0,3.85
  21294299.250
  21615179.750
  23350547.750
  22360709.750
  20462949.250
  22375863.250
  20247859.250
 23  2 23  4  0  5.0000000  0 07G02G13G15G18G20G25G29 -1.67,13.5,3.85
  21134228.750
  21099205.750
  21434638.750
  23195903.750
  21526982.750
  23648769.750
  20084063.750
 23  2 23  4 30 11.0000000  0 06G05G11G15G18G20G29 -1.720,13.5,3.85
  19098914.250
  22105188.750
  19045448.250
  20910371.250
  21018616.250
  18617272.750
 23  2 23  5  0  9.0000000  0 07G02G05G11G13G18G23G29 -1.69,13.0,3.85
  18499282.750
  19161710.250
  22373989.750
  18345427.750
  19398985.750
  20426255.750
  18281146.750
 23  2 23  5 30 10.0000000  0 06G02G05G10G13G18G29 -1.66,12.5,3.85
  23176783.750
  18731574.250
  21219358.250
  23362274.750
  23371982.250
  23717476.750
 23  2 23  6  0  7.0000000  0 07G02G05G13G15G23G24G29 -1.63,12.5,3.85
  21900654.750
  18181481.750
  22593400.750
  20889629.750
  22336516.750
  18322882.250
  23277421.750
 23  2 23  6 30 12.0000000  0 05G02G15G23G27G29 -1.600,12.0,3.85
  21037375.750
  20141646.750
  20563385.750
  23347029.250
  23188399.750
 23  2 23  7  0  6.0000000  0 06G02G15G18G23G27G32 -1.67,12.0,3.85
  19935604.750
  19190749.250
  23853438.750
  18433307.250
  21079453.750
  21801508.750
 23  2 23  7 30  5.0000000  0 07G02G10G15G18G23G24G32 -1.73,11.5,3.85
  19202825.250
  23972007.250
  18571263.250
  22512289.250
  22574965.750
  23226873.750
  19122153.250
 23  2 23  8  0 12.0000000  0 05G02G15G18G22G32 -1.800,11.5,3.85
  21032517.750
  20438726.750
  23910194.250
  20987714.750
  18991760.250
 23  2 23  8 30 11.0000000  0 04G08G10G18G23 -1.000,11.5,3.85
  19088937.750
  21222613.250
  22506549.250
  21027713.250
 23  2 23  9  0  7.0000000  0 07G08G10G22G23G24G28G32 -1.00,11.5,3.85
  21899592.750
  23307389.250
  19331197.750
  23816200.250
  19091121.750
  20219424.750
  23939375.250
 23  2 23  9 30  6.0000000  0 06G22G23G24G25G28G32 -1.00,11.0,3.85
  21661702.750
  21354972.750
  23101398.250
  23562405.750
  21996039.750
  20640325.250
 23  2 23 10  0  9.0000000  0 06G10G12G21G22G31G32 -1.00,11.0,3.85
  19626654.750
  22923699.750
  22650791.250
  20595622.250
  21004704.750
  19961989.250
 23  2 23 10 30  7.0000000  0 06G10G12G21G23G31G32 -1.00,11.0,3.85
  18129746.250
  20898015.250
  20541259.250
  20682631.750
  18157578.750
  18133760.250
 23  2 23 11  0 12.0000000  0 07G01G10G21G22G28G31G32 -1.000,11.0,3.85
  21025163.250
  19725305.750
  21532117.750
  19043338.250
  18372888.750
  18419878.250
  19232513.750
 23  2 23 11 30  9.0000000  0 06G01G22G25G26G31G32 -0.90,11.0,3.85
  22511293.250
  20389569.750
  21970302.750
  22729358.750
  19603196.750
  21019663.750
 23  2 23 12  0 11.0000000  0 06G10G22G26G28G31G32 -0.800,11.5,3.85
  18664879.750
  21739500.750
  22895584.250
  21404149.750
  21027994.750
  22835703.750
 23  2 23 12 30 19.0000000  0 05G01G22G26G28G32 -1.000,12.0,3.85
  18122653.250
  21010177.750
  21059194.750
  21040726.750
  22590254.750
 23  2 23 13  0 27.0000000  0 04G22G26G28G31 -1.20,13.5,3.85
  20642777.750
  19750366.250
  21056029.250
  20504238.750
 23  2 23 13 30 36.0000000  0 06G03G22G26G28G31G32 -1.400,15.0,3.85
  21470455.750
  21953909.250
  20339451.750
  22672446.750
  22108811.750
  18461135.250
 23  2 23 14  0 29.0000000  0 06G03G16G26G28G29G31 -1.200,17.0,3.85
  19267834.250
  18426213.250
  18087524.250
  21094124.750
  22878819.250
  20545487.250
 23  2 23 14 30 40.0000000  0 06G04G09G16G22G27G31 -1.20,18.5,3.85
  20022649.250
  22583039.250
  19154274.250
  22348823.250
  22542119.750
  22726240.750
 23  2 23 15  0 13.0000000  0 04G03G08G09G27 -1.200,17.5,3.85
  21055953.250
  22169692.250
  20556735.250
  20471305.250
 23  2 23 15 30 22.0000000  0 01G04 -1.160,17.0,3.85
  21018264.250
 23  2 23 16  0 13.0000000  0 00 -1.38,20.0,3.85
 23  2 23 16 30 40.0000000  0 03G07G09G27 -1.600,21.0,3.85
  21418234.250
  19928242.250
  20061924.750
 23  2 23 17  0 28.0000000  0 01G07 -1.000,24.0,3.85
  21251455.250
 23  2 23 17 30 12.0000000  0 05G04G08G14G21G27 -0.87,22.0,3.85
  21041724.250
  18643524.750
  22330022.750
  21792473.250
  20102197.250
 23  2 23 18  0  5.0000000  0 07G04G07G08G09G21G27G30 -0.73,25.5,3.85
  22506657.250
  18874598.750
  19214180.250
  20667316.250
  21148948.750
  21337268.250
  20706351.250
 23  2 23 18 30 14.0000000  0 04G07G09G17G30 -0.600,31.5,3.85
  19890197.750
  22964136.250
  23404003.750
  21079638.250
 23  2 23 19  0 15.0000000  0 04G08G17G21G30 -1.200,35.0,3.85
  20856876.750
  21085464.750
  20189969.250
  19228468.250
 23  2 23 19 30  9.0000000  0 06G07G08G14G17G21G30 -0.90,36.5,3.85
  20399391.750
  23110841.750
  20830025.750
  21354703.250
  21442251.250
  20061170.250
 23  2 23 20  0 14.0000000  0 07G01G08G14G17G19G21G30 -0.600,39.5,3.85
  18330622.250
  21998999.250
  18122572.250
  18436062.250
  21024641.750
  19661466.750
  17828594.750
 23  2 23 20 30 10.0000000  0 05G01G13G19G21G30 -0.600,35.0,3.85
  19334439.750
  21763115.750
  21024269.250
  21474493.750
  19242123.250
 23  2 23 21  0 10.0000000  0 07G01G03G07G14G19G21G30 -0.400,26.5,3.85
  20819789.250
  18015761.750
  23234124.750
  19754067.750
  21206317.750
  23544951.250
  21027889.750
 23  2 23 21 30 17.0000000  0 06G14G17G19G21G24G30 -0.600,24.5,3.85
  18962314.750
  19051921.250
  19638722.750
  23809453.750
  22760241.250
  21155541.750
 23  2 23 22  0 23.0000000  0 05G06G11G14G17G19 -0.200,22.5,3.85
  21824043.250
  19382927.250
  21411123.750
  21329274.250
  21245691.750
 23  2 23 22 30 13.0000000  0 05G03G06G17G19G24 -0.400,21.0,3.85
  23150511.750
  20450551.750
  21026801.750
  20346379.250
  23076564.750
 23  2 23 23  0 15.0000000  0 06G03G06G11G14G17G24 -0.840,21.0,3.85
  22008492.250
  18639050.250
  21017687.250
  20927197.750
  20051048.750
  21672473.250
 23  2 23 23 30  9.0000000  0 07G03G06G11G12G19G20G24 -0.52,17.0,3.85
  21801613.750
  23724435.250
  19276753.250
  20869837.750
  18096729.250
  21818824.750
  21182847.250
 23  2 24  0  0 15.0000000  0 06G03G06G11G12G17G19 -0.200,14.5,3.85
  19181189.250
  20394901.250
  21046501.250
  22259892.750
  22727308.250
  20780061.250
 23  2 24  0 30 12.0000000  0 05G06G11G17G19G20 -0.400,14.5,3.85
  20682438.750
  20463772.250
  23220129.750
  21025305.750
  21746489.250
 23  2 24  1  0 11.0000000  0 05G05G06G11G19G25 -0.400,14.5,3.85
  22831400.750
  21025020.750
  20020474.750
  21336266.250
  21991385.250
 23  2 24  1 30 11.0000000  0 06G05G09G12G19G25G29 -0.200,14.5,3.85
  20516357.750
  22765723.750
  19393549.250
  21028206.250
  20283015.750
  23141293.250
 23  2 24  2  0  7.0000000  0 07G02G05G06G12G20G25G29 -0.20,14.0,3.85
  19346975.750
  22712297.750
  18661826.250
  22960535.750
  21800597.250
  23252467.750
  19234222.250
 23  2 24  2 30 11.0000000  0 05G02G11G12G20G25 -0.200,13.5,3.85
  21026673.250
  19213161.250
  20054148.750
  18235326.250
  19792849.250
 23  2 24  3  0  6.0000000  0 07G02G05G12G13G20G25G29 -0.27,12.5,3.85
  20569935.250
  18168663.250
  21189344.750
  21448577.750
  18754616.250
  20484929.250
  19707372.250
 23  2 24  3 30  6.0000000  0 06G02G11G12G13G15G29 -0.34,11.5,3.85
  18409157.250
  18891056.250
  20693075.750
  18735963.250
  19366166.250
  23340513.750
 23  2 24  4  0 10.0000000  0 07G05G11G15G18G20G25G29 -0.42,10.5,3.85
  22130134.750
  18894740.750
  23410383.250
  19206444.250
  23773915.750
  19926558.250
  22179508.750
 23  2 24  4 30  6.0000000  0 06G13G15G18G20G23G29 -0.49,9.5,3.85
  19847517.750
  19672470.250
  21532587.250
  21876444.750
  22587116.250
  19375898.750
 23  2 24  5  0 11.0000000  0 07G02G05G13G18G20G23G29 -0.560,9.0,3.85
  21018175.250
  21811719.250
  20897227.250
  21826585.750
  23943576.750
  22850248.250
  20896198.750
 23  2 24  5 30 11.0000000  0 04G02G10G13G18 +0.000,8.5,3.85
  20779651.250
  18691192.750
  21027974.750
  20873545.250
 23  2 24  6  0 11.0000000  0 04G02G13G15G23 +0.000,7.5,3.85
  21027248.750
  21797817.750
  20026950.750
  21343678.750
 23  2 24  6 30  9.0000000  0 06G02G10G13G23G27G29 -0.20,6.0,3.85
  19226184.250
  20830996.250
  20546053.750
  18619377.250
  21371545.750
  21472808.750
 23  2 24  7  0 12.0000000  0 06G02G10G15G18G27G32 -0.400,5.5,3.85
  20882696.250
  21036048.750
  20158010.250
  18711356.750
  21873428.250
  22481709.250
 23  2 24  7 30  8.0000000  0 08G02G10G15G18G23G24G27G32 -0.20,4.5,3.85
  23101669.750
  21644690.750
  22480950.750
  20344617.750
  20319607.250
  20952177.750
  23101498.250
  22750184.750
 23  2 24  8  0  7.0000000  0 07G08G10G18G22G24G27G32 0.00,3.5,3.85
  18668256.750
  21300077.250
  21299876.250
  18126063.750
  21190955.250
  23670725.250
  22164221.250
 23  2 24  8 30 10.0000000  0 06G08G10G18G23G27G32 +0.200,3.0,3.85
  23488414.750
  19534580.250
  21027758.750
  19433071.750
  23013796.250
  20250921.250
 23  2 24  9  0  8.0000000  0 07G08G10G23G24G27G28G32 -0.02,2.5,3.85
  18139604.750
  19441249.250
  20050803.750
  21385880.250
  18065987.750
  22210473.750
  20061472.750
 23  2 24  9 30 11.0000000  0 06G12G21G22G23G28G32 -0.240,1.5,3.85
  18314513.250
  18072401.250
  21983412.750
  21854301.250
  22242768.250
  21018203.250
 23  2 24 10  0 14.0000000  0 06G10G21G22G25G28G31 +0.200,1.0,3.85
  21079995.250
  18021271.250
  21954771.250
  23443938.750
  21725757.250
  22270013.250
 23  2 24 10 30  6.0000000  0 06G01G21G22G23G25G32 0.00,0.5,3.85
  22631239.750
  22735725.250
  20527885.250
  23034749.750
  21796132.250
  20353723.750
 23  2 24 11  0 15.0000000  0 06G01G10G12G21G25G28 -0.200,0.0,3.85
  20470950.750
  19310030.750
  21589293.750
  21034300.250
  19789118.750
  26203146.750
 23  2 24 11 30  7.0000000  0 08G01G10G21G22G26G28G31G32 1.01,-0.5,3.85
  22580869.750
  22326966.250
  23462541.250
  20417924.250
  22594868.750
  19849122.250
  19628606.250
  21109626.250
 23  2 24 12  0  8.0000000  0 08G01G21G22G25G26G28G31G32 2.22,-1.0,3.85
  19624711.250
  20652231.250
  23019914.750
  19292232.250
  18022653.750
  22729264.750
  22332989.250
  18183518.250
 23  2 24 12 19 18.0000000  0 00 +3.000,0.0,3.85,1,66979,-5051728,3880238,4,1.0
 23  2 24 12 30  9.0000000  0 06G03G04G22G26G28G32 1.62,-1.0,3.85
  20518484.250
  23109423.250
  19562074.250
  19476847.750
  19642153.250
  21202909.250
 23  2 24 13  0 17.0000000  0 04G22G28G31G32 -2.200,-1.0,3.85
  21085685.750
  21538614.750
  20981657.250
  23203912.250
 23  2 24 13 30 11.0000000  0 05G03G04G16G22G31 +1.600,-1.5,3.85
  20461304.750
  21749782.250
  20617911.750
  21026041.250
  21202118.750
 23  2 24 14  0 40.0000000  0 06G03G04G16G28G29G31 +0.800,-1.0,3.85
  21769741.250
  21854192.250
  20766017.250
  23662975.250
  19366994.750
  23115569.750
 23  2 24 14 30  7.0000000  0 06G03G07G22G26G28G31 1.39,-1.5,3.85
  21694534.750
  18735561.750
  22937542.250
  20439722.250
  23823397.750
  23300754.750
 23  2 24 15  0 11.0000000  0 06G03G04G16G26G27G31 +2.000,0.5,3.85
  22362706.750
  19619025.750
  19257921.250
  21030644.750
  21501419.250
  23975298.250
 23  2 24 15 30 11.0000000  0 06G04G08G09G16G26G27 +1.400,1.5,3.85
  19802056.750
  22319866.250
  21097288.250
  19980884.750
  22433335.250
  21018155.250
 23  2 24 16  0  5.0000000  0 06G04G07G08G09G16G27 1.70,4.5,3.85
  19721119.250
  22201668.250
  20990807.750
  20254156.750
  20388014.250
  20255037.750
 23  2 24 16 30 11.0000000  0 04G08G09G16G27 +2.000,6.0,3.85
  21032076.750
  20874600.750
  22127894.750
  21027689.750
 23  2 24 17  0 31.0000000  0 06G04G07G08G09G14G27 +1.600,10.0,3.85
  22759702.250
  22297699.750
  21344603.750
  21801989.250
  19822625.750
  22148763.750
 23  2 24 17 30 11.0000000  0 05G04G08G14G21G27 +2.000,15.0,3.85
  21996226.750
  19465229.250
  23009856.750
  22451657.750
  21027109.250
 23  2 24 18  0 11.0000000  0 05G04G08G09G14G21 +2.000,18.0,3.85
  22121161.750
  18738109.750
  20248866.750
  21025809.750
  20475355.250
 23  2 24 18 30 18.0000000  0 07G01G07G08G14G17G21G30 +1.800,21.0,3.85
  22743017.250
  19786632.750
  21153470.250
  21936524.250
  23140976.250
  21546351.750
  20884344.250
 23  2 24 19  0 14.0000000  0 06G01G08G14G17G21G30 +1.600,20.5,3.85
  21471544.250
  21897094.250
  21047145.750
  21850087.250
  21072766.250
  20061946.250
 23  2 24 19 30  5.0000000  0 06G01G13G14G17G21G30 1.80,18.0,3.85
  22622738.250
  18448140.250
  22424687.750
  22915381.750
  23147980.750
  21705459.750
 23  2 24 20  0 15.0000000  0 05G01G13G14G17G19 +2.000,21.5,3.85
  18454277.750
  20633334.750
  18223163.750
  18518052.750
  21024684.750
 23  2 24 20 30  8.0000000  0 06G01G07G14G17G21G30 1.82,24.0,3.85
  20941862.750
  22715945.250
  20375659.750
  20577126.250
  23173603.250
  20898633.250
 23  2 24 21  0 11.0000000  0 06G01G03G06G17G19G30 +1.640,23.5,3.85
  21018480.750
  24008820.750
  22864094.250
  20008923.750
  21200898.250
  21266461.250
 23  2 24 21 30  5.0000000  0 07G01G03G06G13G14G19G30 1.66,23.5,3.85
  18149931.750
  19529413.250
  23897959.750
  20641777.750
  22251825.250
  22813279.250
  18571994.750
 23  2 24 22  0 11.0000000  0 06G03G06G14G19G24G30 +1.680,23.5,3.85
  23709909.250
  21535560.750
  21311277.750
  21018124.250
  23833552.250
  24427498.250
 23  2 24 22 30 11.0000000  0 05G03G14G17G19G24 +2.200,22.0,3.85
  22647528.750
  21027169.250
  20561561.750
  19802136.750
  22527870.250
 23  2 24 23  0 22.0000000  0 01G14 2.23,19.5,3.85
  21412876.750
 23  2 24 23 30  8.0000000  0 06G06G11G14G17G19G20 2.25,17.0,3.85
  22820409.750
  18254234.250
  20441050.250
  18870626.750
  23197835.250
  20740822.250
 23  2 25  0  0  9.0000000  0 06G06G11G12G17G19G20 2.27,14.5,3.85
  21467793.250
  22000300.250
  23150265.750
  23838886.750
  21852064.250
  23901293.750
 23  2 25  0 30  5.0000000  0 07G06G11G12G17G19G20G25 2.30,12.0,3.85
  21292170.250
  20962171.250
  21725426.250
  23846546.250
  21628851.250
  22146313.750
  23611984.750
 23  2 25  1  0  5.0000000  0 07G06G09G11G17G19G20G25 2.32,10.5,3.85
  19422675.250
  22410191.250
  18320325.750
  22101078.250
  19735071.750
  18763391.750
  20193180.750
 23  2 25  1 30  5.0000000  0 08G02G05G06G12G19G20G25G29 2.35,8.5,3.85
  20154823.750
  23725545.250
  18141038.750
  22780511.750
  18513783.250
  22172237.750
  23591600.750
  20353079.750
 23  2 25  2  0  7.0000000  0 07G02G05G06G12G19G20G29 2.37,7.5,3.85
  22116272.250
  19464844.750
  21641499.250
  19912318.250
  22189277.250
  18661400.250
  21944514.750
 23  2 25  2 30 11.0000000  0 06G02G06G11G12G19G25 +2.400,6.0,3.85
  22688664.250
  23704548.750
  21026919.250
  21927576.750
  18540653.250
  21597165.250
 23  2 25  3  0  5.0000000  0 07G02G05G11G12G13G15G29 2.40,5.5,3.85
  19576907.750
  23228993.250
  19046091.750
  20424090.750
  20374795.750
  21217909.250
  18672342.750
 23  2 25  3 30  5.0000000  0 07G02G05G11G12G13G15G25 2.40,5.5,3.85
  20496844.250
  18732419.750
  21140578.750
  23007638.750
  20756123.250
  21344957.750
  21965188.250
 23  2 25  4  0 11.0000000  0 04G15G20G25G29 +2.400,5.5,3.85
  21024555.750
  21654034.250
  23827763.750
  19915618.250
 23  2 25  4 30  8.0000000  0 07G05G11G13G15G20G23G29 2.45,5.0,3.85
  20898666.750
  23960537.250
  20683237.250
  20437658.250
  22874771.750
  23331088.750
  20278955.250
 23  2 25  5  0  6.0000000  0 07G02G05G13G15G18G20G23 2.49,4.5,3.85
  22706557.750
  23626908.250
  22622613.250
  21840207.250
  23424152.750
  19774747.750
  18449284.250
 23  2 25  5 30  5.0000000  0 07G02G05G10G13G15G18G29 2.54,4.5,3.85
  23359983.750
  19137032.750
  21141038.750
  23672506.250
  22340666.750
  23354112.750
  18135654.750
 23  2 25  6  0  9.0000000  0 08G02G05G10G13G15G23G24G29 2.59,4.5,3.85
  18285940.750
  20731789.750
  20980949.750
  19133343.250
  23294190.750
  18483330.250
  20312254.750
  19894698.750
 23  2 25  6 30  6.0000000  0 06G05G13G15G18G23G24 2.64,4.5,3.85
  20426799.750
  18933783.250
  22685018.250
  21983808.250
  22795935.250
  18076203.750
 23  2 25  7  0  6.0000000  0 06G02G10G15G18G24G27 2.68,4.0,3.85
  20697607.750
  20643156.250
  19991410.250
  18439121.750
  19731171.250
  21544601.750
 23  2 25  7 30  6.0000000  0 06G10G15G18G24G27G32 2.73,4.5,3.85
  20524787.750
  21599047.250
  19387201.750
  19890930.750
  22090519.250
  21592055.250
 23  2 25  8  0  6.0000000  0 06G02G10G22G23G24G32 2.78,4.5,3.85
  22618658.750
  19225014.250
  21982205.250
  18555194.750
  19223551.250
  20064795.250
 23  2 25  8 30  7.0000000  0 07G08G10G12G22G24G27G32 2.82,4.0,3.85
  22927212.750
  18879189.250
  23712908.250
  21205570.750
  19830997.250
  22515479.750
  19581558.750
 23  2 25  9  0  8.0000000  0 07G08G10G18G22G23G25G28 2.87,4.0,3.85
  19234227.750
  20429301.750
  23672215.250
  22319136.250
  21140152.250
  18489786.250
  23057818.750
 23  2 25  9 30  5.0000000  0 07G10G12G21G22G25G28G31 2.92,4.0,3.85
  20560697.750
  18283633.750
  18036858.750
  21957186.250
  23759450.250
  22145619.750
  22894033.750
 23  2 25 10  0  6.0000000  0 08G10G12G22G23G25G28G31G32 2.96,3.5,3.85
  20928620.250
  18078521.250
  21710878.750
  23052436.250
  23161341.250
  21427712.250
  21939072.250
  21190053.250
 23  2 25 10 30  5.0000000  0 07G10G22G23G25G28G31G32 3.01,3.5,3.85
  21458748.750
  21459968.250
  18162079.250
  22715873.250
  20873965.250
  21117289.250
  21343853.750
 23  2 25 11  0 10.0000000  0 07G01G10G21G22G25G26G28 3.06,3.5,3.85
  22743694.750
  21715415.250
  23359580.750
  20752669.750
  22081183.250
  23936481.750
  20081887.750
 23  2 25 11 30 10.0000000  0 07G01G03G10G21G28G31G32 3.11,3.5,3.85
  22234798.250
  22970702.750
  22093835.250
  23147963.750
  19485610.750
  19236718.250
  20779835.750
 23  2 25 12  0  6.0000000  0 07G01G10G21G25G26G31G32 3.15,3.5,3.85
  22000785.250
  22565294.250
  23034327.750
  21692817.250
  20167344.750
  18667129.750
  20549904.750
 23  2 25 12 30 20.0000000  0 02G03G32 +3.200,3.5,3.85
  20285094.750
  21176385.750
 23  2 25 13  0  8.0000000  0 07G03G04G16G22G28G31G32 3.15,3.5,3.85
  20907682.250
  22945258.750
  21951178.250
  20923302.250
  21420254.750
  20859385.750
  23100179.750
 23  2 25 13 30  9.0000000  0 07G03G04G16G22G28G31G32 3.10,3.5,3.85
  20790225.250
  21936987.750
  20792800.750
  21428470.250
  22197239.750
  21632904.750
  18037276.250
 23  2 25 14  0  8.0000000  0 07G03G04G16G22G26G28G31 3.05,4.0,3.85
  22151647.750
  22076915.750
  21007343.750
  23193716.250
  20959813.750
  18095648.750
  23545961.750
 23  2 25 14 30 13.0000000  0 07G03G04G16G22G27G28G31 +3.000,5.0,3.85
  22540993.750
  21038408.750
  20273553.750
  23807946.750
  23435865.250
  18683144.750
  18163085.750
 23  2 25 15  0  9.0000000  0 08G03G04G07G08G09G16G26G27 2.80,8.0,3.85
  19892073.750
  22956840.250
  20941512.750
  20384281.750
  18844201.750
  22668102.750
  18551702.250
  18756992.250
 23  2 25 15 30 13.0000000  0 05G04G07G08G16G27 +2.600,8.0,3.85
  23714809.750
  21047795.250
  20075246.750
  23969757.250
  18841025.250
 23  2 25 16  0 14.0000000  0 05G04G07G08G16G27 +3.400,9.0,3.85
  19998212.250
  22307278.250
  21078859.250
  20728771.750
  20439554.250
 23  2 25 16 30 13.0000000  0 06G04G07G08G09G16G30 +3.000,11.0,3.85
  21406688.750
  22349939.250
  21130076.750
  21054630.750
  22446715.750
  19306475.750
 23  2 25 17  0 10.0000000  0 06G04G07G08G09G16G27 3.20,12.0,3.85
  18030139.250
  23347916.750
  22457611.750
  22989551.250
  19175112.250
  23361718.250
 23  2 25 17 30 14.0000000  0 06G07G08G09G16G27G30 +3.400,13.0,3.85
  19620552.250
  19366612.250
  20468007.750
  23096879.750
  21025513.750
  21837760.750
 23  2 25 18  0 11.0000000  0 04G07G08G09G21 +3.600,13.5,3.85
  20440949.750
  21028101.250
  22600751.250
  22591550.750
 23  2 25 18 30 26.0000000  0 04G01G07G08G30 +3.600,16.0,3.85
  22405901.250
  19611934.750
  21102688.750
  20605572.250
 23  2 25 19  0 11.0000000  0 04G14G17G21G30 +3.600,15.5,3.85
  21991305.250
  22738565.250
  22087154.250
  21026532.750
 23  2 25 19 30 17.0000000  0 06G01G07G08G14G17G21 +3.800,14.5,3.85
  20474611.750
  20189792.750
  23037093.750
  20304015.750
  20753825.750
  21141343.750
 23  2 25 20  0 14.0000000  0 04G01G14G17G21 +3.600,14.5,3.85
  21000742.750
  20750807.750
  21025575.750
  22575927.250
 23  2 25 20 30 17.0000000  0 05G01G13G14G17G19 +3.600,14.5,3.85
  21464180.250
  23945722.250
  20830469.750
  21025505.750
  22811115.250
 23  2 25 21  0 10.0000000  0 07G01G06G13G14G19G21G30 3.60,17.0,3.85
  23802448.250
  19374024.250
  20371168.750
  22545890.250
  23783155.750
  20645197.250
  18085862.750
 23  2 25 21 30 11.0000000  0 05G01G06G17G19G30 +3.600,18.5,3.85
  22581300.250
  22026535.250
  20628400.750
  21024771.750
  23019561.750
 23  2 25 22  0 12.0000000  0 06G03G06G11G14G17G24 +3.000,19.0,3.85
  23287151.750
  21031670.750
  18489315.250
  21003432.250
  20841801.250
  23378747.750
 23  2 25 22 30  9.0000000  0 06G03G06G11G14G17G19 3.40,19.0,3.85
  19610781.750
  22729234.750
  19640486.750
  18086214.750
  23556636.750
  22724230.250
 23  2 25 23  0 11.0000000  0 05G06G11G14G17G19 +3.800,19.0,3.85
  18859559.750
  21027370.750
  21494615.250
  20453096.250
  19132026.250
 23  2 25 23 30 10.0000000  0 05G06G11G14G19G20 +3.800,18.5,3.85
  21027444.750
  22335312.250
  24790013.750
  21412366.750
  18757944.750
 23  2 26  0  0 11.0000000  0 05G06G11G12G17G19 +3.800,17.5,3.85
  20617047.250
  21026809.750
  22119185.750
  23017812.250
  20996569.750
 23  2 26  0 30  9.0000000  0 07G05G06G12G17G19G20G25 3.70,16.0,3.85
  19960746.750
  22713928.250
  22983486.250
  19288710.750
  23044659.750
  23350411.250
  18816320.750
 23  2 26  1  0  8.0000000  0 08G05G06G11G12G17G19G20G25 3.60,15.0,3.85
  23705766.250
  22450337.250
  21249062.750
  21704551.750
  19145947.250
  22765612.750
  21594883.250
  23022479.750
 23  2 26  1 30  8.0000000  0 08G02G05G06G09G11G12G19G29 3.50,13.5,3.85
  18036742.750
  21562585.750
  22236110.750
  18092431.750
  20402753.750
  20804748.250
  22626749.750
  18183661.250
 23  2 26  2  0 11.0000000  0 06G05G06G11G12G19G25 +3.400,12.5,3.85
  20236453.750
  22641129.250
  20302515.250
  20885928.750
  23223250.750
  21018284.250
 23  2 26  2 30 11.0000000  0 04G02G11G12G29 +3.800,11.0,3.85
  22535048.250
  21025223.250
  21987744.250
  21908569.750
 23  2 26  3  0 11.0000000  0 06G02G11G13G15G20G29 +3.480,10.5,3.85
  22532765.750
  22163782.250
  23248835.750
  18066859.250
  21018436.250
  21588809.250
 23  2 26  3 30 10.0000000  0 07G02G05G12G13G15G20G25 3.49,9.5,3.85
  19795634.250
  18132531.250
  22536088.750
  19989363.750
  20533861.750
  19457870.250
  21463121.750
 23  2 26  4  0 10.0000000  0 07G02G05G15G18G20G25G29 3.51,8.5,3.85
  22420573.250
  21586695.250
  22432961.250
  18276664.750
  23320799.750
  19522152.750
  21446938.750
 23  2 26  4 30 11.0000000  0 07G05G11G13G15G18G23G29 +3.520,8.5,3.85
  19847749.250
  22935843.250
  19502548.250
  19185121.250
  21017944.750
  22053004.250
  19165476.750
 23  2 26  5  0 10.0000000  0 06G02G05G13G15G18G29 3.55,7.5,3.85
  21047406.750
  22096766.250
  21006405.250
  20146380.750
  21669605.750
  21128171.250
 23  2 26  5 30  9.0000000  0 06G02G13G15G18G23G29 3.59,7.0,3.85
  23123351.250
  23505243.250
  22098983.750
  23012691.250
  18036607.250
  18018958.750
 23  2 26  6  0  8.0000000  0 06G02G10G13G15G23G24 3.62,6.5,3.85
  20014220.750
  22547458.250
  20938787.750
  19041256.250
  20090212.750
  21842149.250
 23  2 26  6 30  6.0000000  0 07G02G15G18G23G24G27G29 3.66,6.0,3.85
  21138830.250
  20306967.750
  19482582.250
  20257128.250
  21463958.250
  22957519.250
  23566600.250
 23  2 26  7  0  6.0000000  0 06G02G10G15G18G24G32 3.69,5.5,3.85
  23275873.750
  23006557.250
  22587423.250
  20930988.250
  22112667.250
  18357003.750
 23  2 26  7 30  8.0000000  0 07G02G10G18G23G24G27G32 3.73,5.5,3.85
  19509046.750
  23586378.250
  22618112.750
  22408910.750
  23018770.250
  19271863.750
  18620985.250
 23  2 26  8  0 10.0000000  0 06G10G18G23G24G27G32 3.76,5.0,3.85
  18065199.750
  18461932.250
  23478946.250
  18179486.250
  20728169.750
  18881899.750
 23  2 26  8 30 11.0000000  0 07G10G18G22G23G24G27G32 +3.800,5.0,3.85
  21018207.250
  22936155.750
  23281330.250
  21108455.250
  22123143.250
  18819951.250
  21706946.750
 23  2 26  8 43 58.0000000  0 00 +7.000,5.5,3.85,1,66976,-5051729,3880243,4,1.0
 23  2 26 11  0 16.0000000  0 04G10G21G31G32 -2.600,6.0,3.85
  21025940.250
  22589359.750
  19198635.750
  20287550.250
 23  2 26 11 30  5.0000000  0 07G10G22G25G26G28G31G32 -1.28,5.5,3.85
  22131065.750
  19908656.250
  21689902.750
  21759251.250
  19400970.250
  19126100.750
  20724448.250
 23  2 26 12  0  9.0000000  0 06G21G22G26G28G31G32 0.06,5.5,3.85
  18723205.250
  20931949.750
  21616872.750
  20736879.250
  20303282.250
  22219846.750
 23  2 26 12 30 19.0000000  0 01G16 +1.400,5.0,3.85
  21092385.750
 23  2 26 13  0 13.0000000  0 06G03G04G16G22G28G31 +1.600,4.5,3.85
  20119802.750
  22056841.750
  21025574.250
  20236606.250
  20777285.750
  20213091.750
 23  2 26 13 30 15.0000000  0 05G03G04G16G22G26 +1.000,5.0,3.85
  22175328.750
  23170970.750
  22019150.250
  22884590.750
  21032578.250
 23  2 26 14  0 15.0000000  0 04G03G22G26G31 +1.600,5.5,3.85
  22224996.250
  23311493.250
  21024814.750
  23670108.750
 23  2 26 14 30 13.0000000  0 00 1.65,6.5,3.85
 23  2 26 15  0  8.0000000  0 06G03G04G08G09G16G27 1.70,9.0,3.85
  18469667.250
  21351761.250
  18650466.750
  23148320.750
  21136181.250
  23059625.750
 23  2 26 15 30 10.0000000  0 07G04G07G08G09G16G26G27 1.75,10.0,3.85
  18648326.750
  21859519.250
  20843527.250
  19740154.250
  18975979.250
  21568786.250
  19678332.250
 23  2 26 16  0 12.0000000  0 05G07G08G16G26G27 +1.800,11.0,3.85
  19414770.750
  18170290.250
  18060725.750
  21026852.250
  26014736.250
 23  2 26 16 30  8.0000000  0 07G04G07G08G09G14G27G30 1.50,12.0,3.85
  21349174.750
  22076742.750
  20895054.250
  20893830.250
  19835730.750
  21102176.250
  18995758.250
 23  2 26 17  0 23.0000000  0 04G04G07G09G27 +1.200,13.0,3.85
  21946433.750
  21011168.750
  20818684.750
  21218658.250
 23  2 26 17 30 11.0000000  0 06G04G08G09G16G21G30 +1.800,13.5,3.85
  22652805.750
  19854346.750
  21024969.750
  23694872.250
  22529825.250
  22145586.750
 23  2 26 18  0 11.0000000  0 05G01G07G08G21G30 +2.000,14.0,3.85
  24768769.250
  21027641.750
  21736671.250
  23117466.750
  22606310.750
 23  2 26 18 30  6.0000000  0 06G01G08G14G17G21G30 2.00,14.5,3.85
  18412770.250
  23347461.750
  23696522.250
  18804689.250
  23403551.750
  22646342.750
 23  2 26 19  0 11.0000000  0 05G07G13G14G17G30 +2.000,15.5,3.85
  20906002.750
  23864222.750
  21961133.750
  22672834.250
  21026787.750
 23  2 26 19 30  6.0000000  0 07G01G07G13G17G19G21G30 1.90,15.5,3.85
  21667218.250
  21547592.250
  23589069.750
  21918036.750
  18804070.750
  22451300.750
  20884205.750
 23  2 26 20  0  8.0000000  0 06G01G07G14G17G21G30 1.80,16.0,3.85
  20608616.250
  21669443.750
  20315493.750
  20579663.750
  22290468.750
  20285297.750
 23  2 26 20 30  6.0000000  0 07G01G07G14G17G19G21G30 1.70,16.0,3.85
  19071448.250
  21082110.750
  18364723.250
  18552843.250
  20247945.750
  21478723.250
  19119595.250
 23  2 26 21  0 11.0000000  0 07G01G06G13G14G17G19G30 +1.600,15.5,3.85
  22372697.250
  23658622.750
  18939113.750
  21018277.250
  21153759.250
  22149550.750
  22681017.750
 23  2 26 21 30  8.0000000  0 06G01G03G06G17G19G30 1.80,15.5,3.85
  20766144.250
  21692440.250
  19919619.250
  18691370.250
  18996181.750
  21217930.250
 23  2 26 22  0 26.0000000  0 04G06G14G19G24 +2.000,15.0,3.85
  21183978.250
  21359389.250
  20810660.750
  23583395.250
 23  2 26 22 30 14.0000000  0 05G03G06G14G19G24 +2.200,14.5,3.85
  23951786.750
  20983420.250
  22521898.750
  21027645.250
  23765567.250
 23  2 26 23  0 11.0000000  0 05G03G06G11G17G19 +2.200,14.0,3.85
  23003785.750
  19352008.250
  21410764.250
  21027754.250
  19649194.250
 23  2 26 23 30 11.0000000  0 05G06G14G17G19G20 +2.200,13.5,3.85
  21027040.750
  18933518.250
  23177678.250
  21417129.750
  18566363.250
 23  2 27  0  0  9.0000000  0 06G06G11G12G17G19G20 2.20,13.0,3.85
  19094796.750
  19386367.250
  20423293.250
  21521624.750
  19468993.250
  21103282.250
 23  2 27  0 30  9.0000000  0 08G05G06G11G12G17G19G20G25 2.20,12.0,3.85
  21693605.250
  18720977.250
  18166864.250
  18835515.250
  21306267.250
  19046604.750
  19147542.250
  20605470.750
 23  2 27  1  0 10.0000000  0 07G05G06G11G17G19G20G25 2.20,11.5,3.85
  18677616.250
  23691849.750
  22395452.250
  20400348.750
  18015896.250
  22647520.750
  18077591.750
 23  2 27  1 30 11.0000000  0 06G05G06G11G12G19G20 +2.200,11.0,3.85
  19686299.750
  20615176.750
  18703321.250
  19116621.250
  21025784.250
  18336973.250
 23  2 27  2  0 13.0000000  0 07G02G05G06G11G12G19G25 +1.800,11.0,3.85
  22885618.250
  20207299.750
  22829533.750
  20429023.250
  21054794.250
  23447361.750
  21109896.250
 23  2 27  2 30 11.0000000  0 05G02G05G11G25G29 +2.400,10.5,3.85
  21822492.750
  19232396.250
  20463732.750
  21028260.750
  21142589.750
 23  2 27  3  0 11.0000000  0 06G02G05G11G13G20G29 +2.400,10.0,3.85
  22390875.750
  20180093.750
  22178880.750
  23029131.250
  21027623.750
  21412415.750
 23  2 27  3 30  9.0000000  0 06G02G05G13G15G20G29 2.10,10.0,3.85
  18806705.750
  23241355.750
  18940677.250
  19440439.250
  18631942.250
  23713629.750
 23  2 27  4  0 13.0000000  0 05G05G11G13G18G20 +1.800,10.0,3.85
  20523053.750
  23402175.750
  21050814.250
  23010410.250
  22297628.750
 23  2 27  4 30  9.0000000  0 07G02G05G13G18G20G23G29 4.60,10.0,3.85
  19230147.250
  19469779.750
  19004157.750
  20427055.750
  21492568.750
  21454856.250
  18732002.750
 23  2 27  4 34 28.0000000  0 00 +5.000,11.0,3.85,1,66973,-5051731,3880241,6,1.6
 23  2 27 15 30  6.0000000  0 06G04G07G08G09G16G27 -1.69,18.5,3.85
  20154059.750
  23244709.750
  22185768.250
  21146920.750
  20552198.750
  21092110.750
 23  2 27 16  0 12.0000000  0 05G04G08G09G16G27 -2.000,19.5,3.85
  21026808.750
  21744587.750
  21237600.250
  21869352.750
  21295524.250
 23  2 27 16 30 11.0000000  0 05G04G07G08G16G27 -2.000,20.0,3.85
  21342405.750
  21868186.750
  20706882.750
  22441959.750
  21026272.750
 23  2 27 17  0 15.0000000  0 06G08G09G16G21G27G30 -2.600,21.5,3.85
  19955369.250
  20649188.250
  22991754.250
  23560238.250
  21070961.250
  23228139.750
 23  2 27 17 30 11.0000000  0 06G04G08G09G21G27G30 -2.440,22.0,3.85
  22698329.250
  19779722.250
  21018562.250
  22290738.250
  21620270.250
  21893981.750
 23  2 27 18  0  9.0000000  0 07G01G07G08G09G21G27G30 -2.33,23.0,3.85
  18757709.250
  21144169.250
  21973041.750
  23650907.750
  23174148.750
  18398296.250
  22636599.750
 23  2 27 18 30 10.0000000  0 07G01G07G08G09G14G17G21 -2.22,24.0,3.85
  23871725.250
  21380379.750
  23089359.750
  19069563.250
  23216082.750
  18268481.750
  22972235.250
 23  2 27 19  0  6.0000000  0 06G07G08G14G17G21G30 -2.11,25.0,3.85
  22403307.750
  18853360.750
  23322266.750
  17996289.250
  23599847.250
  22417750.250
 23  2 27 19 30 11.0000000  0 04G01G14G17G19 -2.000,26.0,3.85
  17986674.750
  26199032.750
  18211684.250
  21023584.250
 23  2 27 20  0 11.0000000  0 05G01G07G19G21G30 -1.800,27.0,3.85
  19819231.250
  21028184.250
  21992039.750
  21612607.750
  19552825.750
 23  2 27 20 30  6.0000000  0 07G01G07G14G17G19G21G30 -1.80,27.5,3.85
  21781617.750
  23901284.250
  20998719.750
  21180864.250
  22781394.250
  18273122.750
  21872050.750
 23  2 27 21  0 11.0000000  0 06G01G03G06G17G19G30 -1.800,28.5,3.85
  22353594.250
  18702774.250
  23357332.250
  21026612.750
  21926164.250
  22688693.250
 23  2 27 21 30  6.0000000  0 06G01G03G06G17G19G30 -1.70,28.5,3.85
  22860136.250
  23568159.750
  21723075.750
  20662250.750
  20877013.750
  23323596.250
 23  2 27 22  0 11.0000000  0 05G03G06G11G14G17 -1.600,28.5,3.85
  23446656.750
  21028823.750
  18367240.250
  21382247.750
  21136925.250
 23  2 27 22 30 13.0000000  0 04G06G14G17G19 -1.800,28.0,3.85
  19310610.750
  21025958.250
  20372016.250
  19399256.750
 23  2 27 23  0 17.0000000  0 05G03G11G14G17G19 -1.800,27.5,3.85
  22879015.250
  21077519.750
  22091898.750
  20885925.750
  19451025.250
 23  2 27 23 30 12.0000000  0 07G06G11G12G14G17G19G24 -2.00,26.5,3.85
  19226434.750
  20293991.750
  21671781.250
  23263425.250
  21422311.250
  19619647.250
  22901024.250
 23  2 28  0  0 18.0000000  0 05G06G12G17G19G20 -2.200,25.5,3.85
  20722841.750
  21872531.250
  23174324.750
  21090874.250
  22512328.750
 23  2 28  0 30  6.0000000  0 06G05G11G12G17G19G20 -2.08,24.0,3.85
  23058794.250
  19692222.250
  20318988.750
  22950600.750
  20673363.250
  20574949.250
 23  2 28  1  0  6.0000000  0 06G05G06G11G17G19G20 -1.96,22.0,3.85
  22673125.750
  21954663.250
  20568417.250
  18675689.250
  22280795.250
  20731870.250
 23  2 28  1 30  6.0000000  0 06G05G06G11G12G19G25 -1.84,21.5,3.85
  21855092.750
  23023987.250
  21039174.250
  21467639.250
  23455765.750
  22037402.750
 23  2 28  2  0 10.0000000  0 07G02G05G09G11G12G20G25 -1.72,19.5,3.85
  19198992.750
  22510895.750
  20392794.750
  22879874.750
  23550342.750
  22027302.250
  23531533.750
 23  2 28  2 30 11.0000000  0 06G02G11G13G20G25G29 -1.600,18.5,3.85
  21756853.250
  20548371.750
  22896758.250
  19467943.250
  21116054.250
  21025960.750
 23  2 28  3  0 18.0000000  0 07G02G05G11G12G13G20G29 -2.200,17.5,3.85
  22352602.750
  20216359.250
  22300501.750
  23891307.250
  22913532.250
  21144987.750
  21343071.250
 23  2 28  3 30  6.0000000  0 06G02G05G13G20G25G29 -1.90,16.5,3.85
  23216000.750
  21758700.750
  23294861.750
  23202014.750
  19269414.250
  22129297.250
 23  2 28  4  0 10.0000000  0 06G05G13G15G18G20G29 -1.600,15.5,3.85
  21025326.250
  21406255.250
  21449130.750
  23317053.250
  22836216.250
  20713938.250
 23  2 28  4 30  8.0000000  0 06G02G05G11G13G18G29 -1.60,14.5,3.85
  21366008.750
  21735386.250
  18874944.250
  21155392.750
  22479639.750
  20947481.250
 23  2 28  5  0 10.0000000  0 04G05G13G15G29 -1.600,14.0,3.85
  22262535.750
  21024423.750
  20014206.750
  21262708.250
 23  2 28  5 29  4.0000000  0 00 +1.000,13.5,3.85,1,66978,-5051713,3880250,4,0.8
 23  2 28 11 30  8.0000000  0 08G03G10G21G22G25G28G31G32 -0.71,6.5,3.85
  22787437.750
  22833379.250
  23652686.250
  20293929.250
  22232378.750
  19859322.750
  19539987.250
  21234789.250
 23  2 28 12  0  7.0000000  0 07G01G03G22G26G28G31G32 -0.86,5.5,3.85
  18739251.250
  23238640.250
  21828240.250
  22212291.750
  21732700.750
  21268372.750
  23242570.750
 23  2 28 12 30 11.0000000  0 06G03G22G26G28G31G32 -1.000,5.0,3.85
  21481673.750
  21026838.250
  20409174.250
  21313661.250
  20768261.250
  22920673.750
 23  2 28 13  0 22.0000000  0 01G22 -1.00,5.0,3.85
  21071672.750
 23  2 28 13 30 14.0000000  0 05G03G16G22G26G31 -1.000,5.0,3.85
  19921653.250
  19451603.250
  20758302.250
  18765607.250
  21025910.250
 23  2 28 14  0 22.0000000  0 02G04G27 -1.600,8.0,3.85
  18397364.250
  21066292.250
 23  2 28 14 30 13.0000000  0 00 -1.50,10.0,3.85
 23  2 28 15  0 23.0000000  0 05G03G07G08G16G27 -1.400,12.5,3.85
  18761125.250
  19028316.750
  24290579.250
  21218806.250
  22800771.750
 23  2 28 15 30 27.0000000  0 02G09G27 -1.040,12.5,3.85
  22747404.750
  22707965.750
 23  2 28 16  0 15.0000000  0 05G04G08G09G16G27 -1.000,14.0,3.85
  23937944.750
  21470781.750
  21040892.750
  21833096.250
  21122034.750
 23  2 28 16 30 40.0000000  0 03G08G09G27 -1.600,16.5,3.85
  21029460.250
  21212360.750
  21471745.250
 23  2 28 17  0 22.0000000  0 01G08 -1.400,15.0,3.85
  21032965.250
 23  2 28 17 30 11.0000000  0 05G04G07G09G14G27 -0.800,16.0,3.85
  22131652.250
  19020106.250
  20402341.750
  21983033.750
  21026018.750
 23  2 28 18  0 30.0000000  0 05G07G08G09G14G30 -0.600,17.0,3.85
  21354702.750
  22317922.250
  24049806.750
  23788861.250
  22747750.750
 23  2 28 18 30 23.0000000  0 04G01G07G08G30 -0.800,17.0,3.85
  22873665.750
  20559804.250
  22386495.250
  21238887.250
 23  2 28 19  0 15.0000000  0 01G17 -1.000,17.5,3.85
  21091334.750
 23  2 28 19 30 18.0000000  0 05G01G07G17G19G30 -0.800,18.0,3.85
  21149879.750
  21380186.250
  21344741.750
  18086262.250
  20500908.750
 23  2 28 20  0 22.0000000  0 01G30 -1.400,19.0,3.85
  21123622.250
 23  2 28 20 30 11.0000000  0 06G01G07G14G17G19G30 -1.120,19.5,3.85
  20886251.250
  23113504.250
  20019669.750
  20195681.250
  21697268.750
  21018576.250
 23  2 28 21  0 13.0000000  0 04G01G06G14G30 -1.000,20.0,3.85
  20342838.750
  21053695.250
  18786761.250
  20703280.750
 23  2 28 21 30 40.0000000  0 05G03G06G14G17G19 -1.400,21.0,3.85
  23451155.250
  21522125.750
  20678086.750
  20661285.750
  20774340.750
 23  2 28 22  0 22.0000000  0 02G17G19 -1.200,22.5,3.85
  21143684.250
  20642885.750
 23  2 28 22 30 40.0000000  0 05G03G11G17G19G24 -1.400,24.0,3.85
  21989354.750
  21451008.250
  20014973.250
  18971366.250
  21742159.750
 23  2 28 23  0 20.0000000  0 01G19 -0.600,24.5,3.85
  21098324.250
 23  2 28 23 30 34.0000000  0 04G06G11G19G20 -0.800,25.5,3.85
  20427862.250
  21360343.250
  20820681.250
  23539471.750
 23  3  1  0  0 12.0000000  0 05G06G11G17G19G20 -0.600,24.5,3.85
  20667689.750
  20720835.750
  23131502.750
  21024635.250
  22235839.750
 23  3  1  0 30 21.0000000  0 02G09G19 -0.800,24.5,3.85
  21074202.750
  23883210.750
 23  3  1  1  0 22.0000000  0 07G02G05G06G09G11G12G17 -0.60,20.5,3.85
  23603830.250
  21323360.750
  20895140.250
  23282865.250
  19411986.250
  19816256.250
  23625394.250
 23  3  1  1 30 10.0000000  0 06G02G05G06G11G12G19 -0.400,18.0,3.85
  23608086.750
  21026958.750
  22446347.750
  20386302.750
  20835470.750
  22902827.750
 23  3  1  2  0  9.0000000  0 08G02G05G06G11G12G20G25G29 -0.40,17.5,3.85
  19714768.250
  23026068.750
  20063417.250
  23542579.750
  18266663.250
  22648226.750
  18172999.250
  19308140.250
 23  3  1  2 30  6.0000000  0 06G05G06G11G12G13G20 -0.40,17.0,3.85
  22061706.750
  20390532.750
  23522520.250
  18683053.250
  19645766.750
  22423860.750
 23  3  1  3  0 12.0000000  0 04G11G12G25G29 -0.400,16.5,3.85
  22165414.750
  23824222.250
  22886017.750
  21025449.750
 23  3  1  3 30 11.0000000  0 05G02G11G13G15G29 -0.400,15.5,3.85
  22104077.750
  23397050.250
  22128829.250
  22532163.750
  21025390.750
 23  3  1  4  0  5.0000000  0 07G05G11G13G15G20G23G29 -0.40,15.0,3.85
  21263468.250
  18212138.750
  21499688.750
  21479974.250
  23108404.750
  18425809.750
  20872691.250
 23  3  1  4 30 11.0000000  0 06G02G13G15G18G20G29 -0.400,14.5,3.85
  21355995.250
  21166707.250
  20632616.250
  22381356.250
  23920091.250
  21025062.250
 23  3  1  5  0  8.0000000  0 06G02G05G13G15G18G29 -0.36,14.0,3.85
  19631695.750
  21043530.250
  19740505.250
  18655101.250
  19967693.250
  20035552.750
 23  3  1  5 30  7.0000000  0 07G02G05G10G15G18G24G29 -0.32,14.0,3.85
  18726681.250
  20902076.250
  21942024.750
  23702319.750
  18305940.250
  21396355.250
  19969007.250
 23  3  1  6  0  5.0000000  0 06G02G05G13G15G18G24 -0.28,14.0,3.85
  18043764.250
  20768211.750
  19194761.250
  23118574.750
  22837113.250
  19270530.250
 23  3  1  6 30 10.0000000  0 06G02G15G18G24G27G32 -0.24,14.0,3.85
  23769971.250
  23001332.750
  21820219.250
  23477255.750
  19120168.750
  19991979.250
 23  3  1  7  0 11.0000000  0 05G02G18G23G24G27 -0.200,14.0,3.85
  23444038.250
  20857621.250
  21026107.250
  21713600.750
  23739809.250
 23  3  1  7 30 10.0000000  0 06G02G10G18G23G24G32 -0.20,13.5,3.85
  23599748.250
  20988402.250
  20547346.250
  20041975.250
  20656790.750
  21922185.250
 23  3  1  8  0  8.0000000  0 08G08G10G18G22G23G24G27G32 -0.20,13.0,3.85
  18133603.750
  20388688.750
  21388190.250
  22893910.250
  20070352.750
  20874438.250
  23500732.250
  21147700.750
 23  3  1  8 30  5.0000000  0 06G10G18G22G23G28G32 -0.20,12.5,3.85
  18524787.750
  21065848.750
  20604126.250
  18902973.250
  21596372.750
  19177393.750
 23  3  1  9  0  5.0000000  0 07G10G22G23G25G28G31G32 -0.20,12.0,3.85
  22696602.250
  18322550.750
  23806973.250
  20313093.250
  18760863.750
  19642263.750
  23248817.250
 23  3  1  9 30  5.0000000  0 07G10G12G21G23G25G31G32 -0.20,11.0,3.85
  20920434.750
  18327552.750
  18057555.250
  22744649.250
  23603267.250
  22575462.250
  21302922.750
 23  3  1 10  0  8.0000000  0 06G10G12G21G23G25G28 -0.20,11.0,3.85
  19289615.750
  22151064.750
  21809630.250
  21748149.750
  20984640.750
  19191047.750
 23  3  1 10 30  5.0000000  0 06G01G10G12G22G28G31 -0.20,10.5,3.85
  23943349.750
  22453541.750
  18866526.750
  21951666.250
  21291905.250
  21412586.250
 23  3  1 11  0 20.0000000  0 05G10G12G21G22G32 -0.200,10.0,3.85
  22722716.250
  18786001.250
  18049053.750
  21167404.750
  21718156.750
 23  3  1 11 30 11.0000000  0 07G01G10G21G22G25G26G32 -0.440,9.5,3.85
  20755139.250
  21018808.750
  21758240.250
  18317765.750
  20342785.250
  19677385.750
  19322321.250
 23  3  1 12  0 15.0000000  0 04G22G26G31G32 -0.400,9.5,3.85
  20857328.750
  21087929.250
  20326835.250
  22337661.250
 23  3  1 12 30  9.0000000  0 06G16G22G26G28G31G32 0.64,9.0,3.85
  20798440.250
  19027983.750
  18287677.750
  19364409.750
  18798501.250
  20982926.750
 23  3  1 13  0  9.0000000  0 06G03G04G16G22G28G31 1.68,9.0,3.85
  22181606.250
  23782521.250
  22663763.250
  22571155.250
  23228402.250
  22635327.750
 23  3  1 13  9 25.0000000  0 00 +2.000,10.0,3.85,1,66964,-5051727,3880247,6,1.4
 23  3  1 14  0 19.0000000  0 05G03G09G16G26G31 -0.400,11.5,3.85
  22389711.250
  18195400.250
  20611715.750
  21164043.250
  23915009.750
 23  3  1 14 30 12.0000000  0 05G04G09G16G26G27 -0.400,13.5,3.85
  18954441.250
  21104263.250
  18430586.750
  19939687.250
  21032385.250
 23  3  1 15  0 35.0000000  0 04G04G09G16G26 -0.400,16.0,3.85
  19663313.250
  21173968.250
  19684771.250
  21953536.750
 23  3  1 15 30 14.0000000  0 05G04G08G09G16G27 +0.200,17.0,3.85
  20783314.250
  22463982.750
  21561279.750
  21025365.750
  21531905.250
 23  3  1 16  0 11.0000000  0 05G04G08G09G16G27 +0.200,19.0,3.85
  21034910.750
  21385045.250
  21024897.750
  21970387.750
  21133972.750
 23  3  1 16 30 11.0000000  0 05G04G07G09G16G27 +0.200,21.0,3.85
  19887765.750
  19955823.250
  19144301.750
  21025262.250
  19430552.750
 23  3  1 17  0 11.0000000  0 05G04G07G09G27G30 +0.200,23.0,3.85
  22372953.750
  20741254.250
  21024562.250
  21501015.250
  23161538.250
 23  3  1 17 30 10.0000000  0 07G04G07G08G09G14G27G30 0.20,23.5,3.85
  23720603.750
  20383699.250
  20574153.750
  21945874.750
  23285095.250
  22590601.750
  22310954.250
 23  3  1 18  0 14.0000000  0 07G07G08G09G17G21G27G30 +0.200,24.5,3.85
  19172161.250
  20250171.750
  22025894.250
  22898676.750
  21077085.250
  22802034.250
  20477404.750
 23  3  1 18 30 11.0000000  0 05G07G08G09G21G30 +0.400,25.0,3.85
  19552050.250
  21481557.750
  23512232.250
  21026871.750
  20129149.750
 23  3  1 19  0 26.0000000  0 05G01G07G14G17G30 +0.400,26.0,3.85
  21292973.750
  20437383.750
  21045716.750
  21631023.750
  20220106.750
