     2.00           OBSERVATION DATA    G(GPS)              RINEX VERSION / TYPE
goGPS-java                              17-Apr-24 14:17:09  PGM / RUN BY / DATE
                                                            MARKER NAME
                                                            MARKER NUMBER
                    Lotek Wireless Inc.                     OBSERVER / AGENCY
7                                                           REC # / TYPE / VERS
                                                            ANT # / TYPE
    73993.0000 -5057250.0000  3872763.0000                  APPROX POSITION XYZ
        0.0000        0.0000        0.0000                  ANTENNA: DELTA H / E / N
     2     0                                                WAVELENGTH FACT L1/2
     1    C1                                                # / TYPES OF OBSERV
  2023     2     9    20     5    4.0000000     UTC         TIME OF FIRST OBS
                                                            END OF HEADER
 23  2 10  0  0 13.0000000  0 00 0.31,23.0,3.80
 23  2 10  0 30 13.0000000  0 00 0.35,23.0,3.80
 23  2 10  1  0 13.0000000  0 00 0.39,23.0,3.80
 23  2 10  1 30 13.0000000  0 00 0.43,23.0,3.80
 23  2 10  2  0 13.0000000  0 00 0.47,23.0,3.80
 23  2 10  2 30 13.0000000  0 00 0.51,23.0,3.80
 23  2 10  3  0 22.0000000  0 00 0.55,23.0,3.80
 23  2 10  3 30 13.0000000  0 00 0.58,23.0,3.80
 23  2 10  4  0 13.0000000  0 00 0.62,23.0,3.80
 23  2 10  4 30 13.0000000  0 00 0.66,23.0,3.80
 23  2 10  5  0 13.0000000  0 00 0.70,23.0,3.80
 23  2 10  5 30 13.0000000  0 00 0.74,23.0,3.80
 23  2 10  6  0 13.0000000  0 00 0.78,23.0,3.80
 23  2 10  6 30 13.0000000  0 00 0.82,23.0,3.80
 23  2 10  7  0 13.0000000  0 00 0.86,23.0,3.80
 23  2 10  7 30 13.0000000  0 00 0.90,23.0,3.80
 23  2 10  8  0 13.0000000  0 00 0.94,23.0,3.80
 23  2 10  8 30 13.0000000  0 00 0.98,23.0,3.80
 23  2 10  9  0 13.0000000  0 00 1.02,23.0,3.80
 23  2 10  9 30 13.0000000  0 00 1.06,23.0,3.80
 23  2 10 10  0 13.0000000  0 00 1.10,23.0,3.80
 23  2 10 10 30 13.0000000  0 00 1.14,23.0,3.80
 23  2 10 10 37 52.0000000  0 00 0.00,23.5,3.80,0
 23  2 10 11 38 10.0000000  0 00 0.00,24.0,3.80,0
 23  2 10 12 38 10.0000000  0 00 0.00,23.5,3.80,0
 23  2 10 13 38 10.0000000  0 00 0.00,23.5,3.80,0
 23  2 10 14 38 10.0000000  0 00 0.00,23.5,3.80,0
 23  2 10 15 38 10.0000000  0 00 0.00,23.5,3.80,0
 23  2 10 16 38 10.0000000  0 00 0.00,23.5,3.80,0
 23  2 10 17 38 10.0000000  0 00 0.00,23.5,3.80,0
 23  2 10 18 38 10.0000000  0 00 0.00,23.5,3.80,0
 23  2 10 19 38 10.0000000  0 00 0.00,24.0,3.80,0
 23  2 10 20 38 10.0000000  0 00 0.00,24.0,3.80,0
 23  2 10 21 38 10.0000000  0 00 0.00,24.0,3.80,0
 23  2 10 22 38 10.0000000  0 00 0.00,23.5,3.80,0
 23  2 10 23 38 10.0000000  0 00 0.00,23.5,3.80,0
 23  2 11  0  0 18.0000000  0 04G06G11G14G19 +2.200,19.5,3.80
  18583963.250
  20753404.250
  21156973.250
  18839664.750
 23  2 11  0 30 17.0000000  0 04G06G11G12G17 +2.400,19.0,3.80
  19808445.750
  21134379.750
  22662183.250
  21915941.250
 23  2 11  1  0  8.0000000  0 07G06G11G12G17G19G20G24 2.30,19.0,3.80
  20673363.750
  21119586.250
  22255618.250
  23098279.250
  21048585.750
  22942428.750
  18611051.750
 23  2 11  1 30 11.0000000  0 06G06G11G12G17G20G25 +2.200,14.0,3.80
  21024728.750
  20623249.750
  21369452.750
  23634422.250
  21720646.250
  23157053.250
 23  2 11  2  0  9.0000000  0 08G02G05G06G09G11G17G19G25 2.20,1.5,3.80
  21069153.750
  19021713.750
  23612594.250
  20522251.250
  22460937.250
  20356068.750
  23921021.750
  18233946.250
 23  2 11  2 30 16.0000000  0 04G05G09G11G19 +2.200,-1.0,3.80
  22357883.250
  18814779.250
  21113482.750
  23274616.250
 23  2 11  3  0 18.0000000  0 05G02G05G06G11G20 +2.600,-2.0,3.80
  23792697.750
  21157909.750
  23441408.750
  21156862.750
  20411109.250
 23  2 11  3 30 25.0000000  0 05G05G06G11G12G20 +1.800,-2.5,3.80
  21224384.250
  18968334.750
  22291580.250
  23222979.250
  21268523.250
 23  2 11  4  0 11.0000000  0 05G02G05G11G20G29 +2.600,-2.5,3.80
  21433692.250
  19138802.750
  21027151.750
  19895082.250
  20544150.750
 23  2 11  4 30 11.0000000  0 06G05G11G13G15G20G29 +2.600,-3.0,3.80
  19683340.250
  22158610.750
  21605934.250
  22164499.250
  21026065.250
  20330403.250
 23  2 11  5  0 11.0000000  0 06G02G05G11G13G15G20 +2.240,-3.0,3.80
  21909967.750
  21018326.250
  23883106.250
  21773083.750
  21956439.750
  22792382.750
 23  2 11  5 30 11.0000000  0 07G02G05G11G13G15G20G29 +2.800,-3.0,3.80
  21026756.250
  21065765.250
  18194687.250
  20789940.250
  20496607.750
  23125060.750
  20425344.250
 23  2 11  6  0  9.0000000  0 06G02G05G13G15G20G29 2.80,-3.5,3.80
  23531361.250
  18509385.250
  23474974.250
  22641678.750
  20735384.250
  23557304.250
 23  2 11  6 30 11.0000000  0 05G02G05G13G15G18 +2.800,-3.5,3.80
  22049362.250
  23858193.250
  22405772.750
  21024565.250
  21954846.250
 23  2 11  7  0  8.0000000  0 06G10G13G15G18G24G29 3.00,-4.0,3.80
  23485582.750
  21802907.750
  19928048.250
  20041477.750
  22800829.250
  22550920.250
 23  2 11  7 30 11.0000000  0 06G02G10G15G18G23G29 +3.200,-4.5,3.80
  21873933.250
  23149419.750
  21030047.750
  20236701.750
  21035533.750
  18230729.750
 23  2 11  8  0 11.0000000  0 05G02G18G23G24G32 +3.000,-4.5,3.80
  22937496.250
  20610095.250
  21024673.250
  21824602.750
  18069874.750
 23  2 11  8 30 11.0000000  0 05G02G10G18G23G27 +3.200,-4.5,3.80
  24081848.750
  22221701.250
  21208760.750
  21027029.750
  23870988.250
 23  2 11  9  0 11.0000000  0 04G02G10G15G23 +3.200,-5.0,3.80
  21631772.250
  18062092.750
  21026583.250
  23450305.750
 23  2 11  9 30 11.0000000  0 05G10G18G22G23G24 +3.200,-5.0,3.80
  21024440.250
  22885303.250
  23359623.750
  21081418.750
  22069771.750
 23  2 11 10  0 11.0000000  0 06G10G18G22G23G28G31 +3.400,-5.5,3.80
  21026823.750
  18425648.750
  22914488.250
  21800691.750
  23597551.250
  24488892.250
 23  2 11 10 30 11.0000000  0 06G10G18G22G28G31G32 +3.400,-5.5,3.80
  21025680.750
  19808946.250
  22400788.250
  22539085.750
  23248356.250
  21485581.750
 23  2 11 11  0 11.0000000  0 06G10G21G22G28G31G32 +3.040,-5.5,3.80
  20793814.250
  23596630.750
  21530422.250
  21211784.250
  21684389.750
  21018298.750
 23  2 11 11 30 11.0000000  0 05G10G12G21G31G32 3.3716,-6.0,3.80
  21024549.750
  23608039.750
  20819044.250
  20557912.750
  20858502.250
 23  2 11 12  0  9.0000000  0 06G10G21G22G25G28G32 3.70,-6.0,3.80
  23358019.750
  18945985.750
  22298918.750
  23670178.250
  21632997.250
  22643318.750
 23  2 11 12 30  7.0000000  0 06G01G22G26G28G31G32 4.03,-6.0,3.80
  22200286.750
  19953077.750
  21878298.250
  19435961.750
  19170667.250
  20758383.250
 23  2 11 13  0  9.0000000  0 06G10G22G26G28G31G32 4.37,-6.0,3.80
  19234275.250
  21862669.750
  22624988.250
  21653330.250
  21231126.250
  23151962.250
 23  2 11 13 27 52.0000000  0 00 0.00,-5.0,3.80,0
 23  2 11 14 28 10.0000000  0 00 0.00,-1.0,3.80,0
 23  2 11 15 27 57.0000000  0 00 +6.000,1.5,3.80,1,67071,-5050949,3881269,6,1.2
 23  2 11 17 30 20.0000000  0 04G04G07G08G09 -1.800,6.5,3.80
  21599601.250
  22405103.250
  21185466.250
  21158777.250
 23  2 11 18  0 11.0000000  0 05G04G08G09G27G30 -1.800,7.0,3.80
  22140464.750
  20441451.250
  21025086.250
  21408213.750
  23906261.750
 23  2 11 18 30 13.0000000  0 06G04G08G09G14G21G30 -1.70,7.0,3.80
  19428571.750
  22642795.750
  23792965.250
  19935306.750
  19387247.750
  19022458.250
 23  2 11 19  0 11.0000000  0 05G01G08G09G17G30 -1.600,7.5,3.80
  18158148.250
  21027631.250
  22641709.750
  18535176.750
  21993056.250
 23  2 11 19 30 11.0000000  0 04G01G09G14G21 -1.600,8.0,3.80
  22061557.250
  22843840.750
  21336018.250
  21026554.250
 23  2 11 20  0 16.0000000  0 04G01G07G17G21 -1.800,8.5,3.80
  21110101.750
  19626783.250
  21450483.250
  20916489.750
 23  2 11 20 30 11.0000000  0 05G01G07G17G21G30 -1.600,9.0,3.80
  20283793.750
  20073560.750
  20522313.750
  21025751.250
  19481792.750
 23  2 11 21  0 23.0000000  0 04G01G07G08G21 -1.800,8.5,3.80
  21238275.250
  22214195.250
  25375391.750
  22885706.250
 23  2 11 21 30 16.0000000  0 02G07G30 -1.400,8.5,3.80
  21103925.750
  19202641.750
 23  2 11 22  0 40.0000000  0 07G01G03G06G13G17G19G21 -2.400,8.5,3.80
  20036739.250
  22656156.750
  21427895.750
  22609746.750
  18849858.750
  19896838.250
  22910498.250
 23  2 11 22 30 22.0000000  0 06G03G06G14G17G19G24 -1.400,7.5,3.80
  18244426.750
  22512533.750
  21173365.250
  21211494.250
  21558833.750
  24545459.750
 23  2 11 23  0 15.0000000  0 05G03G06G14G17G19 -1.400,7.0,3.80
  21026310.750
  18729418.750
  18806801.750
  18628849.250
  18320565.250
 23  2 11 23 30 14.0000000  0 04G03G14G17G19 -1.400,6.0,3.80
  23056385.250
  21576777.750
  21025836.250
  20136576.250
 23  2 12  0  0 11.0000000  0 04G06G14G17G24 -1.400,5.0,3.80
  21024907.250
  23757293.750
  22684893.250
  18199182.250
 23  2 12  0 30 11.0000000  0 04G12G14G19G20 -1.200,3.0,3.80
  23335831.250
  18503526.750
  21027895.250
  18217040.750
 23  2 12  1  0 11.0000000  0 05G06G11G17G19G20 -1.200,2.0,3.80
  18573082.750
  18900471.250
  21027269.750
  18943387.250
  20630514.250
 23  2 12  1 30 11.0000000  0 06G06G11G12G17G19G20 -1.200,0.0,3.80
  20704492.750
  20194991.750
  20894474.750
  23330573.250
  21026332.250
  21192886.750
 23  2 12  2  0 12.0000000  0 05G02G06G09G11G25 -1.800,0.0,3.80
  19520231.250
  22278161.750
  19037351.250
  21032202.750
  22706486.250
 23  2 12  2 30 11.0000000  0 05G06G09G11G19G20 -1.200,-1.0,3.80
  19220306.250
  21024408.750
  23358706.750
  19617605.250
  23010636.250
 23  2 12  3  0 40.0000000  0 03G09G11G20 -1.800,-1.0,3.80
  18868993.250
  21359805.250
  20562014.750
 23  2 12  3 30 22.0000000  0 02G06G29 -1.600,-2.0,3.80
  23059538.250
  21119430.250
 23  2 12  4  0  6.0000000  0 06G05G11G13G15G20G29 -1.20,-2.5,3.80
  18661271.250
  20639083.250
  21567857.750
  22361898.250
  19501600.250
  19967821.250
 23  2 12  4 30 11.0000000  0 04G11G13G15G18 -0.800,-3.0,3.80
  21799635.750
  21026591.250
  21541068.750
  23152237.250
 23  2 12  5  0  6.0000000  0 07G02G05G11G13G15G20G29 -0.86,-3.0,3.80
  23837063.750
  23065036.750
  19971381.250
  23670957.250
  23796766.750
  18884928.250
  22897154.250
 23  2 12  5 30 23.0000000  0 02G05G13 -0.92,-3.5,3.80
  21917985.750
  21514595.250
 23  2 12  6  0 19.0000000  0 02G18G29 -0.98,-4.0,3.80
  21136473.250
  20729147.750
 23  2 12  6 30 11.0000000  0 06G02G13G18G23G24G29 -1.040,-4.0,3.80
  20083859.250
  20508177.750
  19888243.250
  20930646.250
  23173053.250
  21018587.250
 23  2 12  7  0 11.0000000  0 05G02G05G15G23G29 -0.600,-4.5,3.80
  18496555.250
  21025555.750
  25919232.250
  18494738.750
  20247398.250
 23  2 12  7 30 10.0000000  0 06G02G05G18G23G24G29 -0.50,-4.0,3.80
  22334921.750
  19248526.750
  20600342.250
  21359362.750
  22515162.750
  18774749.750
 23  2 12  8  0 10.0000000  0 04G02G18G24G32 -0.400,-4.5,3.80
  20156668.750
  23742970.750
  18853243.250
  21026078.750
 23  2 12  8 30  6.0000000  0 06G02G10G15G18G23G24 -0.33,-4.5,3.80
  21434599.250
  19352617.750
  20827254.750
  18503856.750
  18229852.750
  18830047.250
 23  2 12  9  0 10.0000000  0 06G10G15G18G22G23G24 -0.27,-4.5,3.80
  22839269.250
  20030594.250
  23378043.250
  19551455.250
  22316184.750
  23025225.750
 23  2 12  9 30 12.0000000  0 04G10G22G23G24 -0.200,-5.0,3.80
  20892817.250
  23165580.750
  21044487.250
  22088029.250
 23  2 12 10  0 11.0000000  0 04G08G21G23G31 -0.200,-5.0,3.80
  22699767.750
  21683013.750
  18594232.750
  21024116.750
 23  2 12 10 30 12.0000000  0 05G10G12G23G25G31 -0.400,-5.5,3.80
  19445121.250
  23025289.250
  21038685.750
  22420769.250
  21491542.250
 23  2 12 11  0 21.0000000  0 05G10G23G25G31G32 -0.400,-5.5,3.80
  21201667.750
  23458576.250
  23202279.750
  21901737.750
  21381778.250
 23  2 12 11 30  9.0000000  0 07G10G21G22G23G25G28G32 -0.10,-5.5,3.80
  19803157.250
  21909284.750
  19607807.750
  22596154.250
  20855239.250
  18984315.750
  19572926.250
 23  2 12 12  0 26.0000000  0 06G10G12G21G25G28G32 +0.200,-5.0,3.80
  21306451.250
  23440929.250
  22804507.750
  21504921.750
  19435326.250
  20501651.750
 23  2 12 12 30 10.0000000  0 07G01G10G21G25G28G31G32 0.20,-5.0,3.80
  22916872.250
  22958375.750
  23868719.750
  22495845.250
  20132376.750
  19841839.750
  21484590.250
 23  2 12 13  0 12.0000000  0 05G01G26G28G31G32 +0.200,-5.5,3.80
  18021557.750
  21811716.250
  21042952.750
  20604135.750
  22557683.250
 23  2 12 13 30 20.0000000  0 06G16G22G28G29G31G32 -0.200,-5.0,3.80
  23532337.750
  21179762.750
  21404552.750
  19566517.750
  20881378.250
  23029309.250
 23  2 12 14  0 13.0000000  0 05G03G22G26G29G31 +0.400,-4.5,3.80
  20843036.250
  21005397.750
  19751181.250
  18608083.750
  21025959.750
 23  2 12 14 30 31.0000000  0 04G04G22G29G31 -0.200,-1.5,3.80
  21524737.250
  21382629.750
  24317419.750
  21654553.250
 23  2 12 15  0  8.0000000  0 06G04G22G26G27G28G31 0.06,1.5,3.80
  19094387.250
  20565689.750
  18274430.750
  21876519.750
  21481132.250
  20953830.250
 23  2 12 15 30 10.0000000  0 08G03G04G07G16G22G27G28G31 0.33,5.0,3.80
  18313692.750
  22459036.250
  20771545.750
  21804525.250
  19571469.250
  18749051.250
  20428820.250
  19926694.250
 23  2 12 16  0 11.0000000  0 06G07G08G09G16G27G31 +0.600,7.5,3.80
  23268924.250
  22589303.250
  21103253.250
  19202638.750
  21025377.750
  18181139.250
 23  2 12 16 30 12.0000000  0 04G08G09G16G27 +0.400,10.5,3.80
  22772819.250
  21696637.250
  21040284.250
  21648071.750
 23  2 12 17  0 24.0000000  0 05G07G08G09G26G27 +0.800,10.5,3.80
  22508678.750
  21239351.250
  20697053.250
  18252772.250
  20753294.250
 23  2 12 17 30 10.0000000  0 05G04G07G08G09G27 +0.800,11.5,3.80
  21619451.750
  22216558.750
  21027756.750
  21082535.750
  21302248.250
 23  2 12 18  0 10.0000000  0 05G04G08G09G16G27 +0.800,12.0,3.80
  22888325.750
  21027309.250
  21692666.750
  17987862.750
  22102473.750
 23  2 12 18 30  6.0000000  0 06G04G08G09G16G27G30 0.80,12.0,3.80
  23261972.250
  20358428.750
  21577259.750
  18242992.250
  22164266.250
  22559460.750
 23  2 12 19  0  8.0000000  0 06G08G09G17G21G27G30 0.80,12.5,3.80
  19471747.750
  21138377.250
  22716998.250
  20743617.250
  21868135.250
  20227344.250
 23  2 12 19 30 11.0000000  0 04G01G07G08G21 +0.800,13.0,3.80
  21955886.250
  19399104.250
  21078099.750
  21025834.250
 23  2 12 20  0 24.0000000  0 05G01G07G13G14G21 +0.600,13.0,3.80
  21251188.250
  19951380.250
  22843224.250
  20936670.250
  21187673.250
 23  2 12 20 30 14.0000000  0 05G01G07G08G14G30 +0.200,13.0,3.80
  21049737.250
  21014605.750
  23965865.250
  20879752.750
  20314720.750
 23  2 12 21  0 22.0000000  0 02G01G13 +0.600,13.0,3.80
  21220406.750
  23516290.250
 23  2 12 21 30 16.0000000  0 02G01G07 +1.000,12.5,3.80
  21101646.250
  23144627.750
 23  2 12 22  0 12.0000000  0 05G01G06G14G17G19 1.0000,12.0,3.80
  19871833.250
  21007152.750
  18461949.250
  18588639.750
  19546076.250
 23  2 12 22 30 21.0000000  0 06G03G06G14G17G19G30 +1.000,12.0,3.80
  23775394.250
  21971969.750
  20829095.250
  20845517.250
  21097870.250
  23444864.750
 23  2 12 23  0 18.0000000  0 04G03G14G17G24 +0.400,11.0,3.80
  21141620.750
  19033861.750
  18813083.250
  21169592.250
 23  2 12 23 30 21.0000000  0 06G03G06G14G17G19G24 +0.800,9.5,3.80
  22594804.250
  19560573.250
  21208807.750
  20591370.750
  19627479.250
  22366411.750
 23  2 13  0  0 24.0000000  0 05G03G06G14G17G24 +1.200,7.0,3.80
  23259440.250
  19521916.250
  22427861.750
  21268592.750
  22755565.750
 23  2 13  0 30 11.0000000  0 05G03G06G11G12G17 +1.000,5.5,3.80
  21025432.750
  22568362.250
  23659484.250
  19087858.250
  18780816.750
 23  2 13  1  0 11.0000000  0 04G06G12G19G20 +1.200,4.0,3.80
  20663237.750
  21893150.750
  21027821.250
  22505675.250
 23  2 13  1 30 22.0000000  0 04G05G17G19G20 +0.840,3.0,3.80
  23517487.250
  23329289.250
  21003662.750
  20955264.250
 23  2 13  2  0  5.0000000  0 07G02G05G06G09G11G19G25 1.02,2.0,3.80
  22891034.250
  20727582.250
  19864322.750
  22475132.750
  18527601.250
  20182554.250
  20111422.750
 23  2 13  2 30 34.0000000  0 04G05G06G11G12 +1.200,2.0,3.80
  21340202.250
  22402622.750
  20462089.750
  20885499.750
 23  2 13  3  0 40.0000000  0 07G02G06G09G11G12G19G20 +0.400,3.0,3.80
  21471166.250
  21548128.250
  22639179.750
  19137554.250
  19789526.750
  22188087.750
  18294464.250
 23  2 13  3 30 11.0000000  0 04G11G13G20G29 +1.400,2.5,3.80
  21027616.750
  23445636.250
  19960896.750
  21606810.750
 23  2 13  4  0  6.0000000  0 06G11G12G13G15G20G29 1.35,2.0,3.80
  20412858.250
  21957840.750
  21103570.750
  21865549.250
  19271483.750
  19547472.750
 23  2 13  4 30 10.0000000  0 07G02G13G15G18G20G25G29 1.30,2.0,3.80
  19471705.250
  19573118.250
  20040621.750
  21694340.250
  19442731.250
  21487037.750
  18408779.750
 23  2 13  5  0 10.0000000  0 07G02G05G11G13G18G23G26 1.25,1.5,3.80
  21867942.250
  21225004.750
  18168813.250
  21675963.750
  23580085.750
  18708020.250
  19442541.250
 23  2 13  5 30 13.0000000  0 05G05G13G15G20G23 +1.200,2.0,3.80
  21574009.250
  21056249.250
  20619399.750
  23679755.750
  23448163.250
 23  2 13  6  0 11.0000000  0 04G02G13G15G18 +1.600,2.5,3.80
  21026625.250
  21063938.750
  20079019.250
  21471900.250
 23  2 13  6 30 11.0000000  0 05G02G05G10G13G24 +1.600,3.0,3.80
  21025961.250
  23038131.250
  24419762.750
  21522164.250
  23934279.750
 23  2 13  7  0 10.0000000  0 07G02G05G10G15G18G24G29 1.50,3.0,3.80
  22265832.250
  18868716.750
  18513521.250
  21317321.750
  21186480.250
  23754687.250
  18128477.750
 23  2 13  7 30  9.0000000  0 06G02G05G15G18G24G29 1.40,3.0,3.80
  21751373.750
  18701589.250
  20950222.250
  19918344.250
  21723875.750
  18271846.250
 23  2 13  8  0  9.0000000  0 07G02G08G15G18G24G27G32 1.30,4.0,3.80
  23237170.250
  19543951.250
  22568904.750
  20746497.250
  21742553.250
  23701588.750
  23841052.250
 23  2 13  8 30 23.0000000  0 04G10G18G24G32 +1.200,5.0,3.80
  21228898.250
  20568886.750
  20788165.250
  22186055.750
 23  2 13  9  0 10.0000000  0 07G02G18G22G23G24G27G32 1.50,5.5,3.80
  19148331.750
  21859199.250
  23760400.250
  20682201.250
  21425844.250
  18035034.250
  21885449.750
 23  2 13  9 30 14.0000000  0 04G08G10G18G23 +1.800,5.5,3.80
  19153361.250
  20830408.750
  23113924.250
  21080205.250
 23  2 13 10  0 11.0000000  0 04G10G12G18G21 1.90,5.0,3.80
  23231758.250
  21327420.750
  21026708.250
  21111069.250
 23  2 13 10 30 10.0000000  0 06G10G12G22G23G28G31 +2.000,4.5,3.80
  21027443.250
  18531681.250
  22239439.250
  22716883.250
  22241375.750
  22893688.750
 23  2 13 11  0 10.0000000  0 05G10G22G23G25G31 +2.000,4.0,3.80
  21026901.750
  21558632.250
  23363842.250
  22898710.750
  21547635.750
 23  2 13 11 30 10.0000000  0 08G01G10G12G22G23G25G31G32 1.93,3.5,3.80
  19534497.250
  23854087.250
  20323524.250
  23528746.250
  20714817.250
  18784218.250
  23024957.750
  23554417.250
 23  2 13 12  0 10.0000000  0 07G10G21G22G25G26G31G32 1.87,3.0,3.80
  22562029.750
  17988286.250
  21207211.750
  22662143.250
  17991861.250
  20450356.250
  21675309.750
 23  2 13 12 30 15.0000000  0 02G10G32 +1.800,2.5,3.80
  22666503.250
  21094356.250
 23  2 13 13  0 11.0000000  0 06G21G22G26G28G31G32 +2.200,1.0,3.80
  23529628.250
  19606483.750
  20063841.750
  19497583.250
  19043143.750
  21027485.250
 23  2 13 13 30 17.0000000  0 05G16G22G26G31G32 +1.600,2.5,3.80
  23183028.250
  21052020.250
  20501802.250
  20796996.250
  22965390.250
 23  2 13 14  0 11.0000000  0 04G22G26G28G31 +2.200,5.0,3.80
  21025762.750
  19672564.750
  21640663.750
  21084674.750
 23  2 13 14 30 11.0000000  0 07G03G04G16G22G26G27G31 +2.200,8.5,3.80
  20246489.250
  20966119.250
  19852683.750
  21025154.250
  19084717.250
  18033368.250
  21318406.750
 23  2 13 15  0 13.0000000  0 00 2.23,14.0,3.80
 23  2 13 15 30 13.0000000  0 00 2.25,18.0,3.80
 23  2 13 16  0 13.0000000  0 00 2.28,20.0,3.80
 23  2 13 16 30 13.0000000  0 00 2.30,21.0,3.80
 23  2 13 17  0 20.0000000  0 00 2.33,21.5,3.80
 23  2 13 17 30 13.0000000  0 00 2.35,21.5,3.80
 23  2 13 18  0 13.0000000  0 00 2.38,22.0,3.80
 23  2 13 18 30 13.0000000  0 00 2.40,22.0,3.80
 23  2 13 19  0 13.0000000  0 00 2.43,22.0,3.80
 23  2 13 19 30 13.0000000  0 00 2.45,22.5,3.80
 23  2 13 20  0 13.0000000  0 00 2.48,22.5,3.80
 23  2 13 20 30 13.0000000  0 00 2.50,23.0,3.80
 23  2 13 21  0 13.0000000  0 00 2.53,23.0,3.80
 23  2 13 21 30 13.0000000  0 00 2.55,23.0,3.80
 23  2 13 22  0 13.0000000  0 00 2.58,23.0,3.80
 23  2 13 22 30 12.0000000  0 05G03G14G17G19G30 +2.600,22.5,3.80
  23862388.750
  21032941.750
  21027172.750
  21190359.750
  23758565.250
 23  2 13 23  0 10.0000000  0 04G06G14G17G24 +2.600,23.5,3.80
  21026601.750
  21489794.250
  21225040.250
  23488199.250
 23  2 13 23 30 11.0000000  0 06G03G06G14G17G19G24 +2.120,23.0,3.80
  24033326.750
  20909590.750
  22731499.750
  22049531.250
  21018212.750
  23771469.750
 23  2 14  0  0  6.0000000  0 06G03G06G11G12G17G19 2.29,9.0,3.80
  22025963.750
  18198628.750
  20044722.750
  21763306.750
  20016435.750
  18522605.750
 23  2 14  0 30  6.0000000  0 06G06G11G12G17G19G24 2.46,4.5,3.80
  18539455.250
  19512314.750
  20883055.250
  20792377.750
  18927404.750
  22247470.250
 23  2 14  1  0  9.0000000  0 07G06G11G12G17G19G20G24 2.63,3.0,3.80
  19368998.250
  19460236.750
  20426640.250
  21874555.250
  19727465.250
  20998649.750
  23442949.250
 23  2 14  1 30 11.0000000  0 05G06G11G12G19G25 +2.800,1.5,3.80
  20713900.250
  19988897.750
  20601211.250
  21027694.750
  22211782.750
 23  2 14  2  0  5.0000000  0 06G02G06G11G12G20G25 2.80,1.0,3.80
  23743280.250
  20932940.750
  19505417.250
  19920091.750
  19595955.250
  20999329.250
 23  2 14  2 30 10.0000000  0 07G06G09G11G12G20G25G29 2.80,0.5,3.80
  19035568.250
  20626990.250
  23024219.250
  23463978.250
  22536413.250
  23956278.250
  20353625.750
 23  2 14  3  0 11.0000000  0 06G02G06G11G20G25G29 +2.800,0.5,3.80
  23227770.250
  23487330.250
  21024960.750
  20144774.250
  21646380.250
  22895716.250
 23  2 14  3 30  6.0000000  0 06G02G05G11G12G20G29 2.85,0.0,3.80
  18372420.250
  21849201.250
  23275508.750
  18398257.250
  22190672.250
  23652580.250
 23  2 14  4  0  5.0000000  0 07G02G05G11G12G20G25G29 2.91,0.0,3.80
  20245498.750
  18159983.750
  20310493.250
  21924153.750
  19166795.750
  21025011.250
  19255610.750
 23  2 14  4 30  9.0000000  0 06G02G05G15G18G20G29 2.96,0.0,3.80
  22528300.250
  21138243.250
  22993764.250
  18691177.750
  22666737.750
  21469295.750
 23  2 14  5  0  6.0000000  0 06G02G05G18G20G23G29 3.02,0.0,3.80
  18309849.750
  23789171.250
  19948434.250
  19687585.250
  21056468.250
  23449080.250
 23  2 14  5 30  8.0000000  0 06G02G05G18G20G23G29 3.07,0.0,3.80
  20539387.250
  20972262.750
  21574507.250
  23097531.750
  22626228.250
  20169339.750
 23  2 14  6  0  5.0000000  0 06G02G05G13G18G23G29 3.13,0.0,3.80
  22792194.250
  18135596.750
  22881374.250
  23142521.250
  18191821.250
  23134029.250
 23  2 14  6 30  8.0000000  0 07G02G05G13G15G18G23G29 3.18,0.0,3.80
  19100474.750
  21208136.750
  19669181.250
  18077236.250
  18696472.750
  19726506.750
  20268895.250
 23  2 14  7  0  7.0000000  0 06G02G05G13G15G18G23 3.24,0.0,3.80
  21285610.750
  23948861.750
  22406987.250
  20355684.250
  20101790.250
  21030809.750
 23  2 14  7 30  7.0000000  0 08G02G05G10G13G15G18G23G32 3.29,0.0,3.80
  23871220.750
  20853327.250
  18568921.250
  19501544.250
  23091338.750
  21942055.250
  22608819.250
  20145810.750
 23  2 14  8  0 10.0000000  0 06G08G10G15G18G23G27 3.35,0.0,3.80
  23153734.750
  20190916.750
  20407577.250
  18491738.750
  18687646.250
  21390696.750
 23  2 14  8 30 11.0000000  0 04G10G15G18G23 +3.400,0.0,3.80
  21990663.250
  23946377.750
  21503142.750
  21024978.250
 23  2 14  9  0 11.0000000  0 05G18G22G23G24G32 +3.400,0.5,3.80
  19393730.250
  21023646.250
  18100094.750
  18882749.750
  19194474.750
 23  2 14  9 30  7.0000000  0 06G08G10G22G23G24G32 3.36,1.5,3.80
  19817599.250
  21394946.750
  23541229.250
  21739881.250
  22901421.250
  22038456.250
 23  2 14 10  0  9.0000000  0 06G10G21G22G24G31G32 3.32,2.5,3.80
  19747233.250
  23537238.250
  21428362.250
  22453949.750
  22716104.750
  20292984.250
 23  2 14 10 30  9.0000000  0 07G01G10G12G21G22G31G32 3.28,3.5,3.80
  22736774.250
  18951996.250
  22372879.750
  22120655.250
  20078383.750
  20636739.750
  19333761.750
 23  2 14 11  0 11.0000000  0 07G01G10G12G21G22G28G32 +3.240,4.0,3.80
  21099082.750
  18469277.750
  21340569.250
  21018111.750
  18892572.250
  18433471.250
  18555378.750
 23  2 14 11 30  6.0000000  0 06G01G12G22G25G28G32 5.80,4.5,3.80
  21111395.250
  21987290.750
  19122244.250
  20382372.750
  18466979.250
  19207414.250
 23  2 14 11 32 27.0000000  0 00 +6.000,5.0,3.80,1,67070,-5050909,3881260,6,1.4
 23  2 14 20  0  6.0000000  0 07G01G07G08G13G14G17G30 -0.97,16.0,3.80
  20504362.250
  19543752.750
  22144238.250
  22190129.250
  20251389.750
  20821918.750
  19407939.750
 23  2 14 20 30  5.0000000  0 06G01G07G08G13G14G21 -1.39,15.5,3.80
  19871301.250
  20165973.250
  23200883.250
  21925548.750
  19692860.250
  20990581.750
 23  2 14 21  0 11.0000000  0 06G01G14G17G19G21G30 -1.800,14.0,3.80
  19056858.750
  18653095.750
  18868534.750
  21023347.750
  21025436.250
  18877737.250
 23  2 14 21 30 11.0000000  0 05G01G14G17G19G30 -1.800,11.5,3.80
  21773657.250
  20861147.250
  21024461.750
  22497385.750
  21924645.250
 23  2 14 22  0 11.0000000  0 06G01G06G14G17G19G30 -1.600,9.5,3.80
  22533061.250
  23091526.750
  20921273.750
  21027688.750
  21788605.750
  22899588.750
 23  2 14 22 30 11.0000000  0 05G01G06G14G17G19 -1.600,9.0,3.80
  23350340.750
  21749541.250
  20988040.250
  20955122.250
  21027034.250
 23  2 14 23  0 12.0000000  0 04G03G06G19G24 -1.600,9.0,3.80
  23792956.750
  21241432.750
  21026430.250
  23755508.250
 23  2 14 23 30 11.0000000  0 04G03G06G17G19 -1.600,9.0,3.80
  18097645.750
  20877889.750
  22124208.750
  21026023.250
 23  2 15  0  0  5.0000000  0 06G03G06G12G17G19G20 -1.80,9.0,3.80
  23730523.750
  19808838.250
  23220424.250
  21696855.250
  20149738.750
  18186222.250
 23  2 15  0 30 11.0000000  0 06G06G11G12G17G19G20 -2.000,8.5,3.80
  21018299.250
  21870233.250
  23185562.250
  23312990.250
  21406555.750
  17997674.250
 23  2 15  1  0 11.0000000  0 07G06G11G12G17G19G20G25 -1.600,9.0,3.80
  20672481.750
  20648305.750
  21560513.250
  23200135.750
  21024509.250
  22089760.250
  23551839.750
 23  2 15  1 30  5.0000000  0 07G05G06G11G12G19G20G25 -1.57,9.5,3.80
  20389266.750
  18085370.750
  23256601.250
  23831840.250
  18396744.750
  23956505.250
  19385915.250
 23  2 15  2  0  9.0000000  0 07G05G06G09G11G12G19G25 -1.53,10.0,3.80
  22589148.750
  22267154.250
  18601057.250
  20751713.750
  21155741.750
  22602763.250
  22159472.750
 23  2 15  2 30  5.0000000  0 06G06G09G11G12G20G25 -1.50,10.5,3.80
  20027890.750
  21526091.750
  23947860.250
  18413112.250
  23397994.250
  18830022.750
 23  2 15  3  0  5.0000000  0 06G02G05G06G11G20G29 -1.47,11.0,3.80
  18235826.250
  21570914.750
  18690443.750
  22170217.250
  21253145.750
  23842933.250
 23  2 15  3 30  7.0000000  0 06G02G05G11G20G25G29 -1.43,10.5,3.80
  22124690.250
  19646420.250
  21184311.250
  20083753.750
  21763545.750
  21360277.750
 23  2 15  4  0 11.0000000  0 05G02G05G11G20G29 -1.400,10.5,3.80
  21944041.250
  19939861.750
  22170037.750
  21025315.750
  20928176.750
 23  2 15  4 30  8.0000000  0 08G02G05G11G13G15G20G25G29 -1.53,10.5,3.80
  22084444.750
  20803584.750
  23501720.750
  22082325.250
  22450915.250
  22386428.750
  18489710.750
  21034532.750
 23  2 15  5  0  8.0000000  0 07G02G05G13G15G18G20G29 -1.67,10.5,3.80
  19364815.750
  18976031.250
  19138372.750
  19073940.250
  20928289.750
  20904622.750
  18557540.250
 23  2 15  5 30 13.0000000  0 07G02G05G13G15G18G20G29 -1.800,11.0,3.80
  20103770.250
  20667498.250
  19932454.250
  19349116.750
  21051188.250
  22810604.750
  19820755.750
 23  2 15  6  0 11.0000000  0 05G05G13G15G18G29 -1.200,11.0,3.80
  22232187.750
  20921066.750
  19786273.750
  21026026.250
  21228407.750
 23  2 15  6 30  7.0000000  0 07G02G05G13G15G18G23G29 -1.17,11.0,3.80
  18885687.250
  21083398.750
  19527210.250
  23864526.250
  18378967.250
  19400969.250
  20167661.750
 23  2 15  7  0  7.0000000  0 07G02G13G15G18G23G24G29 -1.14,11.0,3.80
  23216046.750
  18415120.250
  22305515.250
  21929632.750
  22833433.250
  18304569.250
  19282368.250
 23  2 15  7 30  5.0000000  0 07G02G10G13G15G18G23G27 -1.11,11.0,3.80
  21767843.750
  22264757.250
  23452865.750
  21008249.750
  19746759.750
  20363142.750
  23008460.750
 23  2 15  8  0  9.0000000  0 06G10G15G18G23G27G32 -1.09,10.5,3.80
  19425513.250
  19872985.750
  23866913.750
  17988163.250
  20716283.750
  20588781.250
 23  2 15  8 30  6.0000000  0 06G10G15G18G23G24G32 -1.06,10.0,3.80
  22356606.750
  18541819.250
  22045464.750
  21467152.750
  22081096.250
  23255986.750
 23  2 15  9  0  5.0000000  0 06G10G22G23G24G27G32 -1.03,10.0,3.80
  19867955.750
  22386502.250
  19610058.250
  20433386.250
  23083861.750
  20601826.250
 23  2 15  9 30 10.0000000  0 07G08G10G21G22G23G24G32 -1.000,9.5,3.80
  23465451.250
  18944043.250
  23261368.750
  21026700.250
  19386645.750
  20610198.750
  19576077.750
 23  2 15 10  0 11.0000000  0 06G10G12G21G22G24G32 -1.000,9.0,3.80
  21026091.750
  18961545.750
  24731406.750
  22636084.250
  23896475.250
  21555924.750
 23  2 15 10 30  6.0000000  0 06G10G12G21G22G31G32 -0.97,9.0,3.80
  22743372.750
  20092735.250
  19833473.750
  23784534.250
  18255378.250
  23095525.750
 23  2 15 11  0  5.0000000  0 08G01G10G12G21G22G28G31G32 -0.93,9.0,3.80
  21904950.250
  19423575.750
  22229642.750
  21892251.250
  19741245.250
  19243947.750
  19578978.750
  19460110.250
 23  2 15 11 30  9.0000000  0 07G01G12G21G22G28G31G32 -0.90,8.5,3.80
  18315480.250
  19278142.750
  18782061.750
  22329384.750
  21664394.750
  21732504.750
  22474353.250
 23  2 15 12  0  7.0000000  0 07G01G21G22G25G28G31G32 -0.87,8.0,3.80
  21417014.250
  22237714.750
  19319167.250
  20877417.250
  18709684.250
  18537592.250
  19910534.750
 23  2 15 12 30  5.0000000  0 07G01G03G22G25G28G31G32 -0.83,7.5,3.80
  23393119.750
  23132718.250
  20906132.250
  23042863.750
  20540259.250
  20180988.750
  21967584.250
 23  2 15 13  0 11.0000000  0 04G03G22G28G31 -0.800,7.5,3.80
  21026390.250
  19853221.250
  19846811.750
  19364737.250
 23  2 15 13 30 17.0000000  0 05G03G04G22G28G31 -1.400,8.5,3.80
  21565005.250
  23824324.250
  21294988.750
  21669621.250
  21126125.750
 23  2 15 14  0 22.0000000  0 02G03G28 -1.24,9.0,3.80
  19709222.250
  20824480.250
 23  2 15 14 30  6.0000000  0 07G03G04G16G22G26G28G31 -1.08,10.5,3.80
  19811622.250
  20203552.250
  19112562.250
  20704701.750
  18635222.750
  21579177.250
  21034432.750
 23  2 15 15  0 10.0000000  0 07G03G04G09G26G28G29G31 -0.92,12.0,3.80
  18580324.750
  23593844.750
  20209202.750
  23323302.250
  20658390.250
  22035573.250
  20138504.250
 23  2 15 15 30  6.0000000  0 06G04G07G09G16G26G31 -0.76,14.5,3.80
  21869831.750
  20043247.750
  23976549.250
  21400209.250
  22965378.750
  19922311.750
 23  2 15 16  0 11.0000000  0 04G04G16G26G27 -0.600,16.0,3.80
  20979397.750
  21027176.250
  23338573.250
  22360288.750
 23  2 15 16 30  8.0000000  0 06G03G07G09G16G26G27 -0.60,17.5,3.80
  20477476.250
  18426752.750
  22380229.750
  22223032.250
  19037007.250
  22366224.750
 23  2 15 17  0 11.0000000  0 04G04G09G16G27 -0.60,19.0,3.80
  20120658.750
  20030766.750
  21027883.250
  20148819.250
 23  2 15 17 30 11.0000000  0 06G07G08G09G16G27G30 -0.600,19.0,3.80
  21775220.750
  20719117.250
  21026130.250
  22923736.250
  21324096.250
  18541692.250
 23  2 15 18  0  6.0000000  0 06G07G08G14G16G27G30 -0.60,19.5,3.80
  23939153.750
  23412116.250
  21208159.250
  20782221.250
  18802850.750
  20330410.750
 23  2 15 18 30 11.0000000  0 05G07G08G09G27G30 -0.600,20.0,3.80
  19136827.250
  19394873.250
  20812199.750
  21463952.750
  21025075.250
 23  2 15 19  0  8.0000000  0 06G08G09G14G21G27G30 -0.60,20.0,3.80
  20053571.750
  21862485.750
  21205857.750
  20773900.750
  22641139.250
  20163463.250
 23  2 15 19 30 11.0000000  0 05G07G08G14G21G30 -0.600,23.5,3.80
  20489574.750
  22500746.250
  22037313.750
  21947938.750
  21024473.250
 23  2 15 20  0  6.0000000  0 07G01G08G13G14G17G21G30 -0.56,26.0,3.80
  22050703.250
  23943778.250
  23786722.750
  21823608.750
  22356465.750
  22359701.750
  21021973.750
 23  2 15 20 30  5.0000000  0 07G01G07G14G17G19G21G30 -0.52,26.0,3.80
  22392708.750
  22853372.250
  22201372.250
  22516465.750
  19193102.250
  23636616.250
  21846666.750
 23  2 15 21  0  6.0000000  0 06G01G14G17G19G21G30 -0.48,21.5,3.80
  23313012.750
  22855662.750
  23062442.750
  19130785.750
  19385638.750
  23184807.250
 23  2 15 21 30  7.0000000  0 06G01G13G14G17G19G21 -0.44,22.5,3.80
  18747436.750
  21305941.250
  23744329.250
  23902470.750
  19281923.250
  21424850.750
 23  2 15 22  0 10.0000000  0 05G01G06G14G17G19 -0.400,19.0,3.80
  22742127.750
  23006102.750
  21026923.750
  21120778.250
  21783892.250
 23  2 15 22 30 11.0000000  0 05G01G06G17G19G24 -0.400,20.0,3.80
  23550946.250
  21653833.250
  21026696.750
  21007818.750
  23860566.250
 23  2 15 23  0 10.0000000  0 06G03G06G14G17G19G24 -0.40,17.5,3.80
  22817520.250
  20179218.750
  21021270.750
  20657925.250
  20023774.250
  22746762.250
 23  2 15 23 30  5.0000000  0 06G03G06G11G17G19G24 -0.40,14.5,3.80
  22932275.250
  19624879.250
  22059875.750
  20971891.250
  19809265.750
  22601687.750
 23  2 16  0  0 11.0000000  0 05G06G11G12G17G19 -0.400,11.5,3.80
  20669638.250
  22285208.750
  23915715.750
  22626637.250
  21025454.250
 23  2 16  0 30 11.0000000  0 06G03G06G11G12G17G19 -0.400,9.5,3.80
  19377448.250
  20638061.250
  21368506.750
  22627432.250
  22971042.250
  21024975.250
 23  2 16  1  0  5.0000000  0 06G06G11G12G19G20G25 -0.36,8.5,3.80
  19994447.250
  19857507.750
  20717440.250
  20339947.250
  21202262.250
  22661230.250
 23  2 16  1 30  5.0000000  0 06G06G11G12G19G20G25 -0.32,8.0,3.80
  23152029.750
  22224681.250
  22764182.750
  23461916.750
  22825369.250
  18252111.250
 23  2 16  2  0  5.0000000  0 07G02G06G09G11G12G20G25 -0.28,7.5,3.80
  22780689.750
  20397327.750
  22595585.250
  18797041.250
  19194884.750
  18716955.250
  20122743.750
 23  2 16  2 30  5.0000000  0 07G02G05G06G11G12G25G29 -0.24,8.0,3.80
  17991206.750
  21388792.250
  23148482.750
  21003080.750
  21490760.750
  21829049.250
  23942330.250
 23  2 16  3  0 11.0000000  0 05G02G11G12G20G29 -0.200,9.5,3.80
  21473786.750
  19565819.250
  20363749.750
  18612349.750
  21025035.250
 23  2 16  3 30  5.0000000  0 06G02G05G11G20G25G29 -0.20,7.5,3.80
  23621100.750
  21189748.250
  22835532.250
  21721442.750
  23428333.250
  22810121.750
 23  2 16  4  0 11.0000000  0 05G02G05G11G20G29 -0.200,8.5,3.80
  22942614.250
  21024465.250
  23329638.250
  22185014.250
  21905326.250
 23  2 16  4 30  8.0000000  0 07G02G05G11G18G20G25G29 -0.10,8.5,3.80
  20626526.750
  19461046.750
  22207376.250
  22654752.750
  21096619.250
  23222310.250
  19591547.750
 23  2 16  5  0 11.0000000  0 05G02G05G20G23G29 +0.000,8.5,3.80
  21026718.750
  20770448.250
  22731740.750
  23592543.750
  20275953.750
 23  2 16  5 30  5.0000000  0 07G02G05G13G18G20G23G29 0.03,8.5,3.80
  19730802.750
  20420515.750
  19587946.250
  20591555.750
  22578932.250
  21634802.750
  19536404.250
 23  2 16  6  0  9.0000000  0 08G02G05G10G13G15G18G23G29 0.07,9.5,3.80
  22402767.750
  23973780.250
  20397647.250
  22608812.250
  21399644.750
  22554959.750
  23596743.750
  22968601.250
 23  2 16  6 30  5.0000000  0 07G02G05G13G15G18G23G29 0.10,9.5,3.80
  19615281.750
  21900539.250
  20332105.750
  18607061.750
  19003350.250
  20015554.750
  21012047.750
 23  2 16  7  0  9.0000000  0 06G02G10G13G15G18G23 0.13,9.0,3.80
  23144239.250
  18867914.250
  18417930.750
  22254396.250
  21752616.750
  22627286.750
 23  2 16  7 30  5.0000000  0 06G10G15G18G23G24G27 0.17,8.5,3.80
  20916047.750
  19886018.750
  18511531.250
  19071993.250
  19989302.250
  21714368.750
 23  2 16  8  0 10.0000000  0 06G10G15G18G23G24G27 +0.200,8.0,3.80
  21027292.250
  21714103.750
  19627969.750
  19659725.750
  20300737.250
  22418114.250
 23  2 16  8 30  9.0000000  0 06G10G15G18G23G24G32 0.30,7.5,3.80
  20436720.750
  22855346.250
  20316721.250
  19629655.250
  20258825.250
  21308398.250
 23  2 16  9  0 24.0000000  0 04G10G23G24G32 +0.400,7.5,3.80
  21261869.250
  21103543.250
  21977263.750
  21978750.750
 23  2 16  9 30 15.0000000  0 04G22G28G31G32 +0.200,7.5,3.80
  21025455.250
  21885571.750
  22829134.750
  19628926.250
 23  2 16 10  0 24.0000000  0 06G10G12G21G23G24G32 -0.200,7.5,3.80
  21252986.750
  19103177.250
  18872271.250
  22529399.750
  18300895.250
  21764435.250
 23  2 16 10 30 11.0000000  0 06G10G12G21G22G28G32 +0.200,7.0,3.80
  21024391.750
  18294680.250
  18027163.750
  21972799.250
  21784858.750
  21342589.250
 23  2 16 11  0  5.0000000  0 06G01G10G12G22G31G32 0.24,6.0,3.80
  19155217.250
  22824259.750
  19567806.750
  23028029.250
  22793348.250
  22805738.250
 23  2 16 11 30  8.0000000  0 06G01G10G21G22G25G32 0.28,5.5,3.80
  20655009.250
  19400488.750
  21178998.250
  18674913.750
  19968059.750
  18880226.750
 23  2 16 12  0  5.0000000  0 06G21G22G25G28G31G32 0.32,5.0,3.80
  21567272.750
  18574366.250
  20192302.750
  17987938.750
  23782674.250
  19228124.250
 23  2 16 12 30  5.0000000  0 06G03G22G25G28G31G32 0.36,5.5,3.80
  21366656.250
  19288736.750
  21519471.750
  18966837.750
  18586565.750
  20415139.250
 23  2 16 13  0 11.0000000  0 05G03G22G28G31G32 +0.400,5.5,3.80
  22064257.750
  21024783.750
  21070912.250
  20576494.750
  22640969.250
 23  2 16 13 30 11.0000000  0 05G03G22G28G31G32 +0.600,5.5,3.80
  21191013.250
  21027805.750
  21449680.750
  20901112.750
  23127124.250
 23  2 16 14  0 11.0000000  0 05G04G22G26G28G31 0.60,6.0,3.80
  21175338.250
  17913191.750
  18680191.250
  21027821.750
  18076520.750
 23  2 16 14 30 11.0000000  0 04G03G26G28G31 +0.600,6.0,3.80
  22211686.750
  21026369.250
  24045102.250
  23502472.750
 23  2 16 15  0 11.0000000  0 05G04G09G26G29G31 +0.600,6.5,3.80
  21025055.250
  23574509.250
  20943031.250
  19647435.750
  23788135.750
 23  2 16 15 30 13.0000000  0 04G04G16G26G27 +0.000,7.0,3.80
  21049682.250
  20647777.250
  22334091.250
  23004389.250
 23  2 16 16  0  5.0000000  0 06G04G07G09G16G26G27 0.27,7.0,3.80
  21095741.750
  18631988.250
  22453632.750
  21211330.250
  23607219.750
  22384193.250
 23  2 16 16 30  5.0000000  0 06G04G07G09G16G26G27 0.53,8.5,3.80
  23521208.750
  20115116.750
  18118712.750
  18123932.750
  20988401.750
  18118882.750
 23  2 16 17  0 11.0000000  0 05G04G07G09G16G27 +0.800,9.0,3.80
  21080298.250
  22363488.750
  20885634.250
  22019392.750
  21026612.250
 23  2 16 17 30 11.0000000  0 05G07G08G09G16G27 +0.800,9.0,3.80
  21310102.750
  20310897.250
  20701997.250
  22693123.250
  21026571.250
 23  2 16 18  0  9.0000000  0 07G07G08G09G14G16G27G30 0.80,8.0,3.80
  20523213.750
  20093951.250
  21071402.750
  23739197.250
  23584251.750
  21583129.750
  22848389.250
 23  2 16 18 30 11.0000000  0 06G07G08G09G21G27G30 +0.800,7.0,3.80
  20646264.250
  21025367.750
  22504213.250
  22899870.750
  23176015.750
  22455193.750
 23  2 16 19  0 11.0000000  0 05G01G07G08G09G21 +0.800,7.0,3.80
  22822984.250
  19743889.750
  21024985.750
  22876653.750
  21559401.750
 23  2 16 19 30 11.0000000  0 05G01G07G09G14G21 +1.000,7.5,3.80
  21506950.250
  19624525.250
  23812411.750
  21047862.750
  21027485.750
 23  2 16 20  0 11.0000000  0 05G01G07G17G21G30 +1.000,7.5,3.80
  20585421.750
  19985113.250
  20876637.250
  21027234.250
  19625881.750
 23  2 16 20 30 11.0000000  0 05G01G14G17G21G30 +1.000,6.5,3.80
  19657126.250
  19446343.250
  19741884.750
  21026843.750
  19174848.250
 23  2 16 21  0  6.0000000  0 06G01G14G17G19G21G30 1.00,6.0,3.80
  19931508.250
  19413902.750
  19613014.250
  21583290.750
  22098120.250
  19853580.250
 23  2 16 21 30  8.0000000  0 06G01G03G14G17G21G30 1.00,6.0,3.80
  21757648.250
  18899529.250
  20666780.750
  20819306.250
  18503232.750
  21980435.250
 23  2 16 22  0 11.0000000  0 06G01G06G14G17G19G30 +1.000,5.5,3.80
  22765481.750
  22730250.750
  20945255.750
  21024557.250
  21589912.250
  23173156.750
 23  2 16 22 30 14.0000000  0 05G03G06G14G17G30 +0.600,5.0,3.80
  23550965.250
  21437700.750
  21071887.250
  20976622.750
  18117919.750
 23  2 16 23  0  6.0000000  0 06G03G06G11G14G17G19 0.90,4.5,3.80
  20953597.250
  18227983.250
  21252493.250
  19256808.750
  18839540.250
  18129103.250
 23  2 16 23 30 11.0000000  0 04G03G14G17G24 +1.200,3.5,3.80
  22983174.250
  21924563.750
  21026224.750
  22616073.750
 23  2 17  0  0 11.0000000  0 05G03G06G11G17G24 +1.200,3.0,3.80
  19146834.750
  21025208.250
  22522836.250
  23044707.750
  24491406.750
 23  2 17  0 30 40.0000000  0 04G11G17G19G20 1.30,3.0,3.80
  22112308.250
  23889162.250
  21900965.250
  18058193.250
 23  2 17  1  0 11.0000000  0 05G05G11G17G19G20 +1.400,2.5,3.80
  21026744.750
  23048650.750
  22871980.250
  23641895.250
  18294505.250
 23  2 17  1 30  5.0000000  0 07G06G09G11G12G17G19G20 1.25,2.0,3.80
  19014822.250
  22119518.750
  23982429.250
  18493727.750
  21712126.250
  19324483.250
  18489006.750
 23  2 17  2  0 24.0000000  0 07G05G06G09G11G12G19G20 1.10,2.0,3.80
  22693899.750
  22920118.250
  18984179.250
  21229456.250
  21625540.250
  23281649.250
  21060658.250
 23  2 17  2 30  7.0000000  0 07G02G05G06G09G11G12G25 0.95,1.5,3.80
  23630773.250
  21008417.250
  23004236.250
  18329371.250
  20790810.750
  21309678.250
  21568910.750
 23  2 17  3  0 17.0000000  0 04G05G11G12G20 +0.800,1.5,3.80
  21221561.250
  22108925.250
  22965013.750
  21122515.250
 23  2 17  3 30 11.0000000  0 05G02G05G11G12G15 1.07,1.0,3.80
  21652224.750
  19275482.750
  21028037.250
  22351660.250
  23364557.250
 23  2 17  4  0  5.0000000  0 06G05G11G12G13G15G20 1.33,0.5,3.80
  18721368.750
  21095649.250
  22907826.250
  20857689.250
  21473327.750
  19952039.750
 23  2 17  4 30 11.0000000  0 05G05G13G18G20G29 +1.600,0.5,3.80
  19339349.750
  20294100.750
  22343380.750
  21025313.750
  19370613.750
 23  2 17  5  0  6.0000000  0 07G02G05G11G13G15G20G29 1.60,0.0,3.80
  19279116.250
  19151742.750
  22217813.750
  19039138.750
  18839850.750
  21141970.250
  18588433.750
 23  2 17  5 30  6.0000000  0 06G02G05G13G15G20G29 1.60,0.0,3.80
  21858175.250
  22677404.750
  21749722.250
  21017566.250
  18854204.250
  21759887.750
 23  2 17  6  0  5.0000000  0 06G02G05G13G15G23G29 1.60,0.0,3.80
  19165690.250
  20846733.750
  19434219.250
  18151652.750
  20257744.750
  19844750.250
 23  2 17  6 30  5.0000000  0 07G02G05G10G13G15G18G29 1.60,0.0,3.80
  21359172.250
  23728509.250
  18161545.250
  22152708.250
  20362025.250
  20640572.750
  22870552.750
 23  2 17  7  0  5.0000000  0 06G02G10G13G15G18G24 1.60,0.0,3.80
  18992667.250
  20531021.750
  20333573.750
  18123408.750
  23494876.750
  19662084.250
 23  2 17  7 30 11.0000000  0 04G15G18G23G24 +1.600,0.0,3.80
  21038057.250
  19551018.250
  20049875.750
  20914626.250
 23  2 17  8  0 11.0000000  0 06G10G15G23G24G27G32 +2.000,0.0,3.80
  20099814.750
  21026179.750
  18803696.750
  19427580.750
  21596605.250
  21181527.250
 23  2 17  8 30 12.0000000  0 07G10G15G18G22G23G24G32 +1.400,0.0,3.80
  21754710.250
  24409540.750
  21830152.250
  24580571.750
  21031803.250
  21681478.250
  22600758.750
 23  2 17  9  0  5.0000000  0 07G10G18G22G23G24G28G32 1.48,-0.5,3.80
  20166550.750
  21733592.750
  22559070.750
  20094514.750
  21014830.750
  23863451.250
  20870251.250
 23  2 17  9 30  8.0000000  0 07G10G18G22G23G24G31G32 1.56,-0.5,3.80
  21804361.250
  18921285.750
  23757950.250
  22445264.750
  23798494.750
  19476604.250
  22413569.250
 23  2 17 10  0  6.0000000  0 06G10G12G23G24G31G32 1.64,-0.5,3.80
  23556448.750
  21331301.750
  18929386.750
  20756772.750
  20016021.250
  18054462.250
 23  2 17 10 30  5.0000000  0 06G10G12G23G28G31G32 1.72,-0.5,3.80
  19483381.750
  22675091.750
  21539962.250
  20095119.750
  20621640.750
  19766496.250
 23  2 17 11  0  8.0000000  0 06G10G22G23G25G31G32 1.80,-0.5,3.80
  22328087.750
  22413127.750
  18975584.750
  23673922.750
  22108717.250
  22250475.250
 23  2 17 11 30  6.0000000  0 06G10G22G25G28G31G32 1.88,-0.5,3.80
  18053622.250
  23184471.750
  18506222.750
  22512376.750
  22511529.750
  23450109.250
 23  2 17 12  0  6.0000000  0 08G01G10G21G22G25G28G31G32 1.96,-0.5,3.80
  22045798.250
  21832233.250
  22936503.750
  19866394.750
  21550097.750
  19306978.250
  19077332.750
  20583576.250
 23  2 17 12 30  8.0000000  0 08G01G21G22G25G26G28G31G32 2.04,-0.5,3.80
  18859177.750
  19886876.250
  22225108.750
  18559071.750
  23184074.750
  21950035.250
  21549606.750
  23417401.250
 23  2 17 13  0 10.0000000  0 06G01G16G22G28G31G32 +2.120,-0.5,3.80
  18246216.750
  23910579.250
  21018315.250
  21117235.750
  20611558.250
  22699141.250
 23  2 17 13 30 10.0000000  0 05G04G26G28G31G32 +2.600,-1.0,3.80
  23260616.750
  20087487.250
  21578846.250
  21025915.250
  23270267.750
 23  2 17 14  0 12.0000000  0 07G03G04G16G22G26G28G31 +2.600,0.0,3.80
  21024625.750
  22256452.750
  21157997.750
  21602658.250
  19892996.250
  22356050.750
  21797639.250
 23  2 17 14 30 22.0000000  0 01G29 2.65,8.5,3.80
  23738370.750
 23  2 17 15  0 13.0000000  0 00 2.70,17.5,3.80
 23  2 17 15 30  9.0000000  0 06G03G04G09G16G22G27 2.75,12.0,3.80
  20159074.250
  23341097.750
  19290921.750
  22999801.250
  21505638.250
  19199392.750
 23  2 17 16  0 11.0000000  0 07G04G07G08G09G16G26G27 +2.800,2.5,3.80
  19842675.750
  23268937.250
  22307783.250
  21104006.750
  20029300.750
  22511268.750
  21025415.750
 23  2 17 16 30  6.0000000  0 06G04G07G08G09G16G27 2.80,4.0,3.80
  22869351.750
  19312445.750
  18078656.750
  23361538.250
  23527361.250
  23367774.750
 23  2 17 17  0 11.0000000  0 05G04G07G09G16G27 +2.800,6.0,3.80
  21154803.250
  22245807.250
  20864131.750
  22131104.250
  21024697.750
 23  2 17 17 30  8.0000000  0 06G07G08G09G16G27G30 2.71,7.5,3.80
  21192302.250
  20244779.750
  20721550.250
  22803326.250
  21073543.750
  23866109.750
 23  2 17 18  0  6.0000000  0 07G04G07G08G09G14G27G30 2.61,6.5,3.80
  19516141.250
  23260505.750
  22925318.750
  23974870.250
  20429945.750
  18520435.750
  19531417.250
 23  2 17 18 30 11.0000000  0 06G08G09G14G21G27G30 +2.520,9.0,3.80
  19486779.750
  21018614.250
  21714337.750
  21168496.750
  21718501.250
  20719350.250
 23  2 17 19  0 11.0000000  0 06G07G08G09G14G21G30 +2.560,8.0,3.80
  19941350.250
  21347438.750
  23229203.250
  22067988.250
  21691038.250
  21018135.250
 23  2 17 19 30  8.0000000  0 07G01G07G08G14G17G21G30 2.58,12.0,3.80
  20937700.750
  19233403.750
  21454079.250
  20539560.250
  21301287.750
  20581892.750
  19559863.250
 23  2 17 20  0 11.0000000  0 07G01G07G08G13G14G21G30 +2.600,8.0,3.80
  21194999.750
  20771996.250
  23590951.750
  23049563.250
  21017882.750
  21771763.750
  20310492.750
 23  2 17 20 30 10.0000000  0 07G01G07G13G14G17G21G30 2.50,7.5,3.80
  19946187.750
  20728355.250
  22151516.750
  19719344.750
  19993602.250
  21440098.250
  19526421.750
 23  2 17 21  0 12.0000000  0 06G01G13G14G17G21G30 +2.400,7.0,3.80
  21031158.250
  23497225.750
  20450491.750
  20641881.250
  23297504.750
  20999079.750
 23  2 17 21 30 12.0000000  0 04G14G17G19G30 +3.200,10.5,3.80
  19740110.750
  19889178.250
  21062110.250
  21176285.750
 23  2 17 22  0 13.0000000  0 06G01G03G06G14G19G30 +2.800,9.0,3.80
  22449129.250
  23744413.750
  22102028.750
  20517631.250
  21054524.750
  22862483.750
 23  2 17 22 30  6.0000000  0 06G01G03G06G14G17G19 3.00,5.0,3.80
  20773542.250
  20480694.250
  18286935.250
  18111469.250
  17990212.250
  23793384.250
 23  2 17 23  0 11.0000000  0 05G06G14G17G19G24 +3.200,4.0,3.80
  21060557.750
  22276837.750
  21809970.750
  21024819.750
  23750371.750
 23  2 17 23 30 11.0000000  0 08G03G06G11G12G14G17G19G24 3.27,3.0,3.80
  20828601.250
  23321947.750
  19547517.250
  21388536.750
  19833825.250
  18867442.750
  23576279.750
  20430336.250
 23  2 18  0  0  6.0000000  0 06G06G11G12G17G19G24 3.33,3.0,3.80
  22249459.750
  23627723.250
  19176825.250
  18326563.750
  22627039.250
  19779863.250
 23  2 18  0 30 11.0000000  0 06G06G11G12G17G19G24 +3.400,8.0,3.80
  21026562.750
  21512251.750
  22664081.750
  23419402.250
  21404023.250
  18948789.750
 23  2 18  1  0 10.0000000  0 07G06G09G11G12G17G19G24 3.40,10.5,3.80
  21656458.750
  19789961.750
  21288688.750
  22048854.250
  18234908.250
  21983169.250
  19891047.750
 23  2 18  1 30 11.0000000  0 07G06G11G12G17G19G20G25 +3.400,10.5,3.80
  21675782.750
  20547108.750
  21025460.750
  18380006.250
  21979158.250
  20941739.250
  22373059.250
 23  2 18  2  0  5.0000000  0 07G02G05G06G11G12G19G20 3.43,10.0,3.80
  20621759.750
  18190852.750
  18666131.250
  22897900.750
  23294522.250
  19033441.750
  22649573.250
 23  2 18  2 30  9.0000000  0 07G02G05G06G11G12G20G29 3.47,10.5,3.80
  23684831.750
  21032838.750
  23262830.750
  20986755.250
  21537129.250
  20258386.250
  23526662.750
 23  2 18  3  0  8.0000000  0 06G02G05G11G12G20G29 3.50,11.0,3.80
  20948292.750
  18315705.250
  19335307.750
  20244201.750
  18320509.250
  20387941.750
 23  2 18  3 30  6.0000000  0 06G02G05G11G13G20G25 3.53,12.0,3.80
  18863783.250
  22533401.250
  18386077.250
  19620257.250
  23249783.750
  19016537.750
 23  2 18  4  0  6.0000000  0 06G02G05G11G13G20G29 3.57,10.0,3.80
  22477885.750
  20739295.750
  23176035.250
  22702157.750
  22039443.250
  21410160.750
 23  2 18  4 30 11.0000000  0 07G02G05G11G13G18G20G29 +3.600,7.0,3.80
  22016765.750
  21090092.250
  23917219.250
  21876834.250
  23908916.750
  22821678.250
  21025943.750
 23  2 18  5  0  9.0000000  0 06G02G05G13G15G20G29 3.64,4.0,3.80
  19550674.250
  19556153.250
  19303945.750
  19032558.750
  21571928.250
  18923243.750
 23  2 18  5 30  8.0000000  0 07G02G05G13G15G18G23G29 3.68,3.0,3.80
  19427801.250
  20376070.750
  19355726.750
  18545079.250
  20109959.250
  21143875.250
  19425190.750
 23  2 18  6  0  5.0000000  0 06G02G05G13G15G18G23 3.72,3.0,3.80
  23947992.250
  19743672.250
  18289210.250
  22926744.750
  23905761.750
  18945761.250
 23  2 18  6 30  5.0000000  0 08G02G05G10G13G15G18G24G29 3.76,2.5,3.80
  23191032.750
  19647186.250
  19843648.750
  18072599.250
  22211928.750
  22374004.750
  19149720.250
  18816378.750
 23  2 18  7  0 11.0000000  0 05G02G10G15G18G27 +3.800,1.5,3.80
  22616591.250
  23976092.250
  21777667.250
  21025743.750
  18557599.750
 23  2 18  7 30  6.0000000  0 06G10G15G18G23G24G27 3.67,3.0,3.80
  21170075.750
  20595798.750
  19000621.250
  19444068.250
  20250630.250
  22098978.250
 23  2 18  8  0  5.0000000  0 06G02G10G15G23G24G32 3.53,5.0,3.80
  21833525.250
  20081066.750
  21233902.750
  18852046.250
  19456523.250
  21118251.750
 23  2 18  8 30 12.0000000  0 06G10G15G23G24G27G32 +3.400,7.5,3.80
  21677688.750
  18562510.750
  21034450.250
  21706401.250
  18249030.750
  22495036.750
 23  2 18  9  0  9.0000000  0 07G10G18G22G23G27G28G32 3.70,8.5,3.80
  23377040.250
  19149743.750
  19706586.750
  23395232.750
  21071910.750
  20935786.750
  18069297.750
 23  2 18  9 30 11.0000000  0 05G10G23G24G31G32 +4.000,4.5,3.80
  21025853.750
  21762024.250
  23189563.750
  18526224.250
  21624635.750
 23  2 18 10  0 11.0000000  0 06G10G12G21G22G23G32 +4.000,4.0,3.80
  21025191.250
  18713362.750
  24483108.250
  22414059.250
  22488714.750
  21502694.250
 23  2 18 10 30  5.0000000  0 07G10G12G21G23G25G31G32 4.05,3.0,3.80
  23887158.750
  21009659.250
  20733631.250
  20031262.750
  20075017.750
  18842021.750
  18143109.750
 23  2 18 11  0  9.0000000  0 07G01G10G21G22G28G31G32 4.10,5.0,3.80
  20299219.750
  18263463.750
  20493306.750
  18239262.750
  23633094.750
  23857475.250
  18133233.250
 23  2 18 11 30  7.0000000  0 07G01G10G21G22G25G28G32 4.15,5.0,3.80
  20804552.750
  19803140.750
  21432824.250
  18807872.250
  20149444.250
  18134232.250
  19130856.250
 23  2 18 12  0 13.0000000  0 07G01G21G22G25G26G28G31 +4.200,6.5,3.80
  20108575.250
  21026665.250
  23872186.250
  19630475.750
  19827891.750
  23342553.250
  23083903.750
 23  2 18 12 30  5.0000000  0 07G01G03G22G25G28G31G32 4.17,5.5,3.80
  23833702.250
  22918337.250
  21126351.750
  23557615.250
  20899986.250
  20480718.750
  22377703.750
 23  2 18 13  0  6.0000000  0 06G01G22G26G28G31G32 4.14,2.5,3.80
  18370656.250
  21057182.750
  20795964.250
  21211979.250
  20696317.750
  22796448.750
 23  2 18 13 30  9.0000000  0 06G03G16G22G26G28G31 4.11,0.0,3.80
  18670735.750
  19692705.250
  18704453.750
  23568544.750
  19224262.750
  18668271.250
 23  2 18 14  0  5.0000000  0 06G03G04G16G22G26G28 4.09,2.0,3.80
  22867888.750
  23965255.750
  22838255.750
  23506173.750
  21723945.250
  18298345.250
 23  2 18 14 30  8.0000000  0 07G03G04G16G26G28G29G31 4.06,5.0,3.80
  22136221.750
  21996699.750
  20947408.750
  20933199.250
  18081581.250
  19698353.250
  23540479.750
 23  2 18 15  0  9.0000000  0 07G03G09G16G26G27G28G31 4.03,8.0,3.80
  18024219.250
  18878349.750
  21707598.250
  22741558.750
  18821664.250
  20151541.750
  19639937.250
 23  2 18 15 30 11.0000000  0 06G03G04G08G16G22G27 +4.000,11.5,3.80
  22254592.250
  19252168.250
  22634341.750
  18983166.750
  23619559.250
  21017953.750
 23  2 18 16  0 10.0000000  0 06G03G04G08G09G16G27 2.69,11.5,3.80
  22195668.750
  23963451.750
  20273258.250
  19129171.750
  18226097.250
  19057698.750
 23  2 18 16 30 40.0000000  0 06G04G07G08G09G16G27 1.37,15.0,3.80
  20522784.750
  22774862.750
  21522104.750
  20894063.250
  21246040.250
  20920244.250
 23  2 18 17  0 11.0000000  0 06G04G07G08G09G16G27 +0.080,17.0,3.80
  21018516.750
  21903934.250
  20677495.750
  20628087.250
  22028361.750
  20813565.750
 23  2 18 17 30  9.0000000  0 07G04G07G08G09G14G16G27 0.12,14.0,3.80
  18297873.750
  23543138.250
  22663535.750
  23221341.750
  21009775.750
  19397682.250
  23600578.750
 23  2 18 18  0 12.0000000  0 06G04G07G08G14G16G27 0.1600,16.5,3.80
  21010532.250
  18520576.750
  18291547.250
  21633060.250
  22019145.750
  19980052.750
 23  2 18 18 30 13.0000000  0 06G01G07G09G14G21G30 +0.200,13.5,3.80
  23219649.250
  19403977.750
  21614936.250
  22060773.750
  21526310.250
  21053496.750
 23  2 18 19  0 19.0000000  0 06G01G07G08G09G14G17 0.30,14.5,3.80
  22393082.750
  19639979.250
  21168422.250
  23086420.750
  21664492.250
  22773646.750
 23  2 18 19 30  6.0000000  0 06G01G07G13G17G21G30 0.40,15.0,3.80
  22566129.250
  21034094.750
  18111826.250
  22926557.750
  22330492.250
  21253165.250
 23  2 18 20  0  6.0000000  0 06G07G08G14G17G21G30 0.50,16.5,3.80
  23664864.750
  20543911.750
  23751001.250
  18183214.250
  18624591.250
  23098118.250
 23  2 18 20 30 11.0000000  0 05G01G13G14G17G30 +0.600,19.0,3.80
  21386105.250
  23633500.250
  21127993.750
  21387955.750
  21024597.250
 23  2 18 21  0  5.0000000  0 08G01G07G13G14G17G19G21G30 0.65,15.0,3.80
  22505686.250
  18411991.750
  18999051.250
  21856811.750
  22043127.750
  23822489.750
  18861462.250
  22517343.250
 23  2 18 21 30  5.0000000  0 06G01G03G14G17G19G30 0.70,14.5,3.80
  22960776.750
  19673575.750
  21679026.750
  21821927.750
  22900117.250
  23237610.250
 23  2 18 22  0  9.0000000  0 07G01G06G14G17G19G24G30 0.75,13.0,3.80
  23931866.750
  23294296.250
  21898490.250
  21949242.250
  22325271.750
  19344235.250
  18364043.250
 23  2 18 22 30 10.0000000  0 04G06G14G17G19 +0.800,12.0,3.80
  21444796.250
  21465186.750
  21305293.250
  21026578.750
 23  2 18 23  0 19.0000000  0 06G06G11G14G17G19G24 +0.200,11.5,3.80
  21143707.750
  23996153.750
  22548308.250
  22019117.250
  21159498.750
  23890343.250
 23  2 18 23 30 11.0000000  0 04G06G11G17G24 +0.800,10.5,3.80
  18910324.750
  21025122.750
  20537428.250
  22072763.750
 23  2 19  0  0 12.0000000  0 05G03G12G17G19G20 +1.000,10.5,3.80
  21720681.750
  20157973.750
  19535760.750
  23789070.750
  21045539.250
 23  2 19  0 30  7.0000000  0 07G06G11G12G17G19G20G24 1.00,12.0,3.80
  23582867.750
  23952010.750
  19051729.750
  20007244.750
  23955092.750
  19719655.250
  21551819.750
 23  2 19  1  0  9.0000000  0 08G05G06G11G12G17G19G20G25 1.00,11.5,3.80
  19923332.750
  22745723.250
  22268773.750
  22980910.750
  19339219.250
  23066276.250
  23301148.250
  18769520.250
 23  2 19  1 30  9.0000000  0 07G05G06G11G17G19G20G25 1.00,9.5,3.80
  18693730.250
  23502080.750
  22279508.750
  20218513.250
  23808058.750
  22581493.250
  18014509.750
 23  2 19  2  0 11.0000000  0 07G02G05G06G11G12G20G29 +1.000,13.0,3.80
  18939378.250
  22460317.750
  23195964.250
  21351744.250
  21755464.750
  21026466.750
  19106825.250
 23  2 19  2 30  8.0000000  0 07G05G06G11G12G19G20G29 0.78,13.0,3.80
  23880980.250
  20333396.750
  17995433.250
  18584046.750
  20914149.250
  23213276.750
  20335380.250
 23  2 19  3  0 14.0000000  0 07G02G05G06G11G12G20G29 +0.560,13.5,3.80
  21017995.250
  18409390.250
  22278765.250
  19558701.250
  20530098.750
  18518108.250
  20401903.250
 23  2 19  3 30  8.0000000  0 06G02G05G11G15G25G29 0.69,12.5,3.80
  23281540.250
  21019370.750
  22960852.250
  18769076.250
  23613563.250
  22347697.250
 23  2 19  4  0  9.0000000  0 07G02G05G11G13G15G20G29 0.82,14.0,3.80
  21740903.750
  20102129.250
  22600861.250
  21903008.250
  22433074.250
  21467382.750
  20665950.250
 23  2 19  4 30  6.0000000  0 06G05G11G13G18G23G29 0.94,14.5,3.80
  20038251.250
  22903123.250
  20675326.250
  22669319.750
  23791758.250
  19885391.250
