     2.00           OBSERVATION DATA    G(GPS)              RINEX VERSION / TYPE
goGPS-java                              17-Apr-24 14:07:14  PGM / RUN BY / DATE
                                                            MARKER NAME
                                                            MARKER NUMBER
                    Lotek Wireless Inc.                     OBSERVER / AGENCY
7                                                           REC # / TYPE / VERS
                                                            ANT # / TYPE
    73993.0000 -5057250.0000  3872763.0000                  APPROX POSITION XYZ
        0.0000        0.0000        0.0000                  ANTENNA: DELTA H / E / N
     2     0                                                WAVELENGTH FACT L1/2
     1    C1                                                # / TYPES OF OBSERV
  2023     3     6     3    19    9.0000000     UTC         TIME OF FIRST OBS
                                                            END OF HEADER
 23  3  6  3 30 13.0000000  0 00 0.22,23.5,3.75
 23  3  6  4  0 11.0000000  0 04G02G13G23G29 +0.800,13.0,3.75
  21543397.250
  21310498.750
  23796083.750
  21024512.250
 23  3  6  4 30  5.0000000  0 07G02G05G13G15G18G23G29 0.83,13.0,3.75
  18503402.750
  19643661.750
  18489455.750
  23579304.250
  19076453.750
  20083368.750
  18664507.250
 23  3  6  5  0 10.0000000  0 07G02G10G13G15G18G24G29 0.86,13.0,3.75
  21106180.250
  18668833.250
  21533068.750
  20080140.250
  20937004.250
  18200651.250
  22095690.250
 23  3  6  5 30  5.0000000  0 07G05G10G13G15G23G27G29 0.89,13.0,3.75
  21273762.250
  21127941.750
  19662465.250
  23720894.750
  18687340.750
  21624841.250
  20505729.750
 23  3  6  6  0  5.0000000  0 07G02G10G13G15G18G23G24 0.91,12.5,3.75
  22637227.250
  23753125.250
  18146384.250
  21817506.750
  20922090.250
  21666660.250
  22829257.250
 23  3  6  6 30  7.0000000  0 08G02G08G10G15G18G23G24G27 0.94,12.5,3.75
  21728520.750
  18254948.250
  21327507.750
  21048369.250
  19332701.250
  19674763.250
  20441247.250
  22346843.750
 23  3  6  7  0  5.0000000  0 07G08G10G15G23G24G27G32 0.97,12.5,3.75
  20171565.250
  23061816.750
  18520233.250
  21926464.750
  22535382.750
  18821559.250
  18085309.750
 23  3  6  7 30 11.0000000  0 05G10G22G23G24G32 +1.000,12.5,3.75
  21555836.250
  24182374.250
  21026907.250
  21747345.750
  22369135.750
 23  3  6  8  0 11.0000000  0 07G18G21G22G23G24G27G32 +1.000,12.5,3.75
  20874655.750
  23356118.250
  21026245.750
  18975090.250
  20031536.250
  22727300.750
  19513680.250
 23  3  6  8 30  5.0000000  0 07G10G21G22G23G25G28G32 1.00,12.0,3.75
  18743563.750
  22682016.250
  20509126.750
  19620559.250
  22625836.250
  21124557.250
  19338674.250
 23  3  6  9  0 10.0000000  0 08G10G12G22G23G25G28G31G32 1.00,11.5,3.75
  20373275.750
  23957484.250
  21627418.250
  21980449.250
  23360322.250
  21697826.250
  22544529.250
  20826881.250
 23  3  6  9 30  6.0000000  0 06G10G21G23G25G31G32 1.00,10.5,3.75
  18187660.250
  20903518.250
  20460702.750
  20195972.750
  19007498.750
  18384477.250
 23  3  6 10  0  5.0000000  0 06G12G21G23G25G28G32 1.00,10.0,3.75
  18880500.250
  18448065.750
  19153227.250
  23368176.750
  21501742.250
  22111188.750
 23  3  6 10 30  8.0000000  0 06G03G10G21G23G31G32 1.00,9.0,3.75
  21682528.750
  19042803.750
  20563694.750
  22241404.750
  23151745.250
  18250276.750
 23  3  6 11  0  9.0000000  0 07G01G03G10G21G22G25G31 1.00,8.5,3.75
  19842891.750
  20251844.750
  19867658.250
  20803406.250
  23540840.250
  19353230.750
  22767181.750
 23  3  6 11 30  6.0000000  0 06G01G21G22G28G31G32 1.00,8.0,3.75
  21952723.750
  22992604.250
  19151256.750
  18988080.250
  18504584.750
  20466244.750
 23  3  6 12  0 11.0000000  0 05G22G26G28G31G32 +1.000,8.0,3.75
  21024982.250
  20564714.250
  21242930.750
  20635358.750
  22816044.750
 23  3  6 12 30  9.0000000  0 06G03G16G22G26G28G29 1.00,8.0,3.75
  21875284.250
  22656717.250
  22058260.750
  20763632.750
  22622664.750
  19643104.750
 23  3  6 13  0  8.0000000  0 06G03G04G16G26G29G31 1.00,7.5,3.75
  21187464.750
  22092420.250
  20906461.750
  20038402.750
  18880960.250
  22064812.250
 23  3  6 13 30  9.0000000  0 06G03G04G16G22G26G31 1.00,8.5,3.75
  22650969.750
  22274947.250
  21231022.750
  23779179.750
  21449198.750
  17996523.250
 23  3  6 14  0  8.0000000  0 07G03G04G07G09G16G26G27 1.00,10.5,3.75
  21202433.250
  19389791.250
  23610574.750
  21705906.250
  18708642.250
  19936924.750
  21651124.250
 23  3  6 14 30 13.0000000  0 04G03G09G16G26 +1.000,13.5,3.75
  21061664.250
  19565478.750
  26066668.250
  19727638.250
 23  3  6 15  0 12.0000000  0 06G03G07G08G09G16G26 +0.800,17.5,3.75
  18422584.750
  23121200.750
  22096929.750
  21037023.750
  20412488.250
  23040309.250
 23  3  6 15 30  9.0000000  0 06G04G07G08G09G16G27 0.90,20.5,3.75
  18646806.750
  20661934.750
  19430878.250
  18895961.250
  19503244.250
  18950415.250
 23  3  6 16  0 16.0000000  0 04G04G07G09G30 +1.000,24.5,3.75
  20459103.750
  21040868.250
  19948990.750
  23932233.750
 23  3  6 16 30 16.0000000  0 07G04G07G08G09G14G16G27 1.00,24.0,3.75
  22270923.250
  21197822.750
  20441965.750
  21109391.750
  18618587.750
  23470800.250
  21530318.250
 23  3  6 17  0 21.0000000  0 04G07G08G21G30 +1.000,25.0,3.75
  21272624.750
  21206285.250
  23750512.250
  23368468.250
 23  3  6 17 30 11.0000000  0 05G07G08G09G21G30 +1.200,26.5,3.75
  21026280.250
  21817697.750
  23472540.250
  23062055.750
  22542783.750
 23  3  6 18  0 12.0000000  0 04G07G17G21G30 +1.200,27.5,3.75
  19448412.750
  22392930.750
  21044723.750
  20264075.750
 23  3  6 18 30  5.0000000  0 06G01G07G14G17G21G30 1.08,27.5,3.75
  23085496.250
  21815148.250
  22775737.750
  23468531.250
  23015191.250
  21855500.250
 23  3  6 19  0  5.0000000  0 06G01G07G14G17G21G30 0.96,28.0,3.75
  21405894.250
  21418500.750
  21238707.250
  21656977.750
  22280304.250
  20671949.250
 23  3  6 19 30  5.0000000  0 07G01G13G14G17G19G21G30 0.84,27.0,3.75
  20381736.750
  22677900.750
  20067085.250
  20329195.250
  22587630.250
  22142876.750
  20098266.750
 23  3  6 20  0 11.0000000  0 06G01G13G14G17G19G30 +0.720,27.0,3.75
  21589479.750
  18103989.750
  20828345.750
  21018063.250
  22627401.250
  21666769.750
 23  3  6 20 30 13.0000000  0 05G01G06G14G17G19 +1.200,25.5,3.75
  21439253.250
  22505781.750
  20009944.250
  20144190.750
  21061401.750
 23  3  6 21  0 28.0000000  0 01G06 1.20,26.5,3.75
  22415696.750
 23  3  6 21 30 11.0000000  0 05G03G06G14G19G24 +1.200,26.0,3.75
  23422477.750
  21025669.250
  21324489.250
  20705075.750
  23477812.750
 23  3  6 22  0 11.0000000  0 04G03G06G14G17 1.20,27.0,3.75
  23029687.250
  23605813.750
  21658668.250
  21026945.250
 23  3  6 22 30  6.0000000  0 06G06G11G12G17G19G24 1.20,26.0,3.75
  21117011.250
  23116899.250
  18838597.750
  22832946.250
  21435024.250
  18370645.250
 23  3  6 23  0 11.0000000  0 05G06G11G17G19G24 +1.200,23.5,3.75
  20631715.250
  21745538.750
  22793279.750
  21026678.250
  18297330.750
 23  3  6 23 30 11.0000000  0 06G11G12G17G19G20G25 +1.200,21.5,3.75
  20869912.750
  21862416.250
  23072145.250
  21026380.250
  22524598.750
  18050587.250
 23  3  7  0  0 11.0000000  0 07G05G06G12G17G19G20G25 +1.200,19.0,3.75
  23497421.750
  20742204.250
  20746079.750
  23302305.250
  21061463.750
  21025820.250
  22506797.250
 23  3  7  0 30  8.0000000  0 07G05G06G11G12G20G25G29 1.12,17.0,3.75
  20973893.750
  20203022.250
  18839230.750
  19258537.250
  19031095.750
  20478126.250
  23552041.250
 23  3  7  1  0  7.0000000  0 06G05G06G12G19G20G25 1.04,15.5,3.75
  18369439.250
  19488387.750
  23935639.250
  19907987.250
  23100091.250
  18552455.250
 23  3  7  1 30  8.0000000  0 07G02G05G11G12G20G25G29 0.96,15.0,3.75
  23025068.250
  20322550.250
  20651830.750
  21308929.750
  19811823.250
  21323510.250
  22670007.250
 23  3  7  2  0 10.0000000  0 07G02G05G11G12G20G25G29 0.88,14.5,3.75
  22023888.250
  19441432.250
  20750954.750
  21825030.750
  19674423.250
  21322896.750
  21285512.750
 23  3  7  2 30 16.0000000  0 06G02G05G11G20G25G29 +0.800,14.5,3.75
  21107311.250
  18939088.250
  20985093.250
  19827406.250
  21671993.250
  20087063.250
 23  3  7  3  0  7.0000000  0 06G02G05G11G18G20G29 0.80,13.5,3.75
  22880839.750
  21388686.750
  23935256.750
  19139924.250
  22789773.750
  21777998.750
 23  3  7  3 30  5.0000000  0 07G02G05G13G15G18G20G29 0.80,14.0,3.75
  20235399.250
  19613405.250
  20027158.250
  20093094.250
  21982762.750
  21379663.250
  19317324.250
 23  3  7  4  0  6.0000000  0 06G02G05G15G18G23G29 0.80,15.0,3.75
  23963914.750
  18304544.750
  23304930.750
  19125334.250
  20128003.750
  23518162.750
 23  3  7  4 30  6.0000000  0 07G02G05G13G15G18G23G29 0.80,14.5,3.75
  21871737.750
  23138539.750
  21907348.750
  20921592.250
  22354107.750
  23355097.250
  22135627.750
 23  3  7  5  0 12.0000000  0 05G02G13G15G23G29 +0.800,13.0,3.75
  20300678.250
  20804916.750
  19277040.250
  21035461.250
  21403862.750
 23  3  7  5 30 11.0000000  0 07G02G10G13G15G18G23G29 +1.200,12.5,3.75
  21964548.250
  18243271.250
  23026422.750
  21025089.750
  20914145.250
  21843912.750
  23887812.750
 23  3  7  6  0 11.0000000  0 05G10G15G18G23G27 +1.200,11.5,3.75
  21024202.250
  19309683.250
  18287563.250
  18993084.250
  21670226.750
 23  3  7  6 30 14.0000000  0 06G02G10G15G18G23G24 +0.600,11.0,3.75
  23247327.750
  22636225.250
  22595892.750
  20773463.250
  21049392.250
  21769449.750
 23  3  7  7  0 22.0000000  0 06G02G08G18G24G27G32 +1.400,10.5,3.75
  21651484.750
  22519113.250
  18672469.750
  18910884.250
  21247681.750
  20337459.750
 23  3  7  7 30 10.0000000  0 05G08G10G24G27G32 +1.200,9.5,3.75
  18660967.750
  21024322.750
  21334870.750
  23932329.250
  21812059.750
 23  3  7  8  0 10.0000000  0 05G10G18G23G24G32 +1.400,9.0,3.75
  21027292.250
  23274941.250
  21271259.250
  22390598.250
  21702687.750
 23  3  7  8 30 10.0000000  0 06G10G21G22G23G28G32 +1.400,8.5,3.75
  21027081.250
  18890664.750
  22723592.250
  22002251.750
  23252226.250
  21608964.750
 23  3  7  9  0 10.0000000  0 07G01G10G21G22G23G28G32 +1.400,8.5,3.75
  18542917.250
  20594799.750
  23843741.750
  21771588.250
  22293986.250
  21764678.750
  21026814.750
 23  3  7  9 30 19.0000000  0 06G10G22G25G28G31G32 +0.800,9.5,3.75
  21162510.750
  21675826.750
  23028246.250
  21249095.250
  21797778.250
  21318082.250
 23  3  7 10  0 12.0000000  0 07G01G10G21G22G25G28G32 +1.000,10.0,3.75
  23069742.750
  21377212.750
  23416859.250
  21055149.250
  22290129.250
  20405220.250
  21096771.250
 23  3  7 10 30 10.0000000  0 07G01G10G21G22G25G28G32 1.20,8.5,3.75
  20451971.750
  19744676.250
  21194699.750
  18411535.250
  19819521.250
  23757369.250
  18873966.750
 23  3  7 11  0 11.0000000  0 04G01G10G26G32 +1.400,7.5,3.75
  22472758.250
  22586582.750
  21668319.250
  21025971.250
 23  3  7 11 30  8.0000000  0 06G01G03G21G22G28G31 1.10,7.5,3.75
  23598903.250
  22187112.750
  18636572.750
  20719364.750
  20608802.250
  20096015.750
 23  3  7 12  0 16.0000000  0 06G03G22G26G28G31G32 +0.800,7.0,3.75
  21889060.250
  21390912.250
  20794464.750
  21665002.750
  21032681.250
  23240466.250
 23  3  7 12 30 12.0000000  0 07G03G04G16G22G26G28G31 +0.800,7.0,3.75
  21049973.250
  22818331.250
  21677847.750
  21322267.750
  19927566.250
  21933357.750
  21242272.250
 23  3  7 13  0 11.0000000  0 04G04G26G28G31 +1.400,7.5,3.75
  21024391.250
  19117198.750
  21926616.250
  21218790.250
 23  3  7 13 30 12.0000000  0 05G04G09G16G26G31 +1.400,8.0,3.75
  18325533.750
  21023745.250
  25696202.250
  26069945.250
  20250190.250
 23  3  7 14  0 15.0000000  0 05G03G04G09G26G31 +1.000,9.0,3.75
  21091763.250
  19077363.750
  21319989.250
  19820344.750
  22576083.750
 23  3  7 14 30 11.0000000  0 06G03G04G07G09G26G27 +1.600,8.5,3.75
  22367625.750
  18963599.750
  22714437.250
  20604498.250
  21027796.250
  20518748.750
 23  3  7 15  0 17.0000000  0 04G04G07G16G27 +1.200,10.5,3.75
  20656941.250
  23630972.250
  21130750.750
  21531155.250
 23  3  7 15 30 22.0000000  0 01G16 1.40,11.5,3.75
  21911809.250
 23  3  7 16  0 11.0000000  0 05G07G08G09G27G30 +1.600,11.5,3.75
  22000030.250
  20881156.250
  21026547.250
  21277792.750
  24852044.250
 23  3  7 16 30  9.0000000  0 08G04G07G08G09G14G16G27G30 1.60,12.5,3.75
  19422819.750
  18121321.250
  23439069.750
  18187864.250
  21493197.750
  20623817.250
  18634842.750
  20620003.750
 23  3  7 17  0 40.0000000  0 04G07G08G09G30 1.60,13.0,3.75
  21466555.250
  21520096.250
  19511340.250
  23484121.750
 23  3  7 17 30 11.0000000  0 06G07G08G09G14G17G30 +1.600,13.5,3.75
  21026292.250
  21940562.750
  23645162.250
  23494779.250
  18963898.250
  22452226.250
 23  3  7 18  0  7.0000000  0 07G01G07G08G09G17G21G30 1.38,13.5,3.75
  23863438.750
  21500037.250
  23281762.250
  19270460.750
  18285757.250
  23038892.250
  22213171.750
 23  3  7 18 30 11.0000000  0 07G07G08G13G14G17G21G30 +1.160,14.5,3.75
  21091608.250
  23590132.750
  23834449.750
  21903502.750
  22552963.750
  22238659.250
  21018369.750
 23  3  7 19  0  8.0000000  0 07G01G13G14G17G19G21G30 1.31,15.0,3.75
  18574263.750
  20592254.750
  18404756.750
  18796548.750
  21529104.750
  19578126.750
  23902447.250
 23  3  7 19 30  6.0000000  0 06G01G13G17G19G21G30 1.45,18.0,3.75
  22560374.750
  18898271.750
  22450770.750
  18625845.250
  18435721.750
  22332587.250
 23  3  7 20  0 11.0000000  0 04G01G14G19G30 +1.600,22.0,3.75
  20170980.750
  19328509.250
  21025445.750
  20289139.750
 23  3  7 20 30 16.0000000  0 04G01G14G17G19 +1.400,19.5,3.75
  22645539.250
  21112974.750
  21236379.750
  22056069.750
 23  3  7 21  0 11.0000000  0 06G01G03G14G19G24G30 +1.600,14.5,3.75
  20490387.750
  21025514.750
  18202197.750
  18340082.750
  21285180.750
  20955021.250
 23  3  7 21 30 11.0000000  0 05G03G06G14G17G19 +1.600,14.5,3.75
  21025474.250
  18545678.750
  19035995.750
  18760892.250
  18289936.750
 23  3  7 22  0 13.0000000  0 05G06G11G14G17G19 +1.200,14.0,3.75
  21054060.250
  23735845.250
  22889705.250
  22189129.750
  21181332.750
 23  3  7 22 30 11.0000000  0 06G06G12G14G17G19G24 +1.600,13.5,3.75
  19234884.750
  22793627.750
  22290451.250
  21025707.750
  19572845.250
  22543569.250
 23  3  7 23  0 16.0000000  0 04G11G12G17G19 +1.600,13.0,3.75
  21113285.250
  22445545.250
  22329286.250
  20521274.250
 23  3  7 23 30  9.0000000  0 06G06G11G12G17G19G20 1.60,12.0,3.75
  19773127.750
  19867414.750
  20804982.250
  22209304.750
  20135740.250
  21425916.250
 23  3  8  0  0 11.0000000  0 07G05G06G09G12G17G19G20 +1.600,11.5,3.75
  23189673.250
  20709977.250
  18262910.750
  20564691.750
  23282248.750
  21025242.250
  20784162.250
 23  3  8  0 30 11.0000000  0 07G05G06G11G12G19G20G25 +1.240,11.0,3.75
  22871232.250
  22375127.750
  20918372.750
  21323534.250
  22701813.750
  21018213.250
  22464061.750
 23  3  8  1  0  9.0000000  0 07G05G06G11G19G20G25G29 1.43,10.0,3.75
  22752567.250
  18124305.250
  22074197.250
  18567292.750
  21590896.250
  23044880.250
  19330024.750
 23  3  8  1 30  8.0000000  0 07G02G05G09G11G12G20G25 1.61,10.0,3.75
  20438414.750
  23729707.250
  21726761.250
  18211335.750
  18917208.750
  23323970.750
  18855176.250
 23  3  8  2  0 11.0000000  0 06G02G05G06G11G20G25 +1.800,11.0,3.75
  21569406.750
  19025404.250
  23316645.750
  20450470.750
  19354328.750
  21027686.750
 23  3  8  2 30 10.0000000  0 08G02G05G11G12G13G20G25G29 1.73,11.5,3.75
  18449728.750
  22353739.250
  18481987.750
  20126821.750
  18941673.750
  23317223.250
  19195414.250
  23398283.750
 23  3  8  3  0  6.0000000  0 06G02G11G13G15G18G29 1.67,11.5,3.75
  20831312.250
  22046813.250
  20856629.750
  21279912.750
  23022859.750
  19735132.250
 23  3  8  3 30 16.0000000  0 04G02G18G20G29 +1.600,12.0,3.75
  19800368.750
  21470067.250
  21116573.250
  18932048.250
 23  3  8  4  0  8.0000000  0 07G05G13G15G18G20G23G29 1.47,11.0,3.75
  20713506.750
  20038827.750
  19529704.750
  21313552.750
  22729126.250
  22310919.750
  19883306.250
 23  3  8  4 30  6.0000000  0 07G02G05G13G15G18G23G29 1.33,10.5,3.75
  23128260.250
  18520582.750
  23217806.750
  22156075.750
  23513819.250
  18518364.750
  23503719.750
 23  3  8  5  0 15.0000000  0 04G02G10G13G18 +1.200,10.5,3.75
  20510205.250
  23783647.250
  21089503.750
  20136976.250
 23  3  8  5 30  7.0000000  0 07G02G13G15G18G23G24G29 1.28,10.0,3.75
  22044399.750
  23181767.250
  21123761.250
  20890565.750
  21799588.250
  23333439.250
  18076080.750
 23  3  8  6  0 11.0000000  0 06G15G18G23G24G27G29 +1.360,10.5,3.75
  21498832.750
  20358598.750
  21017968.250
  22040760.250
  23682994.250
  18934038.750
 23  3  8  6 30 11.0000000  0 07G02G10G15G18G23G27G32 +1.800,11.0,3.75
  23577303.250
  22748010.250
  22940151.750
  21025603.750
  21227039.250
  23939192.250
  23972096.250
 23  3  8  7  0 11.0000000  0 06G10G18G22G23G24G32 +1.800,11.0,3.75
  21025370.250
  20506926.250
  23952133.250
  20045311.250
  20654865.250
  21971905.750
 23  3  8  7 30 24.0000000  0 05G10G18G23G24G32 +2.000,11.5,3.75
  21260525.250
  22186651.250
  20911307.250
  18710297.750
  22029414.250
 23  3  8  8  0  6.0000000  0 06G10G18G22G23G24G32 1.70,10.5,3.75
  21905781.750
  18364282.250
  23982744.750
  22246267.250
  23425872.750
  22570157.250
 23  3  8  8 30 11.0000000  0 07G10G22G23G24G28G31G32 +1.400,10.0,3.75
  21018161.250
  22647502.250
  22094543.750
  23751957.250
  23099732.750
  18154576.250
  21585606.250
 23  3  8  9  0 10.0000000  0 06G10G22G23G28G31G32 +1.800,10.0,3.75
  21024463.250
  22119202.750
  22819300.250
  22046206.750
  22864102.250
  21428502.750
 23  3  8  9 30 10.0000000  0 06G01G10G23G25G31G32 +2.000,10.0,3.75
  23669970.750
  21027996.250
  23464036.250
  22763722.250
  21496808.250
  21136159.250
 23  3  8 10  0  8.0000000  0 07G10G21G22G25G28G31G32 1.74,9.5,3.75
  19429570.250
  21389629.750
  18981061.750
  20220493.750
  18317933.250
  18523923.250
  19078439.750
 23  3  8 10 30 10.0000000  0 07G10G22G25G26G28G31G32 +1.480,9.5,3.75
  22500242.750
  21018315.250
  22472533.750
  23594724.750
  20385012.750
  20285517.750
  21539693.250
 23  3  8 11  0  5.0000000  0 06G22G25G26G28G31G32 1.59,9.0,3.75
  22364311.750
  18338790.750
  23755953.250
  21955501.750
  21601078.750
  23332464.750
 23  3  8 11 30  6.0000000  0 06G03G22G26G28G31G32 1.69,8.5,3.75
  19363639.750
  18035593.750
  18297776.250
  23972144.750
  23431272.250
  19471892.250
 23  3  8 12  0 13.0000000  0 06G03G16G22G26G28G31 +1.800,8.5,3.75
  21773707.750
  23185595.250
  21392803.750
  20673402.250
  21716830.750
  21060390.750
 23  3  8 12 30 11.0000000  0 06G03G16G22G26G28G31 +2.000,8.5,3.75
  20665062.750
  21149654.750
  21026869.250
  19538330.250
  21675871.750
  20963541.750
 23  3  8 13  0 11.0000000  0 06G03G04G16G22G26G31 +2.000,8.5,3.75
  20021182.750
  20610563.750
  19417576.250
  20902635.750
  18861491.750
  21026444.750
 23  3  8 13 30 11.0000000  0 06G03G04G16G26G28G29 +2.000,9.5,3.75
  22236746.750
  21484818.250
  20507204.250
  21025937.750
  18338906.250
  19785260.750
 23  3  8 14  0 12.0000000  0 04G03G04G16G26 +2.000,9.0,3.75
  23783453.750
  21574218.750
  21025258.750
  22504721.250
 23  3  8 14 30 11.0000000  0 07G04G07G09G16G26G27G31 +1.600,9.0,3.75
  18786642.750
  22450660.250
  20334738.250
  18787480.750
  21018501.750
  20250559.750
  23723918.750
 23  3  8 15  0  6.0000000  0 06G04G07G08G09G16G27 1.80,8.5,3.75
  21891565.250
  18739369.250
  23636590.250
  22708807.750
  22435015.750
  22677594.750
 23  3  8 15 30 11.0000000  0 04G04G08G09G27 +2.000,9.0,3.75
  20611163.250
  21024221.750
  20648460.750
  20745590.250
 23  3  8 16  0 11.0000000  0 05G04G07G08G09G27 +2.000,10.0,3.75
  21950214.750
  22100171.250
  21023991.750
  21252884.250
  21531313.250
 23  3  8 16 30 11.0000000  0 06G07G08G09G16G21G27 +2.200,10.0,3.75
  21027662.250
  20435198.750
  21258701.250
  23765993.250
  23807223.750
  21732858.250
 23  3  8 17  0 14.0000000  0 06G07G08G09G14G27G30 +2.200,11.0,3.75
  19077058.250
  19233352.250
  20580312.250
  21999366.750
  21229039.750
  21026940.750
 23  3  8 17 30 13.0000000  0 04G07G08G09G17 +1.800,11.5,3.75
  20019645.750
  21057454.750
  22809167.750
  23807183.750
 23  3  8 18  0 10.0000000  0 07G07G08G13G14G17G21G30 1.93,14.0,3.75
  23834819.750
  19731038.750
  21400501.250
  19480104.250
  20448268.750
  19319049.750
  18444698.750
 23  3  8 18 30 10.0000000  0 06G01G07G14G17G21G30 2.07,15.0,3.75
  23342054.750
  22433750.250
  23096283.750
  23705987.250
  23530033.250
  22249864.250
 23  3  8 19  0 11.0000000  0 05G07G14G17G21G30 +2.200,14.0,3.75
  21986508.750
  21451226.250
  21818865.750
  22760917.250
  21026916.250
 23  3  8 19 30 10.0000000  0 07G01G13G14G17G19G21G30 2.20,14.0,3.75
  18394058.750
  20763359.250
  23979565.750
  18222351.250
  20303236.750
  20372696.250
  18221071.750
 23  3  8 20  0 12.0000000  0 06G06G07G14G17G19G30 +2.200,15.5,3.75
  23385811.750
  23178898.750
  19941731.750
  20119088.250
  21535914.250
  21027049.750
 23  3  8 20 30  8.0000000  0 06G01G06G14G17G19G30 1.96,14.0,3.75
  22016633.750
  22508823.250
  20384284.750
  20495822.250
  21222743.250
  22388122.750
 23  3  8 21  0 11.0000000  0 06G06G14G17G19G24G30 +1.720,13.5,3.75
  21017870.250
  20296154.250
  20259180.250
  20316789.250
  23228239.750
  23158447.750
 23  3  8 21 30 11.0000000  0 04G03G11G14G19 +2.200,12.5,3.75
  23783528.750
  18466030.750
  21900456.750
  21026036.250
 23  3  8 22  0  8.0000000  0 06G03G06G11G17G19G24 2.10,11.5,3.75
  21228430.250
  18021026.750
  20607054.750
  19258511.750
  18186711.750
  20969579.250
 23  3  8 22 30 12.0000000  0 04G06G11G17G19 +2.000,9.5,3.75
  19273181.750
  21039451.250
  21132502.250
  19627436.750
 23  3  8 23  0 22.0000000  0 06G06G11G12G17G19G20 +1.400,8.5,3.75
  21175555.250
  22038638.750
  23313310.750
  23419481.750
  21571586.250
  18181848.250
 23  3  8 23 30 11.0000000  0 07G06G11G12G17G19G20G25 +2.200,11.0,3.75
  20167964.250
  20142640.750
  21024836.250
  19926238.750
  20523868.750
  21602304.250
  23115525.250
 23  3  9  0  0  9.0000000  0 06G06G11G12G19G20G25 2.20,10.0,3.75
  21492885.750
  20649896.250
  21204844.250
  21805907.750
  21362978.250
  22834928.750
 23  3  9  0 30 11.0000000  0 06G05G06G11G12G19G25 +2.200,10.5,3.75
  21252881.250
  21025288.750
  19478887.750
  19874819.250
  21362217.250
  20935244.750
 23  3  9  1  0 10.0000000  0 08G02G05G06G11G12G20G25G29 2.15,10.5,3.75
  22715394.750
  20089704.750
  21699402.250
  19580613.250
  20046250.250
  19031670.250
  20492109.250
  22636863.250
 23  3  9  1 30  6.0000000  0 06G02G05G12G20G25G29 2.10,10.0,3.75
  18256982.250
  21552149.250
  22930183.250
  21249373.750
  22792967.250
  23780855.750
 23  3  9  2  0 10.0000000  0 06G02G11G13G20G25G29 2.05,10.0,3.75
  19916941.750
  18951090.250
  20901827.250
  23834228.250
  19537637.250
  19080399.250
 23  3  9  2 30 14.0000000  0 05G02G05G11G20G29 +2.000,10.5,3.75
  23081458.750
  21074850.250
  23275853.750
  22113422.250
  22010387.750
 23  3  9  3  0  8.0000000  0 06G02G05G11G15G20G29 2.20,10.5,3.75
  23450708.250
  22184022.750
  18834303.750
  23798785.250
  23692800.250
  22367178.750
 23  3  9  3 30 11.0000000  0 04G02G11G13G29 +2.400,11.0,3.75
  21026942.250
  23605878.750
  20785433.750
  20211461.750
 23  3  9  4  0  6.0000000  0 07G02G05G13G15G18G23G29 2.40,11.0,3.75
  22031676.250
  22633825.250
  21852997.250
  21270297.250
  23015412.250
  18013329.250
  21762292.750
 23  3  9  4 30 11.0000000  0 05G02G10G13G15G29 +2.400,10.5,3.75
  21026718.250
  19166381.750
  21175174.250
  20036436.250
  21519291.750
 23  3  9  5  0  6.0000000  0 07G05G13G15G18G23G24G29 2.40,10.5,3.75
  23139604.750
  21534688.250
  19870150.250
  20407742.250
  21398128.750
  23420432.750
  22221219.750
 23  3  9  5 30 11.0000000  0 06G02G13G18G23G24G29 +2.400,11.5,3.75
  21026611.250
  22240516.250
  19765453.750
  20649874.250
  22107662.750
  23159342.750
 23  3  9  6  0  6.0000000  0 07G02G10G15G18G24G27G32 2.40,10.0,3.75
  19713461.250
  20244428.750
  18967329.750
  23709630.250
  19290172.750
  20980870.250
  21787307.250
 23  3  9  6 30 11.0000000  0 05G02G10G15G18G27 +2.400,10.0,3.75
  22078685.250
  21025379.250
  21453631.250
  19451024.250
  22310306.250
 23  3  9  7  0  8.0000000  0 06G02G10G15G18G23G27 2.47,10.0,3.75
  21493009.750
  18751062.750
  20913078.750
  18414354.250
  23846326.750
  20889614.250
 23  3  9  7 30  9.0000000  0 07G08G10G18G22G23G28G32 2.53,10.5,3.75
  18061150.250
  20255117.750
  21375602.250
  22689739.250
  19991948.750
  18127361.750
  21008995.250
 23  3  9  8  0 18.0000000  0 06G10G22G23G24G28G32 +2.600,10.0,3.75
  21100254.750
  23113365.750
  21545414.750
  22790910.750
  18050559.250
  21752934.250
 23  3  9  8 30 11.0000000  0 06G10G21G22G24G31G32 +2.400,10.5,3.75
  21024726.250
  24715044.250
  22585269.750
  23925375.750
  24008902.250
  21576131.750
 23  3  9  9  0 11.0000000  0 05G10G22G28G31G32 +2.400,10.5,3.75
  21024799.250
  22033984.250
  21897852.750
  22698897.750
  21397586.250
 23  3  9  9 30 10.0000000  0 06G10G21G22G28G31G32 2.40,10.5,3.75
  23165693.750
  19644338.250
  23470312.250
  22962850.250
  23460906.750
  23221020.750
 23  3  9 10  0 10.0000000  0 05G10G21G22G28G31 +2.400,10.0,3.75
  21024484.750
  22902467.250
  20442181.250
  19770329.750
  19942897.750
 23  3  9 10 30 12.0000000  0 07G01G10G21G22G28G31G32 +2.080,9.5,3.75
  23864551.750
  23399840.250
  18693919.750
  21764854.250
  21152500.750
  21018152.250
  22346111.750
 23  3  9 11  0 10.0000000  0 06G01G21G26G28G31G32 2.26,10.0,3.75
  18724227.750
  19736500.250
  23465889.750
  21873182.250
  21485784.250
  23269913.750
 23  3  9 11 30  8.0000000  0 07G01G03G22G26G28G31G32 2.44,10.5,3.75
  22828899.750
  20975589.750
  19787459.750
  19902765.750
  19780684.250
  19211371.750
  21287005.750
 23  3  9 12  0  9.0000000  0 07G03G04G16G22G26G28G31 2.62,10.5,3.75
  22798241.250
  19078710.750
  18097687.750
  22530611.250
  21693392.750
  22902715.250
  22222262.750
 23  3  9 12 30 15.0000000  0 05G03G16G22G26G31 +2.800,10.5,3.75
  22233696.750
  22570501.750
  22682806.750
  21102983.750
  22633599.750
 23  3  9 13  0 16.0000000  0 05G03G16G22G26G31 +1.800,10.5,3.75
  21793150.250
  21029828.750
  22732196.750
  20628162.250
  22850679.250
 23  3  9 13 30 19.0000000  0 07G03G04G09G16G22G26G31 +2.200,11.0,3.75
  22008118.750
  21054378.750
  23639036.750
  20124155.750
  23241000.250
  20789723.250
  23391527.750
 23  3  9 14  0 11.0000000  0 04G04G09G27G31 +2.600,11.0,3.75
  21025930.750
  23117050.250
  23043346.250
  18868642.750
 23  3  9 14 30 12.0000000  0 05G04G08G09G16G27 +2.600,11.5,3.75
  20945146.750
  23714699.250
  22397350.250
  21026059.750
  22316745.250
 23  3  9 15  0 10.0000000  0 07G04G07G08G09G16G26G27 2.30,12.5,3.75
  18994284.750
  21692362.750
  20561270.250
  19704286.250
  19609256.250
  22399615.750
  19687157.750
 23  3  9 15 30 18.0000000  0 06G04G07G08G09G16G27 +2.000,12.0,3.75
  19664763.250
  21120561.250
  19887837.250
  19594904.250
  20676747.250
  19715482.750
 23  3  9 16  0 11.0000000  0 06G04G07G08G09G16G27 2.20,13.0,3.75
  19293158.250
  19219839.750
  18192592.250
  18504704.250
  20497161.250
  18810255.750
 23  3  9 16 30 10.0000000  0 06G07G08G09G16G21G30 2.40,13.5,3.75
  23725168.250
  23221988.250
  18126163.250
  20696580.750
  20456567.250
  20110558.750
 23  3  9 17  0 12.0000000  0 04G07G08G16G21 +2.600,14.5,3.75
  20753954.750
  21025736.250
  19255587.250
  23053807.750
 23  3  9 17 30 11.0000000  0 06G07G08G09G13G27G30 2.40,16.0,3.75
  19140669.250
  20299469.750
  22095029.750
  23506882.250
  22895396.750
  20379167.750
 23  3  9 18  0 13.0000000  0 05G07G14G17G21G30 +2.200,16.0,3.75
  20538129.250
  22056699.750
  22971661.750
  21960365.750
  21035200.250
 23  3  9 18 30 11.0000000  0 08G01G07G08G13G14G17G21G30 2.30,15.5,3.75
  23134658.250
  22406139.250
  19059404.750
  18894109.750
  22914332.250
  23485485.250
  23452711.750
  22111253.250
 23  3  9 19  0  6.0000000  0 07G01G07G13G14G17G19G30 2.40,15.0,3.75
  20766768.750
  21286365.250
  22879213.750
  20575599.750
  20921527.750
  23505114.250
  20226707.250
 23  3  9 19 30 10.0000000  0 07G01G07G13G17G19G21G30 2.50,15.5,3.75
  23665820.250
  19268905.250
  20071676.750
  23428644.750
  19423414.250
  19750634.250
  23544707.250
 23  3  9 20  0 11.0000000  0 05G01G14G17G19G21 +2.600,16.5,3.75
  22040657.750
  21024505.750
  21195447.750
  22516023.250
  18733645.750
 23  3  9 20 30  8.0000000  0 07G01G03G06G14G17G19G30 2.60,17.0,3.75
  23454202.250
  19190453.250
  23652039.250
  21717505.250
  21815300.750
  22446842.750
  23846229.250
 23  3  9 21  0 11.0000000  0 06G01G06G14G17G19G24 +2.600,15.5,3.75
  22986823.750
  21024303.750
  20497494.250
  20429837.750
  20399380.750
  23280073.250
 23  3  9 21 30 12.0000000  0 06G03G11G14G17G19G24 +2.600,14.0,3.75
  22803959.250
  23321602.750
  21024601.250
  20646608.250
  20020446.250
  22762604.250
 23  3  9 22  0 20.0000000  0 05G03G06G11G17G19 +2.200,11.0,3.75
  18379033.250
  21070820.250
  23550479.750
  22412920.750
  21274556.750
 23  3  9 22 30 17.0000000  0 04G06G11G17G19 +2.800,9.5,3.75
  21027453.750
  22673136.250
  22951925.750
  21395750.250
 23  3  9 23  0 24.0000000  0 04G06G11G19G20 +2.200,12.0,3.75
  20805161.750
  21543939.750
  21199362.250
  23597973.250
 23  3  9 23 30  9.0000000  0 06G06G11G12G19G20G25 2.50,13.0,3.75
  22561476.750
  22420034.250
  23249699.250
  22910754.250
  23781216.750
  19294181.750
 23  3 10  0  0 11.0000000  0 06G11G12G17G19G20G25 +2.800,11.5,3.75
  20413920.250
  20933953.750
  23958680.250
  18675845.750
  21026389.750
  22494183.750
 23  3 10  0 30 11.0000000  0 05G05G06G11G12G20 +2.800,11.0,3.75
  22230779.750
  22269138.250
  20635554.750
  21026791.750
  20561893.250
 23  3 10  1  0 11.0000000  0 06G02G05G11G12G20G25 +2.320,10.5,3.75
  24012866.750
  21360543.250
  21018219.250
  21512458.750
  20406957.750
  21875408.750
 23  3 10  1 30  6.0000000  0 06G02G05G11G12G20G25 2.56,10.0,3.75
  23605097.750
  20913340.750
  21672031.750
  22486221.750
  20713471.750
  22275115.750
 23  3 10  2  0 11.0000000  0 05G02G05G11G20G29 +2.800,9.5,3.75
  21836587.750
  19387133.250
  21026262.250
  19899327.250
  20954477.250
 23  3 10  2 30  6.0000000  0 06G02G05G11G13G20G29 2.80,10.0,3.75
  19820080.250
  23894978.250
  20168803.250
  20169694.750
  19006147.750
  18730547.750
 23  3 10  3  0 11.0000000  0 06G02G11G13G15G20G29 +2.800,9.5,3.75
  20776308.250
  22320288.250
  20706595.750
  21024839.750
  21187361.750
  19711136.250
 23  3 10  3 30  8.0000000  0 06G05G13G15G20G23G29 2.80,10.0,3.75
  22285014.750
  22262003.250
  22131964.250
  18151561.750
  19055879.750
  21754707.750
 23  3 10  4  0 11.0000000  0 07G05G13G15G18G20G23G29 +2.800,10.0,3.75
  21025353.250
  20141148.250
  19481831.750
  21181398.250
  23070636.250
  22172257.750
  20116474.750
 23  3 10  4 30 11.0000000  0 06G02G05G13G15G18G29 +2.440,10.0,3.75
  22022470.250
  23647415.750
  22232028.250
  21018382.750
  22207475.750
  22631204.750
 23  3 10  5  0 11.0000000  0 05G02G15G18G23G29 +2.800,9.0,3.75
  21024693.250
  20021614.750
  20441287.250
  21423227.250
  22483674.250
 23  3 10  5 30 11.0000000  0 06G02G10G13G15G18G23 2.90,8.5,3.75
  20430815.250
  22180516.750
  21718769.250
  19550822.250
  19065413.750
  19922719.750
 23  3 10  6  0 11.0000000  0 06G02G10G15G18G23G24 +3.000,8.5,3.75
  23122629.750
  23443558.750
  22396761.250
  21027750.250
  21582384.250
  22493245.250
 23  3 10  6 30 10.0000000  0 06G02G10G18G23G24G27 2.74,8.5,3.75
  18138023.250
  22856357.750
  21434099.750
  21473415.250
  22114454.250
  18244409.250
 23  3 10  7  0 11.0000000  0 07G08G10G18G23G24G27G32 +2.480,8.5,3.75
  25155487.750
  21835644.750
  21689163.750
  21018163.750
  21654252.250
  24112498.250
  22727530.250
 23  3 10  7 30 11.0000000  0 07G10G18G22G23G24G27G32 +3.000,8.5,3.75
  21026722.250
  22358029.750
  23400392.750
  20857468.250
  21742377.250
  18404896.250
  21765274.250
 23  3 10  8  0 13.0000000  0 06G10G18G22G23G28G32 +2.400,8.5,3.75
  19098325.750
  21978652.750
  21051268.250
  19641316.750
  21912304.750
  19740002.750
 23  3 10  8 30 13.0000000  0 06G10G22G23G24G28G32 +2.400,9.5,3.75
  21051516.750
  22541167.750
  22330730.250
  18122490.750
  22843834.750
  21585165.750
 23  3 10  9  0  9.0000000  0 07G10G12G22G23G25G28G32 2.70,9.0,3.75
  23592497.750
  20873836.750
  18518669.250
  19578749.250
  20050424.250
  18322934.750
  23931785.250
 23  3 10  9 30 11.0000000  0 04G10G21G28G31 +3.000,9.0,3.75
  21026114.250
  23417426.250
  20675973.250
  21145194.250
 23  3 10 10  0  5.0000000  0 07G10G21G23G25G28G31G32 2.91,9.5,3.75
  22457007.250
  18259960.750
  19513358.250
  23007087.250
  21066059.750
  21205336.250
  21952971.250
 23  3 10 10 30 10.0000000  0 07G10G21G22G26G28G31G32 2.82,8.5,3.75
  19138533.250
  20349450.250
  23347136.750
  19601674.250
  22758882.750
  22589665.250
  17991715.750
 23  3 10 11  0 10.0000000  0 07G01G03G10G22G28G31G32 2.73,8.5,3.75
  21314371.250
  20867600.250
  21710785.750
  18764615.750
  18443533.750
  18023541.750
  19857777.250
 23  3 10 11 30 11.0000000  0 07G01G03G22G26G28G31G32 +2.640,8.0,3.75
  18146902.250
  22068597.250
  21018285.750
  20989178.250
  21064490.250
  20466615.750
  22581177.750
 23  3 10 12  0 16.0000000  0 07G03G04G16G22G26G28G31 +3.000,8.0,3.75
  21461622.750
  23656429.250
  22630608.250
  21308792.250
  20352326.250
  21729783.250
  21024765.750
 23  3 10 12 30 11.0000000  0 06G03G16G22G26G28G31 +3.200,7.0,3.75
  22162345.750
  22353867.250
  22691834.250
  21027702.750
  23408052.250
  22652845.250
 23  3 10 13  0 15.0000000  0 06G03G04G16G22G26G31 +2.680,7.0,3.75
  21938014.750
  22181812.250
  21018119.250
  22929947.750
  20767562.750
  23039424.750
 23  3 10 13 30 17.0000000  0 06G03G04G16G26G28G31 +3.200,7.5,3.75
  19644402.750
  18494484.250
  23610167.250
  18418623.750
  21790212.250
  21028001.750
 23  3 10 14  0 22.0000000  0 05G04G09G16G26G31 3.20,9.0,3.75
  18624292.750
  20631451.750
  18222639.750
  19936029.250
  22634328.750
 23  3 10 14 30 11.0000000  0 07G03G04G07G09G16G26G27 +3.200,7.5,3.75
  18938026.250
  21026395.750
  18505130.750
  22381574.750
  21186802.750
  23579905.750
  22306297.750
 23  3 10 15  0 11.0000000  0 04G04G09G16G27 +3.200,8.0,3.75
  20422832.250
  21025895.750
  21106351.250
  21024618.250
 23  3 10 15 30 11.0000000  0 06G04G07G08G09G16G27 +3.200,9.0,3.75
  21052338.750
  22322015.250
  21095426.750
  20881651.250
  22107284.750
  21025877.750
 23  3 10 16  0 11.0000000  0 06G04G07G08G09G16G27 +3.200,9.5,3.75
  22297906.750
  22002108.250
  21025406.750
  21420382.250
  23517681.750
  21753662.250
 23  3 10 16 30 12.0000000  0 05G07G08G14G27G30 +3.200,11.0,3.75
  21042821.750
  20630548.250
  18266756.750
  22132605.750
  23356280.750
 23  3 10 17  0 13.0000000  0 06G07G08G09G14G27G30 +3.000,11.5,3.75
  20671967.750
  21058635.250
  22529205.750
  23458945.250
  23219505.750
  22459785.750
 23  3 10 17 30 16.0000000  0 05G07G08G14G21G30 +3.200,12.5,3.75
  19746455.750
  21025451.250
  21941554.250
  21530984.750
  20882035.250
 23  3 10 18  0 11.0000000  0 05G01G08G14G21G30 +3.200,13.5,3.75
  21474846.750
  21731282.250
  21024535.750
  20997696.250
  20020201.750
 23  3 10 18 30 11.0000000  0 04G07G14G21G30 +3.200,13.0,3.75
  20675688.750
  21024509.750
  21672976.750
  20269427.250
 23  3 10 19  0 13.0000000  0 06G01G07G08G17G21G30 3.20,15.5,3.75
  18763098.750
  19449076.750
  22505321.750
  18876697.250
  20142725.250
  18286983.250
 23  3 10 19 30 10.0000000  0 05G01G14G17G19G30 +3.200,17.0,3.75
  21331700.750
  20804756.250
  21024505.250
  22923522.250
  21260688.750
 23  3 10 20  0 11.0000000  0 05G01G14G17G19G30 +3.200,13.5,3.75
  22132479.750
  21024350.750
  21188353.250
  22412143.750
  22360930.250
 23  3 10 20 30 11.0000000  0 06G06G14G17G19G21G30 +3.200,13.5,3.75
  21024063.250
  19283060.250
  19364794.750
  19900510.250
  18193555.250
  21537217.250
 23  3 10 21  0 15.0000000  0 04G06G14G19G24 +3.400,13.5,3.75
  21027310.750
  20697897.750
  20477457.250
  23329440.750
 23  3 10 21 30 11.0000000  0 05G03G06G14G17G19 +3.400,14.0,3.75
  23761981.250
  21027174.750
  22083433.250
  21649505.250
  20948821.250
 23  3 10 22  0 12.0000000  0 05G03G06G11G17G19 +2.800,12.5,3.75
  18196765.250
  20799196.750
  23178199.250
  22232474.750
  21034627.750
 23  3 10 22 30 11.0000000  0 04G03G06G11G19 +3.400,12.5,3.75
  21027957.750
  22936111.750
  18469224.750
  23315369.250
 23  3 10 23  0 17.0000000  0 06G11G12G17G19G20G24 +3.400,10.5,3.75
  21254915.250
  22417794.750
  22946696.750
  21027214.750
  23224057.750
  18510887.750
 23  3 10 23 30 18.0000000  0 06G06G11G12G17G19G20 +2.600,10.0,3.75
  21141801.750
  20880304.250
  21657111.750
  23633402.250
  21484381.750
  22137397.250
 23  3 11  0  0 10.0000000  0 07G06G11G12G17G19G20G25 3.00,10.0,3.75
  21722799.250
  20673431.250
  21162760.750
  18335437.250
  22035080.750
  21187944.750
  22652140.750
 23  3 11  0 30 11.0000000  0 06G02G05G06G11G12G25 +3.400,9.0,3.75
  18887173.250
  22443556.250
  22745084.750
  21026401.250
  21417511.250
  22315273.250
 23  3 11  1  0 11.0000000  0 06G02G05G11G12G20G25 +3.400,9.5,3.75
  23879517.250
  21204935.250
  21026134.750
  21553087.250
  20356124.750
  21833903.250
 23  3 11  1 30 11.0000000  0 04G05G06G12G20 +3.400,7.5,3.75
  21121725.750
  18698781.750
  22891924.750
  21025851.250
 23  3 11  2  0 10.0000000  0 07G02G05G11G13G20G25G29 3.31,7.5,3.75
  22366036.750
  19971885.250
  21710243.750
  23190208.250
  20571644.250
  22325263.250
  21441710.250
 23  3 11  2 30  6.0000000  0 06G02G05G11G13G20G29 3.22,6.0,3.75
  22261639.750
  20433957.750
  22770614.250
  22542774.250
  21608862.250
  21157659.750
 23  3 11  3  0  7.0000000  0 06G02G05G11G18G20G29 3.13,6.0,3.75
  21542260.250
  20513474.750
  23245771.750
  23534183.750
  22117138.750
  20500438.250
 23  3 11  3 30 11.0000000  0 07G05G11G13G15G18G20G29 +3.040,6.0,3.75
  21179425.750
  18174360.750
  21018237.750
  20818808.750
  22709921.250
  23068946.750
  20579544.250
 23  3 11  4  0 11.0000000  0 04G02G15G18G23 +3.600,6.5,3.75
  20225333.250
  19378039.250
  21027012.750
  22015728.750
 23  3 11  4 30 11.0000000  0 05G05G10G15G18G23 +3.600,6.0,3.75
  23779489.250
  19923971.750
  21027217.750
  22125139.250
  23123951.250
 23  3 11  5  0 18.0000000  0 05G02G10G18G23G29 +2.800,5.0,3.75
  21829819.250
  18651322.250
  21137378.750
  22108832.250
  23408458.750
 23  3 11  5 30  9.0000000  0 07G02G05G10G13G15G18G23 2.90,4.5,3.75
  20912583.750
  23808001.250
  22481331.250
  22273215.250
  20054050.750
  19444663.250
  20271957.750
 23  3 11  6  0 18.0000000  0 04G10G18G23G24 +3.000,4.0,3.75
  21068130.750
  18773216.250
  19268441.250
  20127197.250
 23  3 11  6 30 10.0000000  0 07G02G10G15G18G23G24G32 3.40,4.0,3.75
  19145458.250
  23636759.250
  18541425.250
  22372508.750
  22325533.250
  22949790.750
  18743221.250
 23  3 11  7  0 16.0000000  0 04G10G18G24G27 +3.800,4.0,3.75
  21046352.750
  21095669.750
  20971505.250
  23466993.750
 23  3 11  7 30 15.0000000  0 05G08G10G23G24G32 +3.600,4.0,3.75
  18292800.250
  20300746.250
  20227225.250
  21163146.750
  21024553.750
 23  3 11  8  0 13.0000000  0 06G10G23G27G28G31G32 +3.200,4.5,3.75
  21052760.750
  21696389.250
  19732582.250
  23729223.250
  18956683.250
  21682741.750
 23  3 11  8 30 11.0000000  0 05G10G25G28G31G32 +3.800,4.0,3.75
  21027330.750
  18309261.750
  22674537.750
  23706466.750
  21541783.250
 23  3 11  9  0  5.0000000  0 07G10G12G22G25G28G31G32 3.80,3.0,3.75
  20315200.750
  23519475.750
  21147911.250
  22636418.750
  20895334.750
  21657947.250
  20618624.250
 23  3 11  9 30  6.0000000  0 06G10G12G21G22G28G32 3.80,4.5,3.75
  19306452.250
  22008472.250
  21617428.250
  19386891.750
  18813640.750
  19247585.750
 23  3 11 10  0  6.0000000  0 07G01G10G21G22G25G28G32 3.80,4.0,3.75
  19907020.750
  18768815.250
  20486966.250
  23911270.750
  19201337.750
  23234663.750
  18183874.250
 23  3 11 10 30 10.0000000  0 07G01G10G21G22G28G31G32 3.80,4.0,3.75
  18534837.250
  18297632.250
  19429334.250
  22351531.750
  21790803.250
  21585728.750
  23051900.250
 23  3 11 11  0 14.0000000  0 07G01G21G22G26G28G31G32 3.80,5.5,3.75
  23872275.250
  18908778.750
  21249908.750
  22155968.250
  20975814.750
  20522572.750
  22406214.750
 23  3 11 11 30 16.0000000  0 07G01G04G22G26G28G31G32 +3.800,7.5,3.75
  21025752.250
  21311408.250
  26205898.250
  23641295.250
  23912944.250
  25679038.750
  19443949.250
 23  3 11 12  0 16.0000000  0 06G03G04G22G26G28G31 +3.800,7.0,3.75
  21069262.250
  23177597.750
  21024349.750
  19955806.750
  21491321.250
  20762011.750
 23  3 11 12 30 11.0000000  0 07G03G16G22G26G28G29G31 +4.000,5.5,3.75
  20420437.250
  20461733.250
  21027980.250
  19281940.250
  21774130.250
  18156973.250
  20997290.250
 23  3 11 13  0 17.0000000  0 06G03G16G22G26G28G31 +3.600,7.0,3.75
  19899490.250
  18821725.750
  20941750.250
  18723430.750
  21827843.250
  21039008.750
 23  3 11 13 30 12.0000000  0 04G03G16G22G26 +4.200,7.5,3.75
  23219771.250
  21048372.750
  18516299.750
  21986507.750
 23  3 11 14  0 11.0000000  0 04G04G16G26G27 +4.000,7.0,3.75
  21355768.250
  21026737.750
  22843287.250
  23204301.250
 23  3 11 14 30  5.0000000  0 06G03G07G08G09G16G27 4.00,7.5,3.75
  21293686.250
  20611173.250
  19699161.250
  18492298.250
  23467294.750
  18423304.250
 23  3 11 15  0 11.0000000  0 04G04G08G16G27 4.0000,8.0,3.75
  20514392.250
  19330025.250
  21263297.250
  21026335.750
 23  3 11 15 30 14.0000000  0 05G04G08G09G16G27 +4.000,8.5,3.75
  21026116.250
  20882409.250
  20752004.250
  22121238.250
  20921097.750
 23  3 11 16  0 14.0000000  0 05G04G07G08G09G27 +4.000,9.0,3.75
  21044746.250
  20520892.250
  19601430.750
  20080093.250
  20440908.750
 23  3 11 16 30 11.0000000  0 07G04G07G08G09G14G27G30 +4.000,9.0,3.75
  23580438.750
  21342122.750
  21025280.250
  22075236.250
  18511732.250
  22625722.750
  23587974.750
 23  3 11 17  0 11.0000000  0 06G04G07G08G09G14G27 +4.000,9.5,3.75
  22177444.750
  18282719.750
  18787357.750
  20316391.750
  20999064.750
  21025837.750
 23  3 11 17 30  9.0000000  0 07G01G07G08G09G17G21G30 4.07,10.0,3.75
  23909464.250
  21012894.750
  22408227.750
  18288638.750
  18346944.750
  22738656.250
  22052711.250
 23  3 11 18  0  9.0000000  0 07G01G07G08G13G14G21G30 4.13,10.5,3.75
  19139200.250
  23465844.250
  19667174.250
  20638053.750
  18734830.250
  18781838.250
  23746726.750
 23  3 11 18 30 16.0000000  0 06G01G07G14G17G21G30 +4.200,11.0,3.75
  20483697.750
  20111559.250
  20299490.250
  20799730.750
  21064854.250
  19597827.250
 23  3 11 19  0  9.0000000  0 07G01G07G08G14G17G21G30 4.20,15.5,3.75
  23196276.750
  18037272.250
  21120519.250
  22959955.750
  23267116.750
  18698303.750
  22780435.750
 23  3 11 19 30 11.0000000  0 06G01G14G17G19G21G30 +4.200,15.0,3.75
  21620757.250
  21027702.750
  21239371.250
  23045444.250
  23893477.750
  21598397.250
 23  3 11 20  0 13.0000000  0 05G01G06G14G17G19 +3.800,15.0,3.75
  22103997.750
  23811663.750
  20900317.250
  21056897.250
  22183293.250
 23  3 11 20 30 11.0000000  0 04G06G14G19G30 +4.200,14.5,3.75
  21026737.250
  19477803.750
  19984019.250
  21854159.750
 23  3 11 21  0 17.0000000  0 05G01G03G06G17G19 +3.800,14.0,3.75
  23952947.250
  23619560.250
  21403292.750
  21129867.750
  20926174.750
 23  3 11 21 30 10.0000000  0 06G03G06G11G14G17G19 3.60,12.0,3.75
  22538604.750
  19717617.250
  22723933.750
  20957629.250
  20465275.750
  19692258.250
 23  3 11 22  0 15.0000000  0 04G06G14G17G19 +3.400,10.5,3.75
  20819606.750
  23345079.250
  22343060.250
  21085036.750
 23  3 11 22 30 19.0000000  0 06G06G11G12G17G19G20 +4.200,9.5,3.75
  18134972.250
  19539395.750
  21026178.250
  20173912.250
  18522973.750
  22012345.250
 23  3 11 23  0 16.0000000  0 06G06G11G12G17G19G20 4.20,13.0,3.75
  21046877.250
  21544236.250
  22650426.250
  23386822.750
  21433981.750
  23424560.750
 23  3 11 23 30  8.0000000  0 06G06G11G12G19G20G25 4.20,9.5,3.75
  23567805.750
  23196691.750
  23926079.250
  23904822.750
  18361364.250
  19860623.750
 23  3 12  0  0 25.0000000  0 07G05G06G11G12G19G20G25 +4.200,9.0,3.75
  23542983.250
  22181064.250
  21026073.750
  21487100.750
  22496005.750
  21437923.250
  22897937.750
 23  3 12  0 30 11.0000000  0 05G05G06G09G11G20 +4.200,8.0,3.75
  20466226.750
  21026115.750
  22932139.250
  19225009.750
  18989105.750
 23  3 12  1  0  9.0000000  0 07G02G05G11G12G19G20G29 4.00,8.5,3.75
  22760020.750
  20068455.750
  20046968.750
  20611357.250
  22931766.750
  19322798.250
  22507814.250
 23  3 12  1 30 11.0000000  0 06G02G05G11G12G20G25 +3.800,9.0,3.75
  23674722.750
  21018265.750
  22043484.250
  22979631.750
  21021977.750
  22624472.750
 23  3 12  2  0 11.0000000  0 04G05G11G20G29 +4.200,9.0,3.75
  21024832.750
  22858224.250
  21710056.750
  22393188.750
 23  3 12  2 30 10.0000000  0 07G02G05G13G15G20G25G29 4.02,8.0,3.75
  20302983.250
  18574896.250
  20518188.250
  21096571.750
  19815269.250
  21813479.750
  19189448.250
 23  3 12  3  0 11.0000000  0 07G02G05G11G13G15G20G29 +3.840,9.5,3.75
  21163789.250
  20260457.750
  23032609.750
  21018149.750
  21224070.750
  21907781.750
  20152415.250
 23  3 12  3 30 12.0000000  0 06G02G05G15G18G23G29 3.96,10.5,3.75
  18194939.250
  18237846.250
  23671527.250
  19552703.250
  20554491.250
  23570545.750
 23  3 12  4  0  5.0000000  0 07G02G05G13G15G18G23G29 4.08,9.5,3.75
  20349360.750
  21341620.250
  20276308.750
  19467441.250
  21060873.750
  22048869.250
  20377132.250
 23  3 12  4 30 12.0000000  0 04G02G18G23G29 +4.200,10.0,3.75
  20062549.250
  20043512.750
  21041306.750
  20909808.250
 23  3 12  5  0  6.0000000  0 06G02G10G15G18G23G29 4.30,11.5,3.75
  23419349.750
  20089711.250
  22441680.250
  22625053.750
  23584911.750
  19112796.250
 23  3 12  5 30 15.0000000  0 06G02G13G15G18G24G27 +4.400,9.0,3.75
  22636187.250
  18073428.250
  21799519.750
  21062795.750
  23095577.250
  18583763.250
 23  3 12  6  0 13.0000000  0 06G02G10G15G18G23G24 4.40,9.5,3.75
  22726409.250
  22625410.250
  22037840.750
  20451693.250
  20885805.250
  21699252.750
 23  3 12  6 30 13.0000000  0 05G10G18G24G27G32 +4.400,10.0,3.75
  19960715.750
  18862706.250
  19336704.750
  21562710.750
  21025866.250
 23  3 12  7  0 11.0000000  0 07G08G10G18G23G24G27G32 +3.960,8.5,3.75
  18475836.250
  21018142.250
  21259013.750
  20369764.750
  21051347.750
  23580214.750
  21861930.250
 23  3 12  7 30 11.0000000  0 05G10G18G23G24G32 +4.400,8.0,3.75
  21025516.750
  22778245.750
  21046001.750
  22034046.750
  21736493.250
 23  3 12  8  0 11.0000000  0 05G10G18G22G23G32 +4.400,9.0,3.75
  21025344.250
  18321741.250
  22853418.250
  21769532.250
  21643510.250
 23  3 12  8 30 10.0000000  0 06G10G22G23G28G31G32 4.43,9.0,3.75
  21668955.250
  23012760.750
  23146829.750
  23171365.250
  18197400.750
  22162291.750
 23  3 12  9  0  7.0000000  0 07G10G21G22G23G28G31G32 4.46,9.0,3.75
  19478550.750
  22308098.750
  20216640.250
  21640664.750
  19909493.750
  20649216.250
  19741943.750
 23  3 12  9 30  5.0000000  0 06G01G10G22G28G31G32 4.49,8.5,3.75
  23650296.750
  21615292.750
  21577952.750
  20978033.250
  21386325.250
  21493913.750
 23  3 12 10  0 13.0000000  0 07G10G21G22G25G28G31G32 4.51,10.5,3.75
  18611167.250
  20246831.250
  23608181.250
  18925456.250
  22935668.250
  23001698.750
  23935853.250
 23  3 12 10 30  7.0000000  0 08G01G10G21G22G26G28G31G32 4.54,9.5,3.75
  21699500.750
  21570409.750
  22623828.250
  19473525.750
  21398378.250
  18943182.250
  18702403.750
  20233430.750
 23  3 12 11  0 11.0000000  0 07G03G21G22G25G28G31G32 4.57,9.0,3.75
  23304968.250
  19238092.750
  21500503.250
  23845302.250
  21273500.250
  20787835.250
  22718336.250
 23  3 12 11 30 15.0000000  0 06G03G22G26G28G31G32 +4.600,10.0,3.75
  20141854.750
  19357733.250
  19050689.750
  19509160.750
  18854344.750
  21046306.250
 23  3 12 12  0 11.0000000  0 07G03G16G22G26G28G31G32 +4.600,9.0,3.75
  21214196.750
  22128198.250
  21271010.250
  20096973.750
  21780883.750
  21027497.250
  23417790.250
 23  3 12 12 30  9.0000000  0 06G03G16G22G26G28G31 4.70,8.0,3.75
  20765374.250
  20656823.750
  21446135.750
  19622833.750
  22218543.250
  21420011.750
 23  3 12 13  0 15.0000000  0 05G03G16G22G26G28 +4.800,8.0,3.75
  22230729.750
  20998334.750
  23319327.750
  21048536.250
  18214364.750
 23  3 12 13 30 11.0000000  0 05G03G16G22G26G27 +4.600,8.5,3.75
  22268162.750
  19956590.250
  23587460.750
  21026667.750
  23077871.250
 23  3 12 14  0 18.0000000  0 05G03G04G09G16G27 4.6000,9.0,3.75
  22283152.750
  19299868.250
  21139494.750
  19050454.750
  21059410.250
 23  3 12 14 30 11.0000000  0 04G07G08G09G27 4.60000,10.5,3.75
  21991787.250
  21025130.750
  19879434.250
  19818752.750
 23  3 12 15  0 11.0000000  0 05G04G08G09G16G27 4.6000,10.0,3.75
  20602808.250
  21629629.250
  20992350.750
  21414027.250
  21026205.250
 23  3 12 15 30 22.0000000  0 05G04G07G08G16G27 +4.600,10.0,3.75
  21062654.250
  21925957.750
  20729662.250
  22194623.250
  20880086.250
 23  3 12 16  0 11.0000000  0 06G04G07G08G09G27G30 +4.200,10.5,3.75
  21766760.250
  21017829.250
  20160703.250
  20719842.750
  21107801.250
  23625573.750
 23  3 12 16 30 16.0000000  0 06G04G07G08G09G27G30 +0.600,12.5,3.75
  22052441.750
  19581461.750
  19365700.250
  20488047.750
  21062931.250
  21756739.750
 23  3 12 17  0 14.0000000  0 06G07G08G09G14G21G30 0.40,12.5,3.75
  19954296.250
  20578948.250
  22163767.250
  22596813.250
  22063842.250
  21572275.750
 23  3 12 17 30 11.0000000  0 05G07G08G13G14G17 +0.200,15.0,3.75
  21035457.750
  22548339.250
  19024118.750
  23036873.750
  18212238.250
 23  3 12 18  0  9.0000000  0 06G01G07G08G14G21G30 0.40,13.5,3.75
  23212482.750
  21714829.750
  18010794.250
  22849645.250
  22976254.750
  21889734.250
 23  3 12 18 30  9.0000000  0 06G01G07G08G14G21G30 0.60,13.0,3.75
  19990782.750
  19781920.250
  22623362.250
  19815979.750
  20695675.750
  19168730.750
 23  3 12 19  0 10.0000000  0 06G01G07G13G14G17G21 +0.800,12.5,3.75
  21027588.750
  22012281.250
  23270606.250
  20760156.750
  21050913.250
  22641478.750
 23  3 12 19 30 12.0000000  0 06G01G14G17G19G21G30 +0.600,12.0,3.75
  21042489.250
  20379439.250
  20583735.750
  22297597.750
  23403118.750
  21065897.750
 23  3 12 20  0 26.0000000  0 04G14G17G19G30 +0.200,14.5,3.75
  20001913.250
  20149738.250
  21176252.250
  21599936.250
 23  3 12 20 30 17.0000000  0 06G06G14G17G19G24G30 +0.800,14.0,3.75
  21989234.750
  20634304.750
  20678164.750
  21027096.750
  18074142.750
  23131823.750
 23  3 12 21  0 21.0000000  0 05G03G06G14G17G19 +0.400,15.0,3.75
  23367936.750
  21072485.250
  21130440.750
  20951948.250
  20665165.750
 23  3 12 21 30 10.0000000  0 05G06G11G14G17G19 +0.800,13.0,3.75
  21027023.750
  23948155.750
  22447296.750
  21893906.750
  21050979.750
 23  3 12 22  0 12.0000000  0 07G06G11G12G14G17G19G24 +0.400,12.5,3.75
  18890716.750
  21054912.250
  22798237.250
  21576657.250
  20495904.250
  19181860.750
  22069888.250
 23  3 12 22 30 20.0000000  0 06G06G11G12G14G17G19 +0.400,12.0,3.75
  18949420.250
  20233778.750
  21670271.750
  22751062.250
  21038147.750
  19343590.250
 23  3 12 23  0 11.0000000  0 05G06G11G12G17G19 +0.800,11.5,3.75
  20644434.250
  21023794.750
  22075815.750
  23009973.750
  21026685.250
 23  3 12 23 30 16.0000000  0 05G06G11G17G19G20 +0.800,10.5,3.75
  21026562.750
  20540491.750
  23547455.750
  21357890.250
  21597596.250
 23  3 13  0  0 20.0000000  0 04G11G12G17G20 +0.800,9.5,3.75
  21189251.750
  21628319.750
  25071301.750
  21509032.750
 23  3 13  0 30 11.0000000  0 06G05G09G12G19G20G25 +0.800,8.5,3.75
  22405785.750
  19013903.250
  21742541.250
  23616521.750
  21025568.750
  22475780.250
 23  3 13  1  0  7.0000000  0 07G02G05G06G09G11G20G29 0.67,8.0,3.75
  19406458.750
  22697970.750
  19218653.250
  20356670.750
  22829060.750
  22054381.750
  19097082.250
 23  3 13  1 30  7.0000000  0 07G02G05G12G13G20G25G29 0.53,6.5,3.75
  19675779.750
  23039872.750
  19187575.250
  20921520.750
  23138887.250
  18766721.250
  18979350.250
 23  3 13  2  0 15.0000000  0 04G05G20G25G29 +0.400,6.0,3.75
  19822050.250
  20589719.750
  22401531.750
  21088199.250
 23  3 13  2 30 13.0000000  0 07G02G05G11G13G15G20G29 +0.440,6.5,3.75
  22136079.750
  20509598.250
  22968672.750
  22288897.750
  22823202.250
  21811190.250
  21018068.750
 23  3 13  3  0 10.0000000  0 07G02G05G11G15G18G20G29 0.51,6.5,3.75
  18072278.750
  23287994.750
  20099794.750
  18043635.250
  19924406.750
  18978737.250
  23091316.750
 23  3 13  3 30  5.0000000  0 07G02G05G13G18G20G23G29 0.58,8.0,3.75
  18520372.750
  18691545.250
  18277888.750
  19799612.750
  20626206.750
  20793763.250
  23967977.250
 23  3 13  4  0  9.0000000  0 07G02G05G13G15G18G20G29 0.66,7.0,3.75
  18703442.250
  19822651.750
  18675146.250
  23785543.750
  19321131.250
  21898075.250
  18837301.250
 23  3 13  4 30  6.0000000  0 06G02G13G15G18G23G29 0.73,6.0,3.75
  19067029.250
  19475913.250
  18043804.250
  18949347.750
  19944893.750
  20029056.250
 23  3 13  5  0 14.0000000  0 05G02G13G15G18G23 +0.800,5.5,3.75
  21077853.250
  22040964.250
  20116695.250
  20175325.750
  21120442.250
 23  3 13  5 30 13.0000000  0 05G02G10G15G18G23 +1.000,5.0,3.75
  22715879.250
  23907442.250
  21901162.750
  21043941.750
  21800164.750
 23  3 13  6  0 11.0000000  0 07G10G15G18G23G24G27G32 0.80,8.5,3.75
  19805917.250
  19445316.750
  23753907.750
  18127997.250
  18900236.750
  20798738.250
  21146662.250
 23  3 13  6 30 11.0000000  0 07G02G10G18G23G24G27G32 +0.600,10.0,3.75
  18147775.750
  22181888.250
  21247614.750
  21018301.250
  21624974.750
  23896875.250
  23212112.250
 23  3 13  7  0 10.0000000  0 07G10G18G22G23G24G27G32 0.80,5.5,3.75
  22586501.750
  23021497.750
  19202414.750
  22023349.250
  22734134.250
  19296700.750
  23408597.250
 23  3 13  7 30 11.0000000  0 04G22G23G24G32 +1.000,4.5,3.75
  22519772.250
  20441883.250
  21485234.250
  21024435.250
 23  3 13  8  0 11.0000000  0 07G10G12G22G23G27G28G32 +0.640,4.5,3.75
  21018249.750
  25205233.750
  22782699.250
  21861950.250
  19988902.250
  23419477.250
  21623704.750
 23  3 13  8 30 11.0000000  0 05G22G23G28G31G32 +1.200,4.5,3.75
  21027118.750
  21334932.250
  21115834.250
  22125524.750
  20229782.750
 23  3 13  9  0 19.0000000  0 07G01G10G21G22G28G31G32 +1.200,6.0,3.75
  18027384.250
  21027273.750
  23770555.250
  21665067.750
  21304593.250
  22017948.750
  21246929.250
 23  3 13  9 30  8.0000000  0 07G01G12G21G22G28G31G32 1.13,6.0,3.75
  19580322.250
  20275821.750
  19840919.750
  23530846.750
  22907700.250
  23282556.250
  23502646.750
 23  3 13 10  0  8.0000000  0 07G10G21G22G25G28G31G32 1.07,3.5,3.75
  23190296.250
  18753062.250
  22053531.750
  23397741.750
  21388218.250
  21418296.250
  22437224.250
 23  3 13 10 30 14.0000000  0 07G01G21G25G26G28G31G32 +1.000,4.0,3.75
  22533853.750
  23484958.250
  22020427.750
  22014160.750
  19759501.750
  19481279.250
  21077281.250
 23  3 13 11  0 10.0000000  0 07G01G03G22G26G28G31G32 1.10,4.0,3.75
  21736771.750
  20627267.750
  18966539.750
  19566815.750
  18787470.750
  18269195.750
  20245368.750
 23  3 13 11 30 12.0000000  0 06G03G16G22G26G31G32 +1.200,4.0,3.75
  21703890.250
  23338783.250
  21043698.750
  20607377.250
  20562491.250
  22792003.750
 23  3 13 12  0 12.0000000  0 04G16G26G28G31 +1.200,3.5,3.75
  21041001.250
  19138853.750
  20967172.750
  20189538.250
 23  3 13 12 30 11.0000000  0 04G03G16G26G28 +1.400,3.5,3.75
  21287896.250
  21027167.750
  20141493.250
  22835170.750
 23  3 13 13  0 17.0000000  0 07G03G04G09G16G22G26G31 +0.600,4.5,3.75
  21350666.250
  21047639.750
  23801773.250
  19965887.250
  22482662.250
  20162778.250
  22545136.750
 23  3 13 13 30 17.0000000  0 06G03G04G09G16G26G27 +1.400,3.5,3.75
  22276235.750
  20531626.750
  22859765.250
  19826590.750
  21027119.750
  22809742.250
 23  3 13 14  0 18.0000000  0 06G04G07G09G16G26G27 +1.400,4.5,3.75
  19353730.250
  23211803.750
  21106613.250
  19182332.250
  21201262.750
  21025927.750
 23  3 13 14 30 11.0000000  0 05G04G07G08G16G27 +1.400,4.0,3.75
  18886496.750
  22041685.750
  21025182.750
  19281082.250
  19889527.250
 23  3 13 15  0 11.0000000  0 04G04G09G16G27 +1.400,5.5,3.75
  20740269.750
  21025110.750
  21610348.250
  21077981.250
 23  3 13 15 30 11.0000000  0 05G04G07G09G16G27 +1.400,8.0,3.75
  21275973.250
  21946256.250
  20805465.250
  22438932.750
  21025531.250
 23  3 13 16  0 13.0000000  0 06G04G07G08G09G16G27 +1.400,8.0,3.75
  21736236.250
  20759134.250
  19970207.750
  20609919.750
  22980367.250
  21025015.750
 23  3 13 16 30 12.0000000  0 07G04G07G08G14G21G27G30 +1.400,6.5,3.75
  23834829.750
  21137727.250
  21024783.250
  18193916.750
  23627809.750
  22814552.250
  23241949.750
 23  3 13 17  0 12.0000000  0 06G07G08G09G14G27G30 +1.400,7.5,3.75
  20279126.750
  21024849.750
  22662899.750
  22845374.750
  23409202.750
  21809264.750
 23  3 13 17 30 11.0000000  0 07G01G07G08G09G14G17G21 +1.600,7.5,3.75
  21974367.750
  19397909.250
  21028033.750
  22973691.750
  21294853.750
  22408316.250
  21006546.250
 23  3 13 18  0 11.0000000  0 05G01G07G13G21G30 +1.600,7.5,3.75
  22281038.250
  20960642.750
  23871654.750
  22171691.750
  21026901.250
 23  3 13 18 30 11.0000000  0 07G01G07G08G14G17G21G30 1.60,8.0,3.75
  18380268.750
  18342420.250
  21240323.250
  18210833.250
  18650720.750
  19215945.750
  23621428.750
