     2.00           OBSERVATION DATA    G(GPS)              RINEX VERSION / TYPE
goGPS-java                              17-Apr-24 14:04:17  PGM / RUN BY / DATE
                                                            MARKER NAME
                                                            MARKER NUMBER
                    Lotek Wireless Inc.                     OBSERVER / AGENCY
7                                                           REC # / TYPE / VERS
                                                            ANT # / TYPE
    73993.0000 -5057250.0000  3872763.0000                  APPROX POSITION XYZ
        0.0000        0.0000        0.0000                  ANTENNA: DELTA H / E / N
     2     0                                                WAVELENGTH FACT L1/2
     1    C1                                                # / TYPES OF OBSERV
  2023     2    13    20    26    1.0000000     UTC         TIME OF FIRST OBS
                                                            END OF HEADER
 23  2 13 20 30 13.0000000  0 00 0.07,24.5,3.75
 23  2 13 21  0 13.0000000  0 00 0.55,24.0,3.75
 23  2 13 21 30 13.0000000  0 00 1.03,23.5,3.75
 23  2 13 22  0 13.0000000  0 00 1.51,23.5,3.75
 23  2 13 22 30 28.0000000  0 06G01G06G17G19G24G30 +2.000,23.0,3.75
  23343055.750
  22015741.750
  21065900.750
  21223339.250
  18141517.750
  23805623.250
 23  2 13 23  0 29.0000000  0 06G03G06G11G14G17G19 +1.800,23.5,3.75
  20520231.750
  18047866.750
  21283345.250
  18525240.250
  18257055.750
  23771461.750
 23  2 13 23 30  5.0000000  0 06G03G06G11G14G19G24 1.64,22.5,3.75
  18763306.750
  21637970.750
  18270564.250
  23455005.750
  21745463.250
  18502425.750
 23  2 14  0  0 11.0000000  0 06G06G11G12G17G19G24 +1.480,9.0,3.75
  21018187.250
  22862238.250
  24580137.250
  22837319.250
  21342486.750
  24308315.250
 23  2 14  0 30  7.0000000  0 07G06G11G12G17G19G20G24 1.57,4.0,3.75
  18435082.750
  19407783.250
  20778444.250
  20688067.750
  18823039.750
  21611833.750
  22143152.250
 23  2 14  1  0  5.0000000  0 06G11G12G19G20G24G25 1.67,2.5,3.75
  22184691.250
  23152137.250
  22449848.750
  23724974.750
  20168489.750
  19194072.750
 23  2 14  1 30  8.0000000  0 07G05G06G11G12G17G20G25 1.76,1.5,3.75
  21621628.750
  19050158.750
  18326925.750
  18939918.750
  21706878.750
  19123773.250
  20551615.750
 23  2 14  2  0  5.0000000  0 07G02G05G06G12G20G25G29 1.85,1.0,3.75
  18199017.250
  21975181.250
  21383984.250
  20371395.250
  20047463.750
  21450843.250
  18596157.250
 23  2 14  2 30  5.0000000  0 07G02G05G06G09G12G25G29 1.95,1.0,3.75
  18812143.250
  22270073.250
  23551483.250
  19149301.750
  21985170.750
  22479324.250
  18879661.750
 23  2 14  3  0  8.0000000  0 06G02G05G11G12G25G29 2.04,0.5,3.75
  19191799.750
  22525791.750
  22982430.750
  23675984.250
  23604238.750
  18860659.750
 23  2 14  3 30  7.0000000  0 07G02G05G11G12G20G25G29 2.13,0.0,3.75
  19259163.250
  22735997.750
  18166626.750
  19285309.750
  23077623.750
  18735701.750
  18543415.750
 23  2 14  4  0  5.0000000  0 07G02G05G12G13G18G20G29 2.23,0.0,3.75
  19230384.250
  23140508.250
  20908442.250
  19750906.750
  21838749.750
  18151270.250
  18240565.750
 23  2 14  4 30  5.0000000  0 07G02G12G13G15G18G20G29 2.32,0.0,3.75
  18606567.750
  21921385.250
  18654567.250
  19073941.750
  20766526.250
  18741820.750
  23543262.750
 23  2 14  5  0  5.0000000  0 06G02G13G15G18G20G29 2.41,0.0,3.75
  18776812.750
  18565117.250
  18565525.250
  20415892.250
  20153449.250
  23915710.250
 23  2 14  5 30  5.0000000  0 06G05G15G18G20G23G29 2.51,0.0,3.75
  20036763.750
  18901824.250
  20642207.750
  22161701.250
  21693970.250
  19234513.250
 23  2 14  6  0 11.0000000  0 07G05G10G13G15G18G23G29 +2.600,0.0,3.75
  20975088.250
  23872738.250
  19723552.750
  18662783.250
  19981026.750
  21026164.250
  19977444.250
 23  2 14  6 30  6.0000000  0 06G02G10G13G18G23G29 2.67,-0.5,3.75
  20288857.250
  23540598.250
  20856773.250
  19885962.250
  20916059.250
  21456040.750
 23  2 14  7  0  6.0000000  0 08G02G10G13G15G18G23G27G29 2.73,-0.5,3.75
  20552003.250
  22626071.250
  21672926.750
  19621980.250
  19368891.250
  20298059.250
  23138208.250
  22513874.250
 23  2 14  7 30  9.0000000  0 08G02G10G15G18G23G24G27G32 2.80,0.0,3.75
  20560058.250
  21252474.250
  19780316.250
  18630380.750
  19296846.750
  20325826.750
  21949430.250
  22829044.750
 23  2 14  8  0  7.0000000  0 07G10G15G18G23G24G27G32 2.87,0.0,3.75
  21414960.250
  21628175.250
  19713627.750
  19910700.250
  20601192.250
  22613384.250
  22621177.750
 23  2 14  8 30 10.0000000  0 06G02G15G18G24G27G32 2.93,0.0,3.75
  23902525.250
  23304218.750
  20861378.250
  20988465.750
  23365743.750
  22277962.250
 23  2 14  9  0 11.0000000  0 06G08G10G18G22G27G32 +3.000,0.5,3.75
  23998117.750
  20276648.250
  21225582.250
  22855947.750
  23344840.750
  21026721.750
 23  2 14  9 30  5.0000000  0 07G08G10G18G22G24G28G32 3.59,1.5,3.75
  20924025.250
  22502486.750
  18993209.250
  18653542.250
  18011456.750
  19661682.250
  23146120.750
 23  2 14 10  0  5.0000000  0 06G21G22G23G28G31G32 4.19,2.5,3.75
  22351173.750
  20241994.250
  19630566.750
  20701336.250
  21531582.250
  19105654.250
 23  2 14 10 30  5.0000000  0 06G10G22G23G28G31G32 4.79,3.5,3.75
  21834457.250
  22962414.750
  23616731.750
  22899893.250
  23522561.250
  22216794.750
 23  2 14 11  0  5.0000000  0 07G10G21G22G23G28G31G32 5.39,4.0,3.75
  19852032.750
  22403118.250
  20278219.250
  22268177.250
  19820208.750
  20190090.750
  19939514.750
 23  2 14 11 30  5.0000000  0 07G01G10G12G21G28G31G32 5.98,4.5,3.75
  19463448.750
  23924733.750
  20338814.250
  19870402.750
  22814895.250
  22917983.250
  23554894.750
 23  2 14 11 30 59.0000000  0 00 +6.000,5.5,3.75,1,67066,-5050913,3881243,4,2.6
 23  2 14 15  0 11.0000000  0 06G03G04G09G16G26G31 -2.600,8.5,3.75
  21811645.250
  21024542.750
  23694160.750
  20102740.750
  20568626.250
  23340970.750
 23  2 14 15 30 11.0000000  0 04G03G04G07G26 +1.600,9.5,3.75
  21028266.750
  18781901.250
  23001801.250
  19698386.250
 23  2 14 16  0 11.0000000  0 05G04G07G09G16G27 +1.600,9.5,3.75
  19552516.750
  23281848.750
  21102444.750
  19530838.250
  21026418.250
 23  2 14 16 30 11.0000000  0 06G04G07G08G09G26G27 +1.600,9.5,3.75
  18140290.250
  21025884.250
  19885942.250
  18944389.750
  21377628.250
  18917723.750
 23  2 14 17  0  9.0000000  0 07G04G07G08G09G16G26G27 1.64,12.0,3.75
  18434385.750
  20111000.750
  18837595.250
  18450127.250
  19306063.250
  22359172.750
  18546204.750
 23  2 14 17 30  8.0000000  0 06G04G08G09G16G27G30 1.68,15.5,3.75
  22126151.250
  21175567.250
  21398189.750
  23195861.750
  21669709.250
  19091685.250
 23  2 14 18  0  7.0000000  0 07G04G07G09G14G16G27G30 1.72,13.5,3.75
  20513108.750
  18962222.750
  19168511.750
  22272668.250
  21582838.750
  19630032.250
  21406877.750
 23  2 14 18 30  7.0000000  0 07G04G07G08G09G14G21G30 1.76,14.0,3.75
  18788871.250
  21510155.750
  21648819.250
  23001993.250
  18435042.250
  23882322.750
  23475279.250
 23  2 14 19  0 11.0000000  0 04G08G09G14G30 +1.800,14.0,3.75
  19262586.750
  21027781.750
  20620419.250
  19584946.750
 23  2 14 19 30  7.0000000  0 08G01G08G09G13G14G17G21G30 1.83,15.0,3.75
  18023268.250
  23694587.750
  19727510.250
  19370305.250
  23459058.250
  18384635.250
  23306257.250
  22433873.250
 23  2 14 20  0  7.0000000  0 06G01G07G08G14G17G30 1.86,16.5,3.75
  21280852.750
  20323522.750
  22925503.750
  21028413.250
  21598171.250
  20185708.250
 23  2 14 20 30  8.0000000  0 07G01G07G08G13G14G17G30 1.89,16.0,3.75
  23969033.750
  18272258.750
  21308220.250
  20028730.250
  23790342.750
  18130246.250
  23361480.250
 23  2 14 21  0  5.0000000  0 08G01G07G13G14G17G19G21G30 1.91,14.0,3.75
  21302237.250
  22702722.750
  23669424.250
  20899047.250
  21114596.750
  23270412.750
  23269632.250
  21122499.750
 23  2 14 21 30  5.0000000  0 06G01G06G13G17G19G30 1.94,11.0,3.75
  18308835.250
  20896663.250
  20856500.250
  23556487.750
  19034632.750
  18459388.250
 23  2 14 22  0  6.0000000  0 06G01G06G14G17G19G30 1.97,9.5,3.75
  20523416.250
  21084119.250
  18912418.750
  19018920.250
  19780581.250
  20889759.250
 23  2 14 22 30 11.0000000  0 04G01G06G24G30 +2.000,8.5,3.75
  22631521.750
  21026393.250
  23187987.250
  23101054.250
 23  2 14 23  0 11.0000000  0 05G06G11G14G17G19 +2.000,8.5,3.75
  21025914.750
  18202072.250
  21680860.750
  21367959.250
  20811552.250
 23  2 14 23 30 10.0000000  0 06G06G11G14G17G19G24 1.70,8.5,3.75
  23028295.250
  19563219.250
  19030756.750
  18279746.250
  23176793.750
  19952333.750
 23  2 15  0  0 13.0000000  0 07G06G11G12G17G19G20G24 +1.400,8.5,3.75
  19301901.750
  21031255.250
  22706131.250
  21193231.750
  19643532.750
  23667189.750
  22651675.250
 23  2 15  0 30 10.0000000  0 07G06G11G12G17G19G20G24 1.50,8.5,3.75
  23137221.750
  17991998.250
  19306744.250
  19436537.250
  23525483.250
  20114394.250
  20904337.750
 23  2 15  1  0 17.0000000  0 07G05G06G11G12G19G20G25 +1.600,9.0,3.75
  23950851.250
  19711944.250
  19683418.250
  20593638.250
  20063709.750
  21121123.250
  22583022.750
 23  2 15  1 30 11.0000000  0 05G05G11G12G19G20 +2.200,9.5,3.75
  23451669.750
  20330138.250
  20903863.750
  21470241.250
  21025897.250
 23  2 15  2  0  8.0000000  0 06G02G05G06G11G12G20 2.22,10.0,3.75
  18657753.250
  22379414.750
  22060321.250
  20543941.750
  20947871.750
  20546480.250
 23  2 15  2 30  5.0000000  0 06G02G05G06G12G20G25 2.25,10.5,3.75
  19429729.750
  22855238.250
  18383609.250
  22764002.750
  21751734.250
  23179712.750
 23  2 15  3  0  6.0000000  0 06G02G05G11G12G25G29 2.27,11.0,3.75
  20537322.750
  23872518.250
  18478727.750
  19222381.750
  19079926.250
  20147537.250
 23  2 15  3 30  7.0000000  0 07G05G11G12G15G20G25G29 2.30,10.5,3.75
  19272130.250
  20811697.750
  21997316.250
  23673226.250
  19710926.250
  21391087.250
  20984641.750
 23  2 15  4  0  8.0000000  0 08G05G11G12G15G18G20G25G29 2.32,10.5,3.75
  20977385.250
  23207669.750
  18893657.250
  18123609.750
  19537454.750
  22062940.250
  23951674.250
  21965570.250
 23  2 15  4 30 31.0000000  0 01G12 2.35,10.5,3.75
  18617682.250
 23  2 15  5  0  9.0000000  0 07G02G13G15G18G20G23G29 2.37,10.5,3.75
  19484548.750
  19257887.750
  19192181.750
  21046530.250
  21027552.250
  22140297.750
  18678277.250
 23  2 15  5 30 11.0000000  0 05G02G05G15G23G29 +2.400,11.0,3.75
  19031361.250
  19596250.250
  18276250.250
  21024862.250
  18749120.750
 23  2 15  6  0 11.0000000  0 07G05G10G13G15G18G23G29 +2.040,11.0,3.75
  22022212.750
  18683002.750
  20710353.750
  19574558.750
  20813208.250
  21856723.250
  21018366.250
 23  2 15  6 30 11.0000000  0 05G10G13G18G23G29 +2.600,11.0,3.75
  23484144.250
  21027787.250
  19873481.250
  20895212.250
  21669526.250
 23  2 15  7  0 11.0000000  0 06G02G10G18G23G27G29 +2.600,11.0,3.75
  18962123.750
  20857056.250
  23668058.250
  18575130.250
  21376747.250
  21027514.750
 23  2 15  7 30 10.0000000  0 05G02G10G15G18G23 +2.600,10.5,3.75
  23050801.250
  23540062.250
  22291957.750
  21026214.250
  21640606.750
 23  2 15  8  0  8.0000000  0 06G02G10G18G24G27G32 2.60,10.5,3.75
  19592015.250
  18501238.750
  22944326.250
  23723667.750
  19793081.250
  19664030.750
 23  2 15  8 30 11.0000000  0 05G10G15G18G27G32 +2.600,10.0,3.75
  21024613.250
  23214423.250
  20720402.250
  23172269.250
  21922907.750
 23  2 15  9  0 12.0000000  0 05G10G18G22G27G32 +2.400,10.0,3.75
  20304997.750
  21460738.750
  22820906.750
  23527795.750
  21038099.750
 23  2 15  9 30  8.0000000  0 07G08G10G21G22G28G31G32 2.47,9.5,3.75
  20364039.250
  21837952.250
  20158991.750
  23920273.250
  18859645.750
  19818438.750
  22469907.750
 23  2 15 10  0  5.0000000  0 06G21G22G23G28G31G32 2.53,9.0,3.75
  19777098.750
  23677475.250
  23237228.250
  18066068.250
  18873088.750
  22596743.250
 23  2 15 10 30  6.0000000  0 06G10G21G22G28G31G32 2.60,9.0,3.75
  23105749.750
  20194549.250
  18149714.250
  18023527.250
  18614933.250
  23457399.250
 23  2 15 11  0  8.0000000  0 06G01G10G21G28G31G32 2.67,8.5,3.75
  21207203.750
  18730088.750
  21196449.750
  18546349.750
  18880366.750
  18765140.750
 23  2 15 11 30  6.0000000  0 07G01G10G12G21G22G28G31 2.73,8.5,3.75
  23315699.250
  21922859.250
  18282781.250
  23782442.250
  21333769.750
  20668750.250
  20736746.250
 23  2 15 12  0 11.0000000  0 07G01G03G10G21G22G28G31 +2.800,8.0,3.75
  21024225.250
  22261615.750
  20585046.750
  21846175.250
  18925183.750
  18316430.250
  18143352.250
 23  2 15 12 30  6.0000000  0 06G01G03G21G25G26G32 2.90,7.5,3.75
  18392815.750
  18128196.250
  19400138.250
  18043140.750
  23178863.250
  22963121.750
 23  2 15 13  0 14.0000000  0 06G01G03G16G26G28G31 +3.000,7.5,3.75
  23977152.250
  22086836.250
  18245987.250
  21077848.750
  20912439.750
  20430025.250
 23  2 15 13 30  9.0000000  0 07G03G04G16G26G28G31G32 3.00,8.0,3.75
  20816129.750
  23076705.250
  22232284.750
  19752271.250
  20918175.250
  20374755.750
  22581932.250
 23  2 15 14  0  9.0000000  0 06G03G16G22G26G28G31 3.00,9.0,3.75
  22452707.250
  22885574.750
  22875385.750
  21336677.750
  23563816.750
  23005623.750
 23  2 15 14 30 10.0000000  0 05G03G04G16G22G31 +3.000,10.5,3.75
  21024551.250
  21410735.750
  20320172.750
  21919287.250
  22249638.250
 23  2 15 15  0 22.0000000  0 06G03G04G16G22G26G31 +2.400,12.5,3.75
  23080041.250
  22085266.250
  21208826.750
  18258191.750
  21826460.750
  18643947.250
 23  2 15 15 30 10.0000000  0 05G03G04G07G09G27 +3.200,15.0,3.75
  21027303.250
  18586134.750
  22753675.250
  20690188.750
  20626380.250
 23  2 15 16  0  9.0000000  0 06G03G04G07G09G26G27 3.20,16.5,3.75
  22459551.250
  18685719.750
  22318590.750
  20139391.750
  21045767.750
  20066074.250
 23  2 15 16 30  9.0000000  0 06G04G07G08G09G16G27 3.20,19.0,3.75
  22642803.250
  19386216.750
  18216068.750
  23340492.250
  23186626.750
  23326758.250
 23  2 15 17  0 12.0000000  0 05G04G07G08G16G27 +3.200,20.5,3.75
  21025345.250
  22504674.250
  21237833.750
  21933282.750
  21051886.250
 23  2 15 17 30  6.0000000  0 06G04G07G08G09G27G30 3.27,22.0,3.75
  21520250.250
  21450281.250
  20393835.750
  20700320.250
  20998136.750
  18217015.250
 23  2 15 18  0  9.0000000  0 06G04G07G09G14G16G27 3.33,25.0,3.75
  20937055.750
  19143953.250
  19521730.750
  22407437.750
  21989136.250
  20008933.250
 23  2 15 18 30 11.0000000  0 07G04G07G08G09G14G27G30 +3.400,26.5,3.75
  18536366.250
  21026891.750
  21286874.750
  22705196.250
  23884449.250
  23357297.250
  22913892.250
 23  2 15 19  0 11.0000000  0 04G09G14G21G30 +3.400,27.5,3.75
  21690739.250
  21026446.750
  20595356.750
  19983910.750
 23  2 15 19 30  5.0000000  0 07G07G08G09G14G17G21G30 3.43,29.0,3.75
  20845596.750
  22855711.750
  18911892.750
  22394539.750
  23264262.250
  22304509.250
  21381554.750
 23  2 15 20  0  6.0000000  0 06G07G08G13G14G17G30 3.47,30.5,3.75
  18665085.750
  21341686.250
  21181467.250
  19217929.250
  19750166.250
  18416992.250
 23  2 15 20 30  8.0000000  0 08G01G07G08G13G14G17G21G30 3.50,29.5,3.75
  20359631.250
  20824822.250
  23894859.250
  22462775.250
  20167859.750
  20482341.750
  21607011.250
  19815340.750
 23  2 15 21  0  5.0000000  0 07G07G13G14G17G19G21G30 3.53,30.0,3.75
  19368256.750
  20231969.250
  23369154.250
  23575805.750
  19643077.750
  19900999.750
  23699566.250
 23  2 15 21 30  5.0000000  0 06G06G13G14G17G19G30 3.57,21.5,3.75
  19134933.750
  19370471.250
  21808092.750
  21966179.750
  23340710.750
  22995540.750
 23  2 15 22  0 11.0000000  0 04G01G14G17G19 +3.600,18.5,3.75
  21989905.750
  20272587.250
  20366161.250
  21027316.250
 23  2 15 22 30 10.0000000  0 06G06G14G17G19G24G30 3.30,20.0,3.75
  19807350.250
  19244645.250
  19181911.750
  19162117.250
  22014555.750
  22183869.250
 23  2 15 23  0 17.0000000  0 04G03G06G11G17 +3.000,17.0,3.75
  23764028.250
  21121818.250
  18223024.750
  21606547.750
 23  2 15 23 30 10.0000000  0 07G03G06G11G12G17G19G24 3.16,15.0,3.75
  23862963.250
  20552081.250
  22983313.250
  18874767.250
  21902785.750
  20737748.250
  23531008.250
 23  2 16  0  0  8.0000000  0 06G06G11G12G17G19G24 3.32,11.5,3.75
  23202239.250
  18821681.250
  20452090.750
  19163583.750
  23558092.250
  20614130.750
 23  2 16  0 30  8.0000000  0 06G06G11G12G17G19G24 3.48,9.5,3.75
  19036968.750
  19767100.750
  21025894.750
  21370055.750
  19423890.250
  22852760.250
 23  2 16  1  0  9.0000000  0 06G06G11G12G17G20G25 3.64,8.5,3.75
  19781666.750
  19640987.250
  20499244.250
  22329873.250
  20982459.750
  22441260.750
 23  2 16  1 30 11.0000000  0 04G05G06G19G20 +3.800,8.0,3.75
  23377785.250
  21362092.250
  21671941.750
  21026874.250
 23  2 16  2  0 10.0000000  0 08G02G05G06G11G12G20G25G29 3.80,7.5,3.75
  18790094.750
  22459640.250
  22410416.750
  20807093.250
  21204774.250
  20723908.250
  22129708.250
  19098217.750
 23  2 16  2 30  6.0000000  0 06G02G05G11G12G25G29 3.80,8.0,3.75
  18181935.250
  21579036.750
  21196736.250
  21684969.750
  22021650.750
  18136134.750
 23  2 16  3  0  5.0000000  0 07G02G05G11G12G20G25G29 3.80,9.5,3.75
  23551633.250
  20897671.250
  21642226.750
  22439598.250
  20689056.750
  22227166.750
  23103415.750
 23  2 16  3 30  8.0000000  0 07G02G05G11G12G13G20G25 3.80,8.0,3.75
  18898130.750
  22464066.250
  18117050.750
  19371404.250
  19831511.750
  22998481.750
  18710279.250
 23  2 16  4  0  5.0000000  0 07G12G13G15G18G20G25G29 3.80,8.0,3.75
  20293904.250
  18535468.750
  19190217.750
  20655733.750
  23397300.250
  19320471.250
  23119298.750
 23  2 16  4 30  9.0000000  0 08G02G11G13G15G18G20G23G29 3.80,8.5,3.75
  23683842.750
  19272206.250
  23634676.750
  23948947.750
  19714786.750
  18161588.250
  20906765.250
  22649241.750
 23  2 16  5  0  5.0000000  0 07G02G05G15G18G20G23G29 3.80,8.5,3.75
  18609572.250
  18352025.750
  18241967.250
  20094880.250
  20312984.250
  21176270.250
  23854090.750
 23  2 16  5 30  5.0000000  0 06G05G13G15G18G23G29 3.80,8.0,3.75
  19541915.750
  18707766.250
  18050412.250
  19709337.250
  20752540.750
  18657212.250
 23  2 16  6  0  6.0000000  0 06G05G13G15G18G23G29 3.80,9.0,3.75
  20632599.250
  19267410.250
  18057911.250
  19212851.750
  20254612.250
  19627407.250
 23  2 16  6 30 22.0000000  0 02G02G23 3.80,9.5,3.75
  18275709.250
  18665859.250
 23  2 16  7  0  6.0000000  0 06G02G10G15G23G27G29 3.80,9.0,3.75
  21683979.250
  23402690.750
  20794244.750
  21166444.250
  23934655.250
  23845723.750
 23  2 16  7 30  9.0000000  0 06G02G10G15G18G24G27 3.80,8.5,3.75
  23245052.750
  23528723.750
  22506188.750
  21128042.250
  22602179.250
  18333121.250
 23  2 16  8  0  6.0000000  0 06G02G10G18G24G27G32 3.80,8.0,3.75
  18720500.250
  23400710.750
  22001117.250
  22674072.750
  18795513.250
  18526345.750
 23  2 16  8 30 10.0000000  0 08G02G08G10G15G18G24G27G32 3.80,7.5,3.75
  21616808.750
  21924857.250
  18597778.750
  21021279.750
  18481736.750
  18421954.250
  20881445.250
  19468877.250
 23  2 16  9  0  6.0000000  0 06G10G18G22G24G27G32 3.80,7.0,3.75
  18144811.750
  19504929.750
  20598968.750
  18851930.750
  21520522.250
  18862642.250
 23  2 16  9 30  7.0000000  0 08G08G18G22G23G24G28G31G32 3.80,7.0,3.75
  22238710.250
  20519162.250
  19630001.250
  18154174.250
  19442277.750
  20491411.750
  21435271.250
  18232624.250
 23  2 16 10  0  7.0000000  0 06G21G22G23G28G31G32 3.80,6.5,3.75
  19327333.750
  23240188.750
  22974902.250
  23549055.250
  18335258.750
  22216079.250
 23  2 16 10 30  5.0000000  0 07G10G21G22G23G28G31G32 3.80,6.5,3.75
  21778287.250
  18781802.250
  22727484.250
  23745719.250
  22540084.250
  23099286.250
  22096795.250
 23  2 16 11  0  5.0000000  0 06G10G12G21G22G28G31 3.80,5.5,3.75
  21520227.750
  18262680.750
  23903703.750
  21722093.250
  21187783.750
  21486209.250
 23  2 16 11 30 12.0000000  0 04G01G10G28G32 +3.800,5.0,3.75
  21031100.250
  19780992.250
  21378142.250
  19258214.250
 23  2 16 12  0  5.0000000  0 07G01G03G10G21G25G26G31 4.20,4.0,3.75
  20470632.250
  21522677.750
  20145129.750
  21328277.750
  19953164.750
  20631264.750
  23542349.250
 23  2 16 12 30 11.0000000  0 06G01G03G21G22G26G31 +4.600,5.0,3.75
  22470606.250
  21982676.250
  20492125.250
  19911182.750
  21025166.750
  19210097.750
 23  2 16 13  0 11.0000000  0 07G01G16G22G26G28G31G32 +4.200,5.0,3.75
  24141516.250
  24111082.250
  20999659.750
  21017884.250
  21046630.250
  20552024.250
  22616883.750
 23  2 16 13 30 12.0000000  0 06G03G04G16G26G28G32 +0.000,5.5,3.75
  19732603.750
  21912679.750
  21030684.750
  18660328.750
  19991512.750
  21668998.750
 23  2 16 14  0 10.0000000  0 05G03G16G22G26G31 +0.800,6.0,3.75
  20525726.250
  20813823.750
  21027403.250
  19401932.750
  21190623.250
 23  2 16 14 30  6.0000000  0 06G03G04G16G22G28G31 0.80,6.0,3.75
  19582646.750
  19799880.250
  18725308.750
  20527306.750
  21414834.250
  20872140.750
 23  2 16 15  0 11.0000000  0 04G03G04G26G31 +0.800,6.5,3.75
  21025927.750
  19845028.250
  19763151.750
  22608305.750
 23  2 16 15 30 11.0000000  0 05G03G04G07G09G26 +0.800,6.5,3.75
  21025342.250
  18393355.250
  22503290.750
  20416390.250
  19676895.250
 23  2 16 16  0 11.0000000  0 06G03G04G08G09G16G27 +0.440,7.0,3.75
  24951729.750
  21018122.250
  23652912.250
  22373507.250
  21135514.750
  22304171.750
 23  2 16 16 30  9.0000000  0 06G04G07G08G09G16G27 0.72,8.5,3.75
  22156718.750
  18747977.750
  23548033.250
  22748214.250
  22756297.750
  22748654.250
 23  2 16 17  0 11.0000000  0 05G04G07G08G09G27 +1.000,9.0,3.75
  21220946.250
  22503990.250
  21249414.750
  21026210.250
  21167210.250
 23  2 16 17 30  7.0000000  0 07G04G07G08G09G16G27G30 1.07,8.5,3.75
  20686666.750
  20388387.250
  19388188.750
  19777849.250
  21767372.750
  20101993.250
  23106499.250
 23  2 16 18  0 10.0000000  0 06G04G07G08G09G14G27 1.13,8.0,3.75
  20878988.750
  18848894.750
  18420122.750
  19397952.250
  22064605.750
  19909821.750
 23  2 16 18 30 23.0000000  0 04G07G08G09G21 +1.200,7.5,3.75
  18847765.750
  19232900.250
  20714165.250
  21097580.250
 23  2 16 19  0 18.0000000  0 05G01G08G14G21G30 +0.800,9.5,3.75
  21141038.750
  19352395.750
  20280209.250
  19880663.750
  19233042.750
 23  2 16 19 30 11.0000000  0 04G01G08G17G21 +1.200,9.5,3.75
  21025779.750
  21260373.250
  21385467.250
  20547056.750
 23  2 16 20  0 24.0000000  0 05G07G13G14G17G21 +1.000,9.5,3.75
  21224595.250
  23607431.250
  21612047.250
  22105936.250
  22265270.750
 23  2 16 20 30 11.0000000  0 06G01G07G08G17G21G30 +1.200,9.5,3.75
  19655182.750
  20282433.750
  23382244.250
  19739529.250
  21025624.250
  19172633.750
 23  2 16 21  0 11.0000000  0 05G07G14G19G21G30 +1.200,9.0,3.75
  21025081.250
  18837820.750
  21003961.250
  21526038.750
  19278947.250
 23  2 16 21 30 34.0000000  0 05G01G13G17G19G30 +1.200,9.0,3.75
  21225772.750
  23791353.250
  20276355.250
  21540752.750
  21450585.750
 23  2 16 22  0 13.0000000  0 00 1.30,8.5,3.75
 23  2 16 22 30 12.0000000  0 04G06G14G17G19 +1.400,8.0,3.75
  21393760.750
  21026292.250
  20940081.250
  20833406.250
 23  2 16 23  0 26.0000000  0 04G06G17G19G24 +0.800,7.5,3.75
  21209013.750
  21835933.750
  21122469.750
  23847527.750
 23  2 16 23 30 14.0000000  0 04G06G11G17G19 +1.200,6.5,3.75
  19608300.250
  21934459.750
  21057759.250
  19832640.250
 23  2 17  0  0 25.0000000  0 04G06G17G20G24 +1.600,5.5,3.75
  21262455.250
  23281832.750
  19263892.250
  24736709.250
 23  2 17  0 30 11.0000000  0 07G06G11G12G17G19G20G24 +1.120,5.0,3.75
  19199698.750
  19807393.750
  21017817.250
  21560232.250
  19581207.750
  21749772.250
  23068713.250
 23  2 17  1  0 11.0000000  0 06G06G11G12G19G20G24 1.46,14.0,3.75
  20033866.750
  19779907.250
  20588000.750
  23973509.250
  21018402.250
  18235153.250
 23  2 17  1 30 13.0000000  0 06G05G06G09G17G19G25 +1.800,12.0,3.75
  22804556.750
  21066387.750
  18167272.750
  23760410.750
  21373359.250
  21956869.750
 23  2 17  2  0 10.0000000  0 06G05G06G09G12G19G25 1.70,10.0,3.75
  19079432.250
  19292402.250
  21358371.250
  18003766.750
  19650156.750
  18853593.750
 23  2 17  2 30  7.0000000  0 07G05G06G09G11G12G19G20 1.60,8.5,3.75
  19102295.750
  21098296.250
  22420004.250
  18886487.750
  19405047.750
  21620002.250
  18215505.750
 23  2 17  3  0  7.0000000  0 07G02G05G06G11G12G20G25 1.50,7.5,3.75
  22647861.750
  20002501.250
  23506863.750
  20884954.750
  21738416.250
  19899815.750
  21460024.750
 23  2 17  3 30 15.0000000  0 05G02G11G12G20G25 +1.400,6.5,3.75
  21089698.250
  20463903.250
  21788226.750
  19339069.750
  21076212.750
 23  2 17  4  0 12.0000000  0 04G02G12G13G20 +1.200,5.5,3.75
  21630063.750
  17993059.250
  21928501.250
  21033247.250
 23  2 17  4 30 11.0000000  0 07G05G11G15G18G20G23G29 +1.800,5.0,3.75
  21024829.250
  23813974.250
  22235541.750
  18036133.750
  22710055.250
  19203405.250
  21056613.750
 23  2 17  5  0  5.0000000  0 07G02G05G11G13G15G18G23 1.90,4.0,3.75
  21228646.250
  21099827.250
  18166286.750
  20985049.750
  20786080.750
  22637909.750
  23706385.750
 23  2 17  5 30 11.0000000  0 05G02G05G18G23G29 +2.000,3.5,3.75
  21026595.250
  21848276.750
  21796337.750
  22835620.250
  20929385.750
 23  2 17  6  0 11.0000000  0 06G02G05G10G13G18G29 +2.000,3.0,3.75
  19342365.250
  21026284.250
  23203672.250
  19612754.750
  19395182.250
  20023615.250
 23  2 17  6 30 11.0000000  0 07G02G05G10G15G18G23G29 +1.600,2.5,3.75
  18219034.250
  20590668.250
  21017939.250
  25612238.250
  23496912.250
  18502274.750
  19732744.750
 23  2 17  7  0 10.0000000  0 07G02G05G10G15G24G29G32 1.71,2.0,3.75
  22462901.250
  19297338.750
  18007378.250
  21596709.250
  23126933.250
  18723498.750
  19828733.750
 23  2 17  7 30  9.0000000  0 07G02G10G15G18G24G27G32 1.82,1.5,3.75
  21524296.250
  21607660.250
  20807453.750
  19320587.750
  20682660.250
  22468834.250
  23022569.750
 23  2 17  8  0  9.0000000  0 07G10G15G18G23G24G27G32 1.93,1.5,3.75
  20789955.750
  21710806.750
  19544885.750
  19491291.750
  20111827.750
  22286235.750
  21869433.750
 23  2 17  8 30 10.0000000  0 06G15G18G22G24G27G32 2.04,1.0,3.75
  18601948.250
  22016762.750
  18776117.250
  21869767.250
  18374602.750
  22792370.750
 23  2 17  9  0  5.0000000  0 06G10G22G23G24G27G32 2.16,1.0,3.75
  22898887.250
  19294891.250
  22824233.750
  23744803.750
  20434289.250
  23602273.250
 23  2 17  9 30  7.0000000  0 08G08G10G22G23G25G27G28G32 2.27,0.5,3.75
  22640304.250
  23902542.750
  19861410.250
  18544530.250
  22022139.750
  22579374.750
  20644835.250
  18516911.750
 23  2 17 10  0  9.0000000  0 08G10G12G18G23G24G25G31G32 2.38,0.5,3.75
  18911024.750
  22678330.750
  23446655.750
  20278529.250
  22109847.750
  22183177.250
  21362756.250
  19406685.250
 23  2 17 10 30  6.0000000  0 06G10G22G25G28G31G32 2.49,0.5,3.75
  19918215.250
  20778528.750
  22237276.250
  20529639.250
  21055724.750
  20203989.250
 23  2 17 11  0 10.0000000  0 05G01G10G12G23G32 +2.600,0.0,3.75
  20561439.750
  18385018.250
  21059668.250
  21027479.750
  18309988.750
 23  2 17 11 30  9.0000000  0 06G10G21G23G25G26G32 2.53,0.0,3.75
  22435631.250
  18142298.750
  19514200.250
  22888439.750
  18870509.250
  21838442.250
 23  2 17 12  0  9.0000000  0 07G10G22G25G26G28G31G32 2.47,0.0,3.75
  23838123.750
  21875128.750
  23558014.750
  18007210.750
  21315480.250
  21085313.750
  22591082.750
 23  2 17 12 30 12.0000000  0 06G01G21G26G28G31G32 +2.400,0.0,3.75
  20012269.750
  21038905.750
  18331780.750
  23100598.250
  22699880.250
  18569988.750
 23  2 17 12 51  0.0000000  0 00 +6.000,0.0,3.75,1,70080,-5052896,3878686,4,1.2
 23  2 17 15  0  6.0000000  0 06G03G04G07G09G16G29 0.51,10.0,3.75
  20720721.750
  19357215.250
  23714550.250
  21849478.250
  18560558.750
  18153245.250
 23  2 17 15 30 10.0000000  0 06G03G04G07G09G16G26 -0.77,3.5,3.75
  21347137.250
  18536973.750
  22589681.750
  20484287.250
  18194329.750
  19995123.750
 23  2 17 16  0  6.0000000  0 07G04G07G08G09G16G26G27 -2.04,0.5,3.75
  20009655.250
  23440877.250
  22482013.250
  21275548.750
  20193058.750
  22671581.750
  21196677.750
 23  2 17 16 30 10.0000000  0 06G04G07G08G09G16G27 -3.320,0.5,3.75
  20525392.750
  22965437.250
  21731830.750
  21018315.250
  21182868.250
  21024350.750
 23  2 17 17  0 20.0000000  0 06G04G07G08G09G16G27 +0.800,3.5,3.75
  21055839.750
  22130288.750
  20891601.250
  20756281.750
  22025929.250
  20920169.250
 23  2 17 17 30 30.0000000  0 02G04G16 0.81,10.0,3.75
  22837031.250
  23920422.750
 23  2 17 18  0 10.0000000  0 06G04G07G08G09G27G30 0.83,11.5,3.75
  21438306.750
  19175626.250
  18845008.750
  19896964.750
  20434361.750
  21438880.750
 23  2 17 18 30 11.0000000  0 06G08G09G16G21G27G30 +0.840,12.0,3.75
  19328899.750
  20865410.250
  23583124.750
  21018100.250
  21558108.250
  20558970.750
 23  2 17 19  0 11.0000000  0 04G08G17G21G27 +1.400,13.0,3.75
  21027849.250
  22922369.250
  21378070.750
  23727696.250
 23  2 17 19 30 11.0000000  0 04G08G14G21G30 +1.400,14.0,3.75
  21895464.250
  20978005.750
  21026794.250
  20000046.750
 23  2 17 20  0 29.0000000  0 05G07G14G17G21G30 +1.200,16.0,3.75
  20795561.750
  21022560.750
  21482357.750
  21788378.750
  20322232.750
 23  2 17 20 30 11.0000000  0 06G01G07G17G19G21G30 +1.400,17.0,3.75
  18471742.750
  19257598.250
  18517566.250
  21025384.750
  19962446.250
  18051644.750
 23  2 17 21  0 12.0000000  0 05G01G07G17G21G30 +1.000,18.0,3.75
  19243993.250
  21036995.750
  18854115.750
  21507349.250
  19215034.750
 23  2 17 21 30  7.0000000  0 06G01G03G06G14G19G21 1.20,18.0,3.75
  18647213.250
  21572887.250
  20424343.250
  23458550.250
  18787536.250
  21447643.250
 23  2 17 22  0 11.0000000  0 04G03G17G19G30 +1.400,18.0,3.75
  21024250.750
  23855309.250
  18329462.750
  20142366.750
 23  2 17 22 30 12.0000000  0 04G03G06G14G17 +1.200,17.5,3.75
  23531056.250
  21338257.250
  21165729.250
  21038377.250
 23  2 17 23  0 14.0000000  0 04G03G06G11G17 +1.600,17.0,3.75
  20903484.250
  18086092.250
  21026438.250
  18832313.250
 23  2 17 23 30 14.0000000  0 05G03G14G17G19G20 +1.200,16.0,3.75
  23034326.750
  22048182.750
  21074484.250
  19785329.750
  18590602.250
 23  2 18  0  0 11.0000000  0 04G03G12G17G19 +1.600,14.5,3.75
  23164640.250
  21866847.750
  21026471.250
  19328102.250
 23  2 18  0 30 28.0000000  0 04G14G17G19G24 +1.000,13.5,3.75
  19586136.250
  23344616.250
  21324616.750
  24868376.750
 23  2 18  1  0 11.0000000  0 05G06G11G17G19G20 +1.600,11.5,3.75
  21025207.250
  20658652.250
  23605028.250
  21355258.750
  21796598.750
 23  2 18  1 30 11.0000000  0 06G02G06G09G17G19G20 +1.600,10.0,3.75
  18238653.250
  20716543.750
  23658659.250
  23423137.250
  21024681.250
  19989392.250
 23  2 18  2  0 14.0000000  0 06G05G06G09G12G19G20 +1.000,8.5,3.75
  20181320.250
  20658085.750
  22599909.250
  19289829.750
  21031576.250
  18644620.250
 23  2 18  2 30 10.0000000  0 07G02G05G11G12G19G20G29 1.20,7.5,3.75
  19492660.250
  22842645.750
  22791061.750
  23345004.250
  19626313.250
  22065354.250
  19331878.250
 23  2 18  3  0  8.0000000  0 07G05G06G09G11G19G20G25 1.40,6.0,3.75
  21869340.750
  19562013.750
  20434337.750
  22885273.250
  20403345.750
  21871192.750
  23452881.750
 23  2 18  3 30  7.0000000  0 07G02G06G11G13G15G18G20 1.60,5.5,3.75
  23068582.250
  19566557.250
  22594443.250
  23836203.750
  18674270.750
  19868961.750
  21460923.750
 23  2 18  4  0  5.0000000  0 07G05G11G12G13G15G20G25 1.80,4.5,3.75
  19407223.250
  21845539.750
  23721225.750
  21378659.250
  21953427.750
  20705886.750
  22685810.250
 23  2 18  4 30 11.0000000  0 06G02G05G11G13G15G20 +2.000,4.0,3.75
  21953019.750
  21027105.250
  23858367.250
  21820931.250
  22023842.750
  22758560.250
 23  2 18  5  0  6.0000000  0 06G05G11G13G15G20G23 2.98,3.5,3.75
  18178795.250
  21269056.750
  23929317.250
  23660774.250
  20194939.750
  20562887.250
 23  2 18  5 30  9.0000000  0 07G02G05G13G15G20G23G29 3.96,3.0,3.75
  19279473.250
  20226547.750
  19208706.750
  18400004.750
  22410417.750
  20995142.250
  19280219.750
 23  2 18  6  0 10.0000000  0 07G02G05G13G15G18G23G29 4.95,2.5,3.75
  21979376.250
  23770486.750
  22315393.750
  20957821.750
  21931017.750
  22968062.250
  22775480.250
 23  2 18  6  1 46.0000000  0 00 +5.000,3.0,3.75,1,70080,-5052880,3878679,6,1.4
 23  2 18  7 30 21.0000000  0 01G27 -2.800,1.0,3.75
  21078685.250
 23  2 18  8  0 10.0000000  0 06G02G10G15G18G24G32 -2.93,0.0,3.75
  18404413.250
  22638181.750
  23791920.250
  21554219.750
  22019790.250
  23681350.750
 23  2 18  8 30 10.0000000  0 07G10G18G22G23G24G27G32 -3.07,0.0,3.75
  22381483.750
  22641914.250
  19147275.750
  21738095.250
  22410704.250
  18948903.750
  23203688.250
 23  2 18  9  0 12.0000000  0 05G10G18G22G23G27 -3.200,-0.5,3.75
  19258893.250
  21033443.750
  21588546.250
  19279156.250
  22948874.250
 23  2 18  9 30  7.0000000  0 07G08G10G22G23G25G27G32 -1.60,-1.0,3.75
  19829482.250
  20986782.250
  22876757.250
  21723975.250
  19002602.250
  19810803.750
  21585457.250
 23  2 18 10  0 10.0000000  0 06G10G12G21G24G25G31 0.00,-1.5,3.75
  20116197.250
  23803310.250
  23569331.250
  23476249.750
  23263524.250
  22391883.750
 23  2 18 10 30 11.0000000  0 06G10G12G21G22G23G25 +1.600,-2.0,3.75
  21025769.750
  24141167.750
  23859783.250
  21788678.250
  23170381.750
  23208934.250
 23  2 18 11  0 11.0000000  0 06G10G21G23G28G31G32 +1.600,-2.0,3.75
  18312112.750
  20534508.750
  21024675.250
  23679322.750
  23904661.750
  18175849.250
 23  2 18 11 30 20.0000000  0 04G10G23G25G31 +1.600,-2.0,3.75
  21190693.750
  18317568.750
  21526937.250
  19473524.750
 23  2 18 12  0 10.0000000  0 06G01G10G21G22G28G31 1.70,-2.5,3.75
  22293956.250
  22183909.750
  23213778.750
  20063837.750
  19534585.750
  19277278.250
 23  2 18 12 30 11.0000000  0 05G22G26G28G31G32 +1.800,-2.5,3.75
  21250956.750
  22048482.750
  21024732.750
  20605615.750
  22506274.250
 23  2 18 13  0 11.0000000  0 07G01G03G22G26G28G31G32 +1.480,-3.0,3.75
  18694561.250
  22166257.250
  21380841.750
  21122174.250
  21533943.750
  21018264.250
  23123763.750
 23  2 18 13 30 13.0000000  0 06G22G26G28G29G31G32 +2.000,-3.0,3.75
  21065711.750
  19933830.250
  21582248.250
  18796733.750
  21026047.250
  23284677.750
 23  2 18 14  0 25.0000000  0 05G03G04G16G26G31 +2.200,-2.5,3.75
  20153374.750
  21239958.250
  20111185.750
  19007526.750
  21028135.250
 23  2 18 14 30  7.0000000  0 06G03G04G22G26G28G31 2.00,0.5,3.75
  22197110.750
  22059762.250
  23225400.750
  20993915.250
  18141479.250
  23600298.250
 23  2 18 15  0 37.0000000  0 04G03G04G09G27 +1.800,4.0,3.75
  23068842.250
  21478175.250
  23895035.250
  23835801.750
 23  2 18 15 30 23.0000000  0 07G04G08G09G16G26G27G31 +2.000,6.5,3.75
  22532306.750
  19912342.750
  18390920.750
  22266261.750
  18187792.750
  18298073.750
  21133394.250
 23  2 18 16  0 10.0000000  0 06G04G08G09G16G26G27 1.80,8.0,3.75
  21984488.250
  18299200.750
  23140911.250
  22241679.750
  18799400.250
  23077762.250
 23  2 18 16 30 18.0000000  0 05G04G08G09G16G27 +1.600,9.5,3.75
  20117810.250
  21135161.750
  20493150.750
  20832254.250
  20522682.250
 23  2 18 17  0 20.0000000  0 06G04G07G08G09G16G27 +2.200,11.0,3.75
  20037125.250
  20904369.750
  19687481.750
  19637447.250
  21041750.750
  19825121.250
 23  2 18 17 30 17.0000000  0 05G04G08G09G14G27 +2.400,12.5,3.75
  21026752.250
  19386204.750
  19946745.750
  23721184.250
  23322510.750
 23  2 18 18  0 11.0000000  0 05G04G08G09G21G27 +2.400,14.0,3.75
  20965936.250
  18239997.750
  19365369.250
  21024845.250
  19926319.750
 23  2 18 18 30 27.0000000  0 05G01G07G08G09G21 +2.000,16.0,3.75
  24385665.250
  20570188.750
  21201727.750
  22798061.750
  22694858.250
 23  2 18 19  0  6.0000000  0 06G01G07G08G09G21G30 2.20,16.5,3.75
  20541852.750
  23772008.250
  19296130.750
  21220158.250
  19471269.250
  18750955.750
 23  2 18 19 30 20.0000000  0 05G01G07G08G17G21 +2.400,18.5,3.75
  21416978.250
  19894211.250
  22209243.250
  21774649.250
  21186341.750
 23  2 18 20  0 10.0000000  0 05G01G07G13G17G21 +2.600,21.5,3.75
  21275616.750
  21027539.250
  23171477.750
  21533557.250
  21977604.750
 23  2 18 20 30 10.0000000  0 06G01G07G13G17G21G30 2.50,24.5,3.75
  21371339.250
  22311881.250
  23613329.750
  21371513.250
  22978466.750
  21010188.250
 23  2 18 21  0 14.0000000  0 04G01G13G19G30 +2.400,24.5,3.75
  21077706.250
  23565701.250
  22387134.750
  21095213.750
 23  2 18 21 30 11.0000000  0 05G03G06G13G14G30 +2.600,22.5,3.75
  23449186.250
  22233017.250
  23313698.750
  19458276.250
  21026644.750
 23  2 18 22  0 14.0000000  0 04G01G06G14G17 +2.800,21.0,3.75
  23115972.250
  22476838.750
  21083704.750
  21129954.750
 23  2 18 22 30 10.0000000  0 04G03G14G17G19 +2.600,18.5,3.75
  23278025.750
  21025130.750
  20859361.750
  20579569.250
 23  2 18 23  0 10.0000000  0 04G03G06G14G17 +2.600,16.5,3.75
  22528356.750
  19621938.750
  21024741.750
  20490641.750
 23  2 18 23 30 11.0000000  0 05G03G11G14G17G19 +2.800,14.5,3.75
  21942902.750
  20464141.250
  21028190.250
  19974784.750
  18626267.750
 23  2 19  0  0 11.0000000  0 05G06G14G17G19G24 +2.800,13.0,3.75
  25612727.250
  21027792.250
  19352602.750
  23603461.250
  20807192.250
 23  2 19  0 30  9.0000000  0 06G06G11G12G17G19G20 2.58,11.5,3.75
  21311286.250
  21680299.250
  22770188.250
  23735969.250
  21685012.250
  23448141.750
 23  2 19  1  0 11.0000000  0 06G06G09G11G17G19G20 +2.360,10.5,3.75
  20694406.750
  24658262.750
  20216682.250
  23289808.750
  21018422.250
  21253392.250
 23  2 19  1 30  6.0000000  0 06G05G06G09G11G19G20 2.38,9.5,3.75
  20969079.250
  19773136.250
  22565320.750
  18550972.750
  20084093.750
  18858736.750
 23  2 19  2  0  8.0000000  0 06G05G06G11G12G19G20 2.41,9.0,3.75
  20880120.750
  21608665.750
  19763983.750
  20170048.750
  21999464.250
  19443226.750
 23  2 19  2 30  6.0000000  0 07G02G06G11G12G19G20G25 2.43,8.5,3.75
  21191268.750
  20976031.750
  18636404.250
  19228862.750
  21562746.750
  23856539.250
  19336011.250
 23  2 19  3  0  8.0000000  0 07G02G05G06G11G12G20G25 2.46,8.0,3.75
  23097893.250
  20494038.750
  18364416.750
  21638818.750
  22613803.750
  20598877.250
  22203216.250
 23  2 19  3 30  7.0000000  0 07G02G05G11G12G13G15G25 2.48,7.5,3.75
  20562349.250
  18304483.250
  20246452.250
  21708455.750
  21251229.250
  22056312.250
  20900414.250
 23  2 19  4  0  6.0000000  0 06G02G05G11G13G15G20 2.50,7.5,3.75
  19996579.250
  18360103.250
  20861203.250
  20168471.750
  20699395.250
  19724478.750
 23  2 19  4 30 10.0000000  0 07G05G11G13G15G18G20G29 2.53,7.0,3.75
  20722839.250
  23593369.250
  21362132.250
  21506546.250
  23346016.250
  22497431.750
  20569066.250
 23  2 19  5  0  7.0000000  0 07G02G05G11G13G15G18G29 2.55,6.5,3.75
  20791578.250
  20927939.250
  18048957.750
  20556419.250
  20216863.250
  22037129.750
  20238372.750
 23  2 19  5 30  7.0000000  0 07G02G05G13G15G18G20G29 2.58,6.5,3.75
  18014303.250
  19085912.750
  23982482.750
  23098591.750
  18599542.750
  21280206.750
  18117091.250
 23  2 19  6  0 15.0000000  0 06G02G05G13G15G18G29 +2.600,6.0,3.75
  21087824.750
  22985861.750
  21493717.250
  20062363.250
  20934276.250
  22003065.750
 23  2 19  6 30 12.0000000  0 06G02G15G18G23G24G29 +2.800,6.5,3.75
  19281646.750
  18314266.750
  18350789.750
  19321808.750
  21035606.250
  21018649.750
 23  2 19  7  0  9.0000000  0 06G05G10G15G18G24G27 3.71,6.0,3.75
  21852633.750
  20097897.750
  18110066.250
  23235336.250
  19183466.250
  20701261.750
 23  2 19  7 30  9.0000000  0 06G02G10G15G18G24G32 4.61,6.0,3.75
  18007103.250
  23658794.250
  23320036.250
  21625966.750
  22767515.750
  18980154.250
 23  2 19  8  0  9.0000000  0 07G02G15G18G23G24G27G32 5.52,6.0,3.75
  22924131.750
  22321812.750
  20015202.750
  19774856.250
  20377498.750
  22649950.750
  21934659.750
 23  2 19  8 15 59.0000000  0 00 +6.000,6.5,3.75,1,70081,-5052879,3878693,4,1.4
 23  2 19 14 30 11.0000000  0 06G03G16G22G26G28G31 -3.000,8.0,3.75
  19953942.250
  18609582.250
  21027672.750
  18741377.250
  21939416.750
  21404340.250
 23  2 19 15  0 11.0000000  0 05G03G16G22G28G31 +1.000,11.0,3.75
  23482372.250
  21026430.750
  18761377.750
  19620248.750
  19110237.750
 23  2 19 15 30  8.0000000  0 07G03G07G09G16G26G27G31 1.00,14.0,3.75
  20014867.250
  20742089.250
  18604325.750
  22629788.250
  18645337.250
  18511548.750
  21585163.250
 23  2 19 16  0 15.0000000  0 06G03G04G08G09G16G27 +1.000,13.0,3.75
  21025949.750
  22649131.250
  18788651.750
  23706568.250
  22980749.750
  23641522.250
 23  2 19 16 30 14.0000000  0 05G04G08G09G16G27 +1.200,20.5,3.75
  20764820.750
  21598335.750
  21040488.250
  21537735.250
  21082154.250
 23  2 19 17  0 19.0000000  0 05G07G08G09G27G30 +1.000,24.5,3.75
  22099662.250
  20903092.250
  20940921.750
  21151503.750
  19004291.250
 23  2 19 17 30 37.0000000  0 07G04G08G09G16G21G27G30 +0.600,23.5,3.75
  22635131.750
  20824619.750
  21473722.750
  23737145.750
  18500495.250
  21881324.750
  24191685.750
 23  2 19 18  0  8.0000000  0 07G04G07G08G09G16G21G27 0.72,19.5,3.75
  18122486.750
  21398307.750
  21275121.250
  22467725.750
  19114036.750
  23892187.250
  23055444.250
 23  2 19 18 30  6.0000000  0 06G04G07G08G09G21G30 0.84,20.0,3.75
  23782261.750
  19441552.750
  20185158.250
  21825561.250
  21503948.250
  21008108.250
 23  2 19 19  0  6.0000000  0 07G01G07G08G09G14G17G27 0.96,20.5,3.75
  20459855.750
  23856413.250
  19499241.250
  21449923.250
  19787484.750
  20844189.750
  22296324.250
 23  2 19 19 30  9.0000000  0 07G01G07G08G09G14G21G30 1.08,19.5,3.75
  18015014.750
  22658613.750
  19068102.750
  21171968.250
  23695579.750
  23901240.750
  22767327.750
 23  2 19 20  0 11.0000000  0 05G01G07G08G17G21 +1.200,18.0,3.75
  20191733.750
  20115954.250
  23043513.250
  20431251.750
  21025155.750
 23  2 19 20 30 11.0000000  0 04G01G07G17G21 +1.200,18.0,3.75
  21024315.750
  22111435.750
  20976274.750
  22747668.750
 23  2 19 21  0 10.0000000  0 05G01G14G17G19G21 +1.200,17.0,3.75
  21749576.250
  21024260.250
  21206383.250
  22888262.250
  18190793.750
 23  2 19 21 30  5.0000000  0 07G01G03G06G13G14G19G30 1.30,15.5,3.75
  20406337.750
  22905434.750
  21622230.750
  22970923.750
  19026269.250
  20137396.750
  20718876.250
 23  2 19 22  0 11.0000000  0 05G03G14G17G19G30 +1.400,13.5,3.75
  23713151.750
  20723046.250
  20746250.250
  21026563.750
  23307733.250
 23  2 19 22 30 10.0000000  0 06G03G06G11G17G19G24 1.27,15.0,3.75
  22807304.250
  20448233.750
  23798746.750
  20454965.250
  20090345.250
  22851007.250
 23  2 19 23  0  8.0000000  0 06G03G11G14G17G19G24 1.13,15.0,3.75
  20297155.250
  20068936.250
  18885549.750
  18285968.750
  23350955.750
  20091143.250
 23  2 19 23 30 11.0000000  0 06G03G06G12G17G19G24 +1.000,14.5,3.75
  21018338.250
  23323232.750
  21090687.750
  19036958.750
  23625127.750
  20542813.750
 23  2 20  0  0 12.0000000  0 04G06G14G19G24 +1.400,14.0,3.75
  20636064.250
  18587349.750
  21024637.750
  18276819.750
 23  2 20  0 30 19.0000000  0 05G11G17G19G20G24 1.3598,13.5,3.75
  22457123.750
  21064134.750
  18978630.250
  20526669.750
  22623044.250
 23  2 20  1  0  8.0000000  0 07G06G09G11G12G17G19G20 1.32,12.5,3.75
  18078234.750
  21878821.750
  23487797.250
  18154841.250
  20690909.250
  18398989.250
  18431480.750
 23  2 20  1 30  5.0000000  0 07G06G09G11G12G17G20G25 1.28,12.0,3.75
  21251788.750
  23898196.750
  19935168.750
  20367772.750
  17990446.750
  20152472.750
  21567506.250
 23  2 20  2  0  8.0000000  0 07G02G05G06G11G12G25G29 1.24,11.5,3.75
  19972171.250
  23462958.750
  18448009.750
  22521130.750
  22938242.750
  23548919.750
  20083342.250
 23  2 20  2 30 11.0000000  0 07G02G05G06G09G11G19G25 +1.200,11.0,3.75
  22758681.750
  20091423.250
  22757605.250
  21162110.250
  20354620.250
  23382052.250
  21018184.250
 23  2 20  3  0 11.0000000  0 05G05G11G12G13G20 +1.600,11.0,3.75
  19754525.750
  21024900.250
  22063330.750
  23522623.750
  19961328.250
 23  2 20  3 30  9.0000000  0 07G02G11G12G13G15G20G25 1.60,11.0,3.75
  18270049.750
  21115012.750
  19647891.750
  18887264.250
  19660482.250
  22966097.750
  18792786.250
 23  2 20  4  0  8.0000000  0 08G02G05G11G13G15G20G25G29 1.60,10.5,3.75
  19580559.750
  18049859.250
  20612033.250
  19698411.250
  20182669.250
  19477254.250
  21515560.250
  18505599.750
 23  2 20  4 30  6.0000000  0 06G05G11G13G15G18G29 1.60,10.5,3.75
  20195076.750
  23104418.750
  20687856.250
  20772428.250
  22621359.750
  19954428.250
 23  2 20  5  0  6.0000000  0 06G02G05G11G15G20G23 1.60,10.5,3.75
  22264632.250
  22532982.250
  19681541.750
  21633028.250
  18601177.250
  18473092.250
 23  2 20  5 30 12.0000000  0 05G05G15G18G20G29 +1.600,10.5,3.75
  21040384.250
  18903716.250
  20329015.750
  23244801.750
  20053164.750
 23  2 20  6  0 10.0000000  0 06G02G10G13G15G23G29 1.68,10.0,3.75
  20670879.250
  18123742.250
  21145094.250
  19644483.750
  21441525.750
  21699974.750
 23  2 20  6 30  9.0000000  0 07G02G05G10G13G18G23G29 1.76,10.0,3.75
  21296975.250
  23893166.750
  23604808.750
  22321060.250
  20259728.750
  21210692.250
  23139652.250
 23  2 20  7  0  6.0000000  0 06G02G10G15G18G23G32 1.84,10.0,3.75
  23320689.250
  18292384.250
  22514949.750
  21526334.250
  22252279.750
  19950283.750
 23  2 20  7 30  6.0000000  0 06G02G10G15G18G24G32 1.92,10.0,3.75
  19571538.750
  19008144.750
  18901440.250
  23107714.750
  18147778.250
  20282020.750
 23  2 20  8  0 11.0000000  0 04G02G10G18G27 +2.000,10.0,3.75
  23260372.250
  21025318.250
  20291875.250
  22869139.250
 23  2 20  8 30  8.0000000  0 07G08G10G18G22G23G27G32 2.00,10.0,3.75
  18214090.250
  20602213.750
  21268428.250
  23238080.250
  20135353.750
  23462201.250
  21383931.750
 23  2 20  9  0 11.0000000  0 05G10G18G23G27G32 +2.000,9.5,3.75
  20808130.750
  23011979.250
  21024403.250
  18818517.750
  21473653.250
 23  2 20  9 30 11.0000000  0 07G10G18G22G25G28G31G32 +2.200,9.5,3.75
  21027116.750
  18750853.750
  22781185.250
  18825633.250
  23337843.750
  18211633.750
  21598728.250
 23  2 20  9 46  1.0000000  0 00 +5.000,10.0,3.75,1,66978,-5051719,3880229,4,1.2
 23  2 20 10  0  5.0000000  0 06G10G12G22G23G28G32 4.45,9.5,3.75
  23802082.750
  21339169.250
  19035167.750
  19464446.250
  19059683.250
  18232584.750
 23  2 20 10 30  5.0000000  0 07G10G12G21G22G23G25G31 3.28,9.5,3.75
  19358165.250
  22332833.750
  22022537.250
  19921260.250
  21671144.750
  21280981.750
  19944077.750
 23  2 20 11  0  9.0000000  0 06G01G10G21G22G25G32 2.10,9.5,3.75
  22954831.750
  21225508.250
  23280114.250
  20944641.250
  22191622.250
  20956248.250
 23  2 20 11 30  9.0000000  0 07G01G10G21G22G25G31G32 0.93,9.0,3.75
  23882385.250
  23151451.750
  18612805.750
  21854443.750
  23278485.750
  21103300.250
  22300764.250
 23  2 20 12  0  9.0000000  0 07G01G10G21G26G28G31G32 -0.25,9.0,3.75
  19094447.250
  19196218.750
  20063977.750
  18402099.750
  22294883.250
  21987021.250
  23659498.250
 23  2 20 12 30 12.0000000  0 07G01G21G22G26G28G31G32 -1.42,8.5,3.75
  20592714.250
  21625279.250
  23728388.250
  18227238.750
  23601382.750
  23148774.750
  19117392.250
 23  2 20 13  0 14.0000000  0 06G01G16G22G26G31G32 -2.600,8.5,3.75
  24772571.750
  23503349.750
  21302866.750
  20782832.250
  21026574.250
  23173717.250
 23  2 20 13 30 20.0000000  0 05G03G04G22G28G31 +0.800,9.5,3.75
  20313077.750
  22103883.250
  20536913.750
  21143871.750
  20583172.750
 23  2 20 14  0 27.0000000  0 07G03G04G16G22G26G28G31 +1.200,10.5,3.75
  22434267.250
  23214208.750
  22073348.250
  23205460.250
  21275003.750
  18049615.750
  23491249.250
 23  2 20 14 30 14.0000000  0 04G03G04G22G31 +1.400,11.0,3.75
  19916347.250
  19398811.750
  21024859.750
  21410579.750
 23  2 20 15  0 11.0000000  0 07G03G04G08G09G16G27G31 +1.080,12.0,3.75
  21018398.750
  19052006.250
  23042243.250
  21335071.750
  18423236.750
  21266244.750
  22645676.250
 23  2 20 15 30  6.0000000  0 06G04G07G08G16G26G27 1.34,12.0,3.75
  20310769.750
  18144518.250
  23429126.250
  20185316.750
  22294215.250
  21899318.250
 23  2 20 16  0 11.0000000  0 07G03G04G07G08G09G16G27 +1.600,13.5,3.75
  18634820.750
  20125065.250
  23184200.750
  22095456.250
  21078886.750
  20526089.250
  21025862.250
 23  2 20 16 30  5.0000000  0 06G07G08G09G16G26G27 1.60,12.0,3.75
  21519892.250
  20250371.750
  19766386.250
  20420358.250
  23443529.750
  19830062.250
 23  2 20 17  0 10.0000000  0 06G04G07G08G09G27G30 1.60,15.5,3.75
  19193357.250
  19651120.750
  18490345.250
  18606938.250
  18845661.750
  22513590.250
 23  2 20 17 30 12.0000000  0 06G07G08G16G21G27G30 +1.600,17.0,3.75
  20596757.250
  19871328.750
  22928254.250
  23429004.750
  21025309.750
  23116443.750
 23  2 20 18  0 14.0000000  0 04G04G09G16G27 +1.800,18.0,3.75
  22788281.750
  21084150.250
  23765175.250
  21699189.250
 23  2 20 18 30 22.0000000  0 05G07G08G09G14G27 +1.800,19.5,3.75
  21224236.250
  22101420.750
  23793295.250
  23725043.250
  24550302.750
 23  2 20 19  0 12.0000000  0 04G07G13G17G30 +1.800,20.0,3.75
  21045154.750
  18797900.750
  23860402.750
  21818322.250
 23  2 20 19 30 11.0000000  0 05G01G08G14G17G30 +1.800,22.0,3.75
  19709615.750
  21027479.250
  19428039.250
  20060047.250
  18533013.750
 23  2 20 20  0 14.0000000  0 04G14G17G19G30 +1.800,23.0,3.75
  20642418.250
  21025804.750
  23844292.750
  20124682.250
 23  2 20 20 30 11.0000000  0 06G07G13G14G17G19G21 +2.000,23.0,3.75
  20117813.750
  21201836.250
  18533571.750
  18776000.750
  21028498.250
  20702744.750
 23  2 20 21  0 11.0000000  0 06G01G07G14G17G19G21 +1.800,23.0,3.75
  21830812.250
  23971314.250
  21025094.250
  21203223.750
  22790007.250
  18348720.250
 23  2 20 21 30 11.0000000  0 05G14G17G19G21G30 +1.800,22.0,3.75
  19207983.250
  19334792.250
  20214301.250
  23640741.250
  21025566.250
 23  2 20 22  0 22.0000000  0 00 1.84,21.5,3.75
 23  2 20 22 30 24.0000000  0 02G11G14 1.88,22.5,3.75
  18347804.750
  21478381.250
 23  2 20 23  0 12.0000000  0 06G03G06G11G14G17G19 1.92,21.5,3.75
  18348191.250
  21253680.750
  23928241.250
  23015802.250
  22357041.750
  21359512.250
 23  2 20 23 30 11.0000000  0 06G03G06G12G17G19G24 1.96,20.0,3.75
  18145428.250
  20354263.750
  23975100.750
  22138071.250
  20678946.750
  23635642.250
 23  2 21  0  0 10.0000000  0 06G06G12G17G19G20G24 2.00,19.0,3.75
  23253296.750
  19658270.250
  19475863.250
  23642865.250
  20504525.750
  20952759.750
 23  2 21  0 30 10.0000000  0 07G05G06G11G12G17G20G25 2.04,18.5,3.75
  20704805.250
  22144965.250
  22275560.750
  23255803.250
  18617870.250
  23846328.750
  19347621.250
 23  2 21  1  0  8.0000000  0 07G05G06G11G12G17G20G25 2.08,16.0,3.75
  19469665.250
  22837982.250
  22145881.750
  22768561.250
  19458612.750
  22975697.750
  18436785.250
 23  2 21  1 30  8.0000000  0 08G05G06G09G11G12G17G19G25 2.12,11.5,3.75
  21054375.750
  20410578.750
  22906435.750
  19004213.250
  19420679.750
  23148213.750
  20727293.750
  20549134.250
 23  2 21  2  0  6.0000000  0 07G02G05G06G11G12G20G29 2.16,11.5,3.75
  18410392.250
  21856586.750
  23084498.750
  21091042.750
  21524998.250
  20627042.250
  18469523.250
 23  2 21  2 30 15.0000000  0 07G02G05G11G12G19G20G25 +2.200,15.0,3.75
  22600399.250
  19924730.750
  20335700.750
  21027625.250
  23460721.250
  19470354.750
  20980346.750
 23  2 21  3  0 11.0000000  0 05G02G05G11G12G20 +2.200,15.0,3.75
  21026418.750
  18486210.750
  19868692.250
  20984050.750
  18787794.250
 23  2 21  3 30  5.0000000  0 07G11G12G13G15G20G25G29 2.24,14.0,3.75
  20495857.250
  22107204.750
  21039120.750
  21784587.250
  19347852.250
  21211469.750
  19503278.250
 23  2 21  4  0  5.0000000  0 07G05G13G15G20G23G25G29 2.28,12.5,3.75
  21426145.750
  22912353.250
  23354024.250
  22907811.750
  20286636.750
  18991738.750
  21782275.250
 23  2 21  4 30 10.0000000  0 07G02G05G13G15G20G23G29 2.32,11.5,3.75
  18919285.750
  18366994.250
  18707617.250
  18733445.750
  20217037.250
  21694784.250
  18046409.250
 23  2 21  5  0  9.0000000  0 06G02G05G15G18G23G29 2.36,10.5,3.75
  20513686.250
  20911705.750
  19826827.750
  21591650.750
  22633210.750
  20123366.750
 23  2 21  5 30 11.0000000  0 04G02G15G18G29 +2.400,9.5,3.75
  20704340.250
  19741647.750
  21097788.250
  21027888.250
 23  2 21  6  0 10.0000000  0 05G02G05G15G18G29 +2.400,9.0,3.75
  21384873.250
  23474904.750
  20360271.250
  21026200.750
  22537112.750
 23  2 21  6 30 13.0000000  0 05G02G10G23G24G29 +2.400,8.0,3.75
  21044589.250
  23187318.250
  20834100.250
  22394621.750
  23000596.750
 23  2 21  7  0  5.0000000  0 08G02G10G15G18G23G24G29G32 2.50,7.5,3.75
  22499659.250
  23277170.750
  21710796.250
  20610066.750
  21291149.750
  22338821.250
  19097221.250
  18887049.250
 23  2 21  7 30 14.0000000  0 05G02G10G18G23G32 +2.600,6.5,3.75
  23568700.750
  22782209.250
  21028063.250
  21247806.750
  24013058.750
 23  2 21  8  0  8.0000000  0 06G10G18G23G24G27G32 2.60,6.0,3.75
  21069244.750
  20509834.250
  20067799.750
  20671684.250
  23041736.250
  22019206.250
 23  2 21  8 30 11.0000000  0 05G10G18G22G24G27 +2.600,5.5,3.75
  21026107.750
  21899345.250
  23605807.750
  21418546.750
  24047346.750
 23  2 21  9  0  5.0000000  0 06G10G18G22G27G28G32 2.67,5.0,3.75
  23639711.750
  20055054.750
  19796068.250
  21811744.250
  20825763.250
  18303101.250
 23  2 21  9 30  9.0000000  0 07G10G18G22G25G28G31G32 2.73,4.5,3.75
  21793814.250
  19714080.750
  23487830.250
  19475920.750
  23967620.750
  18820279.750
  22355282.750
 23  2 21 10  0 11.0000000  0 04G23G28G31G32 +2.800,4.0,3.75
  21681060.250
  21026925.250
  21668257.250
  20324673.750
 23  2 21 10 30  5.0000000  0 06G10G22G23G28G31G32 2.80,4.0,3.75
  23858177.750
  18323180.750
  20257838.250
  23872224.250
  18265015.250
  23968864.250
 23  2 21 11  0 11.0000000  0 06G10G21G22G23G31G32 +2.800,3.5,3.75
  21026339.750
  23004378.250
  20614831.750
  23931991.250
  20080186.750
  20682499.750
 23  2 21 11 30  6.0000000  0 06G10G21G22G28G31G32 2.68,3.0,3.75
  20422359.750
  21806944.750
  18974708.250
  18339788.250
  18209370.750
  19478559.750
 23  2 21 12  0  5.0000000  0 06G10G21G22G26G28G31 2.56,3.0,3.75
  18701133.750
  19497689.250
  22097128.750
  23580604.250
  21677494.750
  21347053.250
 23  2 21 12 30  7.0000000  0 07G01G16G21G22G25G26G31 2.44,2.5,3.75
  23906878.750
  18560273.250
  18938990.750
  20954359.250
  23699564.750
  21303331.750
  20413002.250
 23  2 21 13  0 10.0000000  0 07G01G16G22G26G28G31G32 2.32,2.5,3.75
  21537444.750
  19948633.750
  23970508.750
  23328603.250
  18282483.250
  23739038.750
  19907028.250
 23  2 21 13 30 40.0000000  0 04G03G16G29G32 +2.200,2.5,3.75
  21506599.250
  22095672.250
  19247587.250
  24227698.750
 23  2 21 14  0 31.0000000  0 05G03G16G22G26G28 +2.400,2.5,3.75
  21901664.250
  21382180.250
  22734218.250
  20731675.250
  23585081.250
 23  2 21 14 16 29.0000000  0 00 +0.000,3.5,3.75,1,74262,-5049626,3882628,5,8.8
 23  2 21 15  0 11.0000000  0 05G03G09G16G26G27 +3.200,9.5,3.75
  20980947.250
  21025490.250
  18250673.750
  19673600.250
  20948879.250
 23  2 21 15 30 11.0000000  0 05G04G09G16G26G27 +3.200,12.0,3.75
  19530851.250
  21116950.250
  19482972.250
  21688195.750
  21024934.750
 23  2 21 16  0 11.0000000  0 05G04G08G09G16G27 +3.400,13.5,3.75
  20178964.250
  21975106.750
  21027973.250
  20650826.250
  20985347.250
 23  2 21 16 30 11.0000000  0 05G04G08G09G16G27 +3.400,14.5,3.75
  20881404.250
  21345728.750
  20944887.250
  21756806.250
  21027713.750
 23  2 21 17  0 10.0000000  0 06G04G07G08G16G27G30 3.40,15.0,3.75
  23602783.250
  23838948.750
  22719191.750
  18696098.250
  23183922.250
  20665964.750
 23  2 21 17 30 12.0000000  0 05G04G08G09G14G27 +3.400,16.0,3.75
  23135876.750
  21026747.750
  21827775.750
  19000540.750
  22282491.250
 23  2 21 18  0 11.0000000  0 06G04G07G08G09G21G27 +3.400,17.0,3.75
  18228514.750
  21026267.750
  21131934.250
  22469902.250
  23413194.750
  23088342.750
 23  2 21 18 30 11.0000000  0 04G01G07G08G21 +3.400,17.5,3.75
  22497408.750
  19080856.250
  20072288.250
  21025792.750
 23  2 21 19  0 11.0000000  0 05G01G09G14G17G21 +3.400,19.0,3.75
  21776902.750
  23393916.750
  21205309.750
  22164100.750
  21025738.250
 23  2 21 19 30  9.0000000  0 06G01G08G14G17G21G30 3.40,20.0,3.75
  21818037.250
  23382805.250
  21559873.750
  22161554.750
  21957046.750
  20704131.250
 23  2 21 20  0  7.0000000  0 06G01G07G14G17G19G21 3.40,20.5,3.75
  23600924.250
  23868645.250
  23426734.250
  23786859.750
  20537551.250
  18685241.250
 23  2 21 20 30 14.0000000  0 07G07G13G14G17G19G21G30 +3.400,21.0,3.75
  22623247.750
  23600310.750
  20846078.750
  21077629.250
  23239170.250
  23172334.750
  21048706.250
 23  2 21 21  0 11.0000000  0 06G07G14G17G19G21G30 +3.600,21.0,3.75
  18165395.750
  21027057.750
  21200775.250
  22690571.750
  18507759.750
  22065423.250
 23  2 21 21 30 11.0000000  0 05G03G06G14G19G30 +3.600,20.5,3.75
  18661199.750
  23247717.750
  21026681.750
  21925215.250
  22981950.250
 23  2 21 22  0 11.0000000  0 05G01G06G17G19G30 +3.600,20.0,3.75
  22544833.750
  21025946.750
  20184663.750
  20285030.250
  23025690.250
 23  2 21 22 30 11.0000000  0 07G03G06G11G14G17G19G24 +3.600,19.0,3.75
  21026192.250
  18499026.750
  21717978.750
  19101900.250
  18798483.250
  18270645.750
  21006680.750
 23  2 21 23  0 23.0000000  0 02G19G24 3.50,18.0,3.75
  20143308.750
  22910655.250
 23  2 21 23 30 15.0000000  0 01G19 +3.400,17.5,3.75
  21093404.750
 23  2 22  0  0 10.0000000  0 06G06G11G17G19G20G24 3.20,17.0,3.75
  23719247.250
  18618844.750
  19989814.250
  18114962.250
  20776743.250
  21468994.750
 23  2 22  0 30 14.0000000  0 06G06G11G12G17G19G20 +3.000,16.0,3.75
