     2.00           OBSERVATION DATA    G(GPS)              RINEX VERSION / TYPE
goGPS-java                              17-Apr-24 11:48:46  PGM / RUN BY / DATE
                                                            MARKER NAME
                                                            MARKER NUMBER
                    Lotek Wireless Inc.                     OBSERVER / AGENCY
7                                                           REC # / TYPE / VERS
                                                            ANT # / TYPE
    73993.0000 -5057250.0000  3872763.0000                  APPROX POSITION XYZ
        0.0000        0.0000        0.0000                  ANTENNA: DELTA H / E / N
     2     0                                                WAVELENGTH FACT L1/2
     1    C1                                                # / TYPES OF OBSERV
  2023     3     4    13    50   27.0000000     UTC         TIME OF FIRST OBS
                                                            END OF HEADER
 23  3  4 14  0 11.0000000  0 05G03G16G27G28G31 +1.400,16.5,3.90
  21027318.250
  18810667.750
  22017511.250
  23179412.250
  22554111.750
 23  3  4 14 30 16.0000000  0 07G04G09G16G22G26G27G31 +0.800,18.5,3.90
  19264640.750
  21169042.750
  18956774.250
  23536381.250
  20805547.750
  21086343.750
  23643027.750
 23  3  4 15  0  5.0000000  0 06G04G07G08G16G26G27 0.95,16.0,3.90
  23690723.250
  21045259.250
  20109723.750
  23934603.750
  20431994.750
  18852226.750
 23  3  4 15 30  7.0000000  0 06G07G08G09G16G26G27 1.10,15.5,3.90
  21307770.750
  20106197.750
  19415970.250
  19691573.750
  22593941.250
  19434389.250
 23  3  4 16  0  5.0000000  0 07G04G07G09G16G26G27G30 1.25,11.0,3.90
  18098891.250
  19107587.250
  23785030.250
  19163611.250
  22264858.250
  23958498.250
  22074924.250
 23  3  4 16 30 11.0000000  0 06G04G07G08G09G16G27 +1.400,12.0,3.90
  21661966.750
  21056335.750
  20157105.250
  20661113.750
  22848184.750
  21026945.750
 23  3  4 17  0 11.0000000  0 04G07G08G09G30 +1.400,19.5,3.90
  18790265.250
  18507533.750
  19582379.250
  21026188.750
 23  3  4 17 30  5.0000000  0 06G01G07G08G09G21G27 1.50,23.5,3.90
  18713006.750
  20802160.750
  21345674.250
  22893584.750
  22963496.750
  23603372.750
 23  3  4 18  0 12.0000000  0 04G01G09G14G21 +1.600,22.0,3.90
  21819450.250
  22299443.250
  21047574.750
  20683864.250
 23  3  4 18 30  5.0000000  0 06G01G07G09G14G21G30 1.50,20.5,3.90
  23233477.250
  21604638.750
  19926228.250
  22832729.250
  22909263.250
  21859162.250
 23  3  4 19  0 10.0000000  0 07G01G07G08G13G17G19G21 +1.400,22.0,3.90
  21026438.750
  20695303.750
  23493814.750
  22878487.250
  21318106.250
  18260630.750
  21640052.250
 23  3  4 19 30  9.0000000  0 07G01G07G13G14G17G21G30 1.40,22.5,3.90
  22967562.750
  23846923.750
  19175338.750
  22714830.750
  23009818.250
  18501602.750
  22567395.750
 23  3  4 20  0 15.0000000  0 04G01G14G21G30 +1.400,22.0,3.90
  18729587.750
  18111865.250
  21026970.250
  18723246.750
 23  3  4 20 30  9.0000000  0 07G01G06G14G17G19G21G30 1.40,23.5,3.90
  18417570.750
  20063785.750
  23184944.250
  23333606.750
  18450792.750
  21240569.250
  18692394.750
 23  3  4 21  0  8.0000000  0 07G01G03G06G14G17G19G30 1.40,26.5,3.90
  19534213.750
  20755107.750
  19067958.250
  23559970.750
  23613608.750
  18039691.250
  19974308.750
 23  3  4 21 30 10.0000000  0 06G01G03G06G14G17G19 +1.400,29.0,3.90
  18109494.750
  23727327.750
  21493769.250
  21407856.250
  21254501.750
  21026671.750
 23  3  4 22  0 19.0000000  0 05G03G06G11G17G19 +0.800,29.5,3.90
  24021226.750
  21174716.250
  24130071.750
  21962635.250
  21160033.750
 23  3  4 22 30 14.0000000  0 04G03G06G19G24 +1.200,26.5,3.90
  18294750.750
  20770081.250
  21040805.250
  23906411.250
 23  3  4 23  0 14.0000000  0 05G06G11G17G19G24 +1.400,25.0,3.90
  19669844.750
  21026049.250
  21736165.750
  20055951.750
  23223039.250
 23  3  4 23 30 11.0000000  0 06G06G11G17G19G20G24 +0.920,24.0,3.90
  21018339.250
  21473501.750
  23383329.250
  21399360.750
  23315577.750
  18957066.750
 23  3  5  0  0  9.0000000  0 06G05G06G12G17G19G20 1.16,17.0,3.90
  20520505.250
  23212874.750
  23531025.250
  19749636.250
  23542657.250
  23922740.750
 23  3  5  0 30 10.0000000  0 05G06G09G11G12G20 +1.400,13.0,3.90
  21740389.750
  18610063.750
  20566369.250
  21026616.250
  20944441.250
 23  3  5  1  0  8.0000000  0 08G05G06G11G12G19G20G25G29 1.00,11.0,3.90
  20776529.250
  21390701.750
  19576097.250
  19974609.250
  21770475.750
  19310394.250
  20751547.250
  23394923.250
 23  3  5  1 30 11.0000000  0 06G02G06G09G11G19G20 +0.600,13.5,3.90
  21363580.750
  21030537.750
  22223173.250
  18701841.750
  21596912.750
  23954086.750
 23  3  5  2  0 11.0000000  0 05G05G06G11G12G29 +1.400,14.0,3.90
  19960876.750
  23752168.750
  21026632.250
  21973175.750
  21970257.250
 23  3  5  2 30 13.0000000  0 04G02G05G11G20 +1.400,12.5,3.90
  23336384.250
  21026189.250
  22896456.250
  21750724.750
 23  3  5  3  0 12.0000000  0 07G02G05G11G15G20G25G29 +1.200,10.5,3.90
  21040367.750
  19340912.750
  21774528.750
  21798232.250
  20623074.750
  22624094.750
  19939768.250
 23  3  5  3 30 10.0000000  0 06G02G05G11G13G20G29 1.18,10.0,3.90
  20298646.250
  19425646.250
  22228742.750
  20143046.250
  21114899.750
  19304011.250
 23  3  5  4  0  5.0000000  0 08G02G05G11G13G15G18G20G29 1.15,10.5,3.90
  22194929.750
  22264030.250
  19315566.750
  21946560.250
  21655790.250
  23519691.250
  18223628.250
  21593156.750
 23  3  5  4 30  7.0000000  0 06G02G05G13G15G18G29 1.13,10.5,3.90
  19781257.750
  20799437.250
  19721387.250
  18887395.750
  20453090.250
  19831792.750
 23  3  5  5  0  5.0000000  0 08G02G05G13G15G18G20G23G29 1.10,9.5,3.90
  18500416.250
  20361096.750
  18860312.750
  23473646.750
  18443038.250
  22543838.250
  19452836.750
  19363720.250
 23  3  5  5 30  9.0000000  0 07G02G10G13G15G18G24G29 1.08,9.0,3.90
  21090756.750
  23698053.250
  21997285.250
  20117353.750
  20253413.750
  22981133.750
  22794077.750
 23  3  5  6  0  5.0000000  0 07G02G15G18G23G24G29G32 1.05,8.0,3.90
  18341777.750
  23506339.750
  22729623.250
  23517806.750
  18739099.750
  20763400.250
  21421230.750
 23  3  5  6 30  5.0000000  0 06G13G15G18G23G24G29 1.03,8.0,3.90
  18370528.250
  21797967.250
  20177550.250
  20594991.750
  21392731.250
  19393375.750
 23  3  5  7  0 10.0000000  0 07G02G10G15G18G23G24G32 +1.000,9.0,3.90
  18049346.250
  22229743.250
  23450285.750
  21186924.250
  21018298.250
  21625823.750
  23273763.250
 23  3  5  7 30 10.0000000  0 05G10G18G23G24G32 +1.400,10.0,3.90
  20715973.250
  21025007.750
  20095872.250
  20783747.750
  21543759.250
 23  3  5  8  0  5.0000000  0 07G08G10G12G18G22G24G32 1.22,8.0,3.90
  21505455.250
  23387620.250
  22165072.750
  19212511.750
  19650771.750
  18441116.250
  18091310.750
 23  3  5  8 30 11.0000000  0 06G10G18G22G23G31G32 +1.040,7.5,3.90
  21018163.250
  24380726.250
  22845424.250
  21791342.750
  24577891.250
  21626148.250
 23  3  5  9  0  6.0000000  0 06G10G12G22G23G28G32 1.08,7.0,3.90
  22528063.250
  20194621.750
  23863819.250
  18034686.750
  18000285.750
  23009767.750
 23  3  5  9 30  5.0000000  0 06G10G22G23G25G31G32 1.12,6.5,3.90
  18525226.750
  19243583.250
  20707183.250
  20667070.250
  19512936.750
  18772326.250
 23  3  5 10  0  5.0000000  0 06G10G22G25G28G31G32 1.16,6.0,3.90
  20574797.750
  20504234.750
  21744418.750
  19894517.750
  20192552.250
  20430954.750
 23  3  5 10 30  5.0000000  0 07G01G10G21G22G28G31G32 1.20,6.0,3.90
  23815797.750
  22851377.250
  18467775.250
  21811916.250
  21140235.750
  21140911.250
  22155638.750
 23  3  5 11  0  6.0000000  0 06G10G22G25G28G31G32 1.24,6.5,3.90
  18110724.250
  21956166.750
  23688693.250
  21436067.750
  21176861.250
  22740917.250
 23  3  5 11 30  5.0000000  0 06G16G22G26G28G31G32 1.28,6.0,3.90
  23255879.750
  19174813.250
  19892875.250
  18963448.750
  18507253.750
  20423053.750
 23  3  5 12  0  8.0000000  0 07G03G16G22G26G28G31G32 1.32,6.0,3.90
  20093297.750
  21838930.750
  19343390.250
  19010700.750
  19512801.250
  18929308.250
  21067844.750
 23  3  5 12 30  7.0000000  0 06G03G04G16G22G26G31 1.36,6.5,3.90
  20857823.250
  22839635.250
  21764656.750
  20935959.750
  19743689.750
  20815249.750
 23  3  5 13  0 12.0000000  0 06G03G04G16G22G28G31 +1.400,7.5,3.90
  21040384.750
  22100509.250
  20904156.750
  21729429.750
  22517260.250
  21848837.250
 23  3  5 13 30 11.0000000  0 05G03G16G22G26G31 +1.600,11.5,3.90
  22293479.750
  21025037.750
  23374938.750
  21101195.750
  23613891.750
 23  3  5 14  0 15.0000000  0 06G03G04G16G22G27G31 +1.200,14.0,3.90
  23414489.750
  21795272.250
  21054026.750
  18722079.250
  18131301.250
  18934696.250
 23  3  5 14 30 14.0000000  0 04G03G04G16G27 +1.000,15.0,3.90
  18353986.750
  21302689.250
  21069368.250
  23035614.250
 23  3  5 15  0  5.0000000  0 06G04G07G08G16G26G27 1.13,20.0,3.90
  23304909.750
  20542907.250
  19561718.750
  23625161.750
  20191192.750
  18372881.750
 23  3  5 15 30  6.0000000  0 06G04G07G08G09G16G27 1.27,19.0,3.90
  23894693.750
  20088204.750
  18867629.250
  18255324.750
  18696033.750
  18289247.750
 23  3  5 16  0 16.0000000  0 05G04G07G08G16G27 +1.400,17.5,3.90
  20316409.250
  21110043.750
  19922772.750
  21417522.250
  20102037.250
 23  3  5 16 30 12.0000000  0 05G04G07G16G27G30 +1.400,18.0,3.90
  21875760.250
  21039209.750
  23069846.750
  21186173.250
  23645560.750
 23  3  5 17  0 11.0000000  0 04G04G07G14G27 +1.600,19.5,3.90
  23584713.750
  21025030.250
  18130642.250
  22569739.750
 23  3  5 17 30 11.0000000  0 07G01G07G08G09G14G21G30 +1.600,19.5,3.90
  18134005.250
  20357264.750
  21025683.750
  22629929.250
  22985936.250
  22454006.250
  21962181.250
 23  3  5 18  0 11.0000000  0 06G07G08G14G17G21G30 +1.200,22.5,3.90
  19462040.750
  21018363.250
  21439421.750
  22571416.250
  21117039.750
  20381701.250
 23  3  5 18 30  8.0000000  0 06G01G07G14G17G21G30 1.15,24.5,3.90
  20563448.750
  19117825.750
  20217704.750
  20954400.750
  20369038.750
  19267694.750
 23  3  5 19  0  5.0000000  0 07G01G07G13G14G17G21G30 1.10,24.0,3.90
  20140902.750
  19981155.250
  22061276.750
  19971589.250
  20418624.250
  20886519.750
  19342029.750
 23  3  5 19 30 10.0000000  0 06G01G13G14G17G21G30 1.05,25.0,3.90
  20259968.750
  22519312.750
  19984065.250
  20260375.750
  21910468.750
  19921916.750
 23  3  5 20  0 18.0000000  0 04G17G19G21G30 +1.000,30.5,3.90
  21140503.750
  22842778.250
  18022605.250
  21666763.750
 23  3  5 20 30 11.0000000  0 06G01G03G06G14G19G30 +1.600,25.5,3.90
  21193102.250
  23813972.750
  22548683.250
  19865386.250
  21024976.250
  21491158.750
 23  3  5 21  0 21.0000000  0 05G03G06G14G17G19 +1.600,26.5,3.90
  22961177.250
  21200126.750
  19902476.250
  19941389.250
  20267037.250
 23  3  5 21 30 13.0000000  0 04G03G06G14G17 +1.400,23.0,3.90
  23450671.750
  21136894.750
  21243960.250
  21058585.750
 23  3  5 22  0 20.0000000  0 06G06G11G14G17G19G24 +1.800,22.0,3.90
  21189986.250
  24055257.750
  22671421.750
  22102565.750
  21229288.250
  23972360.250
 23  3  5 22 30 11.0000000  0 06G03G06G11G17G19G24 +1.800,21.0,3.90
  18646067.250
  21029107.750
  23139196.750
  22667909.750
  21324682.250
  18227085.750
 23  3  5 23  0 19.0000000  0 05G06G11G12G17G19 +1.400,19.0,3.90
  21168108.750
  22400916.250
  23839894.750
  23284744.750
  21559399.750
 23  3  5 23 30 10.0000000  0 06G06G11G12G17G19G20 1.50,18.0,3.90
  22392924.250
  22727802.750
  23776613.750
  18787887.250
  22768222.750
  18481885.750
 23  3  6  0  0 10.0000000  0 07G06G09G11G12G19G20G25 +1.600,16.5,3.90
  21544511.250
  19433336.250
  21025561.250
  21703761.250
  21868655.250
  22040983.750
  23526292.250
 23  3  6  0 30  8.0000000  0 06G06G11G12G17G19G20 1.60,15.5,3.90
  22005621.750
  20736455.750
  21174599.750
  18672013.250
  22319493.750
  21021277.750
 23  3  6  1  0  7.0000000  0 06G05G06G11G12G19G20 1.60,16.0,3.90
  22813291.750
  23680438.750
  21787090.750
  22195797.250
  18083603.250
  21446444.750
 23  3  6  1 30 11.0000000  0 06G05G06G11G12G20G25 +1.600,16.5,3.90
  20233142.750
  22803525.750
  20411807.750
  21025851.250
  19618162.750
  21116944.750
 23  3  6  2  0  8.0000000  0 08G02G05G06G11G12G20G25G29 1.60,16.5,3.90
  23602874.750
  20987327.250
  18953159.750
  22175457.750
  23185316.750
  21121842.750
  22747866.250
  22916496.250
 23  3  6  2 30  5.0000000  0 07G05G11G13G15G20G25G29 1.60,16.5,3.90
  20578626.250
  22535237.250
  23468869.750
  18272453.750
  21382881.250
  23198056.250
  21835619.250
 23  3  6  3  0  5.0000000  0 07G02G05G12G13G15G20G29 1.60,16.5,3.90
  20923125.750
  19323377.750
  23796144.750
  21059805.750
  21579276.750
  20665123.250
  19818929.750
 23  3  6  3 30 11.0000000  0 07G02G11G13G15G20G23G29 +1.600,16.0,3.90
  21983586.250
  18081388.250
  21798893.250
  21925228.250
  22966760.250
  18885430.250
  21025343.750
 23  3  6  4  0  8.0000000  0 07G02G05G13G15G20G23G29 1.67,16.0,3.90
  20832651.250
  21036699.250
  20593926.750
  20231177.750
  23014617.250
  23083252.250
  20307654.750
 23  3  6  4 30  6.0000000  0 06G02G05G13G15G18G23 1.73,14.0,3.90
  20115134.750
  21258187.750
  20100681.750
  19191243.750
  20693020.250
  21695357.750
 23  3  6  5  0 10.0000000  0 06G02G13G15G18G23G29 +1.800,14.5,3.90
  21028969.250
  21460262.750
  20004126.750
  20865842.250
  21872722.750
  22013743.250
 23  3  6  5 30 12.0000000  0 05G02G10G15G18G23 +1.800,15.0,3.90
  21974033.250
  24415283.250
  21016635.250
  21028690.250
  21977135.750
 23  3  6  6  0 10.0000000  0 05G02G15G23G27G32 +1.600,16.0,3.90
  21835278.250
  21025567.750
  20872717.750
  23566612.750
  18666828.250
 23  3  6  6 30  9.0000000  0 07G02G10G15G18G23G24G27 1.60,15.5,3.90
  19732799.750
  19343537.250
  19064781.250
  23337771.750
  23686155.750
  18447035.250
  20364931.250
 23  3  6  7  0  8.0000000  0 07G02G10G15G18G23G24G27 1.60,15.5,3.90
  19126706.250
  23077534.750
  18536936.750
  22203757.750
  21940756.250
  22544069.250
  18838155.750
 23  3  6  7 30 11.0000000  0 07G10G18G22G23G24G27G32 +1.600,13.5,3.90
  21025054.250
  21534869.750
  23643425.250
  20492460.750
  21211862.750
  23784233.250
  21832494.750
 23  3  6  8  0  8.0000000  0 06G10G18G23G24G27G32 1.70,14.5,3.90
  20539718.250
  22575140.250
  20685250.750
  21744449.250
  18442559.750
  21227303.750
 23  3  6  8 30 12.0000000  0 05G10G18G22G23G32 +1.800,13.5,3.90
  19301791.750
  22867836.250
  21064188.750
  20176885.750
  19897259.750
 23  3  6  9  0 11.0000000  0 06G22G23G25G28G31G32 +1.600,13.0,3.90
  20963242.750
  21309493.250
  22686637.750
  21024398.250
  21869776.250
  20164232.750
 23  3  6  9 30 10.0000000  0 07G10G21G22G23G28G31G32 +1.200,14.0,3.90
  20204076.750
  22927730.250
  20822151.250
  22474358.250
  20444374.250
  21018105.750
  20407009.750
 23  3  6 10  0  8.0000000  0 07G10G12G21G22G23G25G32 1.21,14.5,3.90
  23385378.750
  19943792.750
  19512252.250
  23190568.250
  20206220.750
  18429567.250
  23174399.250
 23  3  6 10 30  6.0000000  0 06G10G12G21G25G31G32 1.22,14.0,3.90
  23549895.750
  19734024.250
  19085594.750
  23731269.750
  21670754.750
  22767720.750
 23  3  6 11  0  6.0000000  0 07G03G10G22G25G28G31G32 1.22,13.0,3.90
  19190016.250
  18784173.250
  22471783.750
  18283200.750
  21986157.250
  21695656.250
  23317598.250
 23  3  6 11 30  6.0000000  0 06G01G03G22G28G31G32 1.23,13.0,3.90
  22918416.250
  21729068.250
  20116881.750
  19955263.750
  19470991.250
  21428114.250
 23  3  6 12  0 13.0000000  0 07G03G16G22G26G28G31G32 +1.240,13.5,3.90
  21640280.250
  23278607.750
  21018337.750
  20551643.250
  21240551.250
  20632703.250
  22805985.750
 23  3  6 12 30  9.0000000  0 06G03G22G26G28G31G32 1.22,14.5,3.90
  19953699.250
  20130604.250
  18835272.250
  20700788.250
  20031120.250
  22375725.250
 23  3  6 13  0 16.0000000  0 07G03G04G16G22G26G28G31 +1.200,15.5,3.90
  21035602.250
  21941651.250
  20742252.250
  21793567.250
  19884745.250
  22605631.250
  21917588.750
 23  3  6 13 30 11.0000000  0 05G03G04G22G26G31 +1.600,17.0,3.90
  22223557.750
  21853161.750
  23346863.250
  21024776.250
  23568398.250
 23  3  6 14  0 15.0000000  0 05G04G09G22G26G31 +1.400,17.5,3.90
  20543017.250
  22857567.750
  23688360.750
  21095587.750
  23862532.250
 23  3  6 14 30 13.0000000  0 06G04G08G09G16G26G27 +1.400,18.5,3.90
  21056784.750
  18260066.250
  22787736.750
  20900476.750
  22949590.750
  22701443.750
 23  3  6 15  0 10.0000000  0 04G08G09G16G27 +1.600,21.0,3.90
  22711539.250
  21650680.750
  21024783.750
  21596728.750
 23  3  6 15 30  5.0000000  0 06G04G07G08G09G16G27 1.60,21.5,3.90
  23607097.250
  19628438.750
  18397893.250
  23857532.750
  18465760.250
  23911194.250
 23  3  6 16  0 11.0000000  0 06G04G07G08G09G16G27 +1.600,25.0,3.90
  20439272.750
  21024180.750
  19868347.750
  19930748.750
  21570677.750
  20154520.750
 23  3  6 16 30 10.0000000  0 05G07G09G16G27G30 +1.600,25.5,3.90
  21024445.750
  20933648.250
  23291814.250
  21352550.250
  23578043.750
 23  3  6 17  0 12.0000000  0 05G07G08G09G21G30 +1.600,25.0,3.90
  21113394.750
  21043109.250
  22258728.250
  23593642.250
  23211774.750
 23  3  6 17 30 11.0000000  0 04G07G14G21G30 +1.600,26.0,3.90
  19507809.750
  22058301.750
  21543494.250
  21024145.250
 23  3  6 18  0 11.0000000  0 07G01G07G08G09G14G21G30 +1.800,27.5,3.90
  21959461.250
  19432160.750
  21103277.250
  23061521.750
  21301141.750
  21028199.250
  20247846.750
 23  3  6 18 30  8.0000000  0 06G07G13G14G17G21G30 1.75,28.0,3.90
  18640954.250
  21514825.750
  19599294.750
  20292411.250
  19839491.750
  18679549.250
 23  3  6 19  0  8.0000000  0 06G01G07G14G17G21G30 1.70,29.0,3.90
  18718546.750
  18734280.750
  18551358.250
  18970170.750
  19594221.250
  23981809.250
 23  3  6 19 30  9.0000000  0 06G01G13G14G17G19G30 1.65,27.0,3.90
  18403028.250
  20700700.750
  18087744.750
  18350381.250
  20607787.750
  18121473.750
 23  3  6 20  0 11.0000000  0 06G01G07G14G17G19G21 +1.600,27.0,3.90
  21595452.750
  23699162.250
  20834378.750
  21024616.750
  22634238.250
  18068662.750
 23  3  6 20 30 25.0000000  0 04G01G14G17G19 +1.200,25.5,3.90
  22723930.750
  21290333.750
  21424228.750
  22337471.750
 23  3  6 21  0 13.0000000  0 06G03G06G14G17G19G30 +1.000,26.5,3.90
  23976299.250
  22144190.250
  21033967.750
  21050226.750
  21287336.250
  23676067.750
 23  3  6 21 30 10.0000000  0 05G03G06G14G17G19 +1.600,25.5,3.90
  23741126.250
  21346073.750
  21643681.750
  21414785.250
  21024556.250
 23  3  6 22  0 21.0000000  0 05G11G14G17G19G24 +1.200,26.0,3.90
  23742405.750
  22631276.250
  21996032.250
  21053479.250
  23806329.250
 23  3  6 22 30 14.0000000  0 06G03G06G11G12G17G19 +1.200,25.0,3.90
  18447873.750
  20735618.750
  22732424.250
  18451737.250
  22453272.250
  21053698.750
 23  3  6 23  0  7.0000000  0 06G06G11G12G17G19G24 1.40,23.0,3.90
  18989789.750
  20106636.750
  21494319.250
  21149997.750
  19384272.750
  22651579.750
 23  3  6 23 30 12.0000000  0 05G06G11G17G19G20 +1.600,23.0,3.90
  21024918.750
  21238194.750
  23439942.250
  21394033.750
  22892767.250
 23  3  7  0  0 11.0000000  0 07G06G09G11G12G19G20G25 +1.600,21.0,3.90
  20739599.250
  18459488.250
  20110477.750
  20744390.750
  21059115.250
  21024614.250
  22504712.750
 23  3  7  0 30  7.0000000  0 07G05G06G11G12G19G20G25 1.53,20.5,3.90
  22289515.250
  21516059.250
  20153171.750
  20573173.250
  21835733.750
  20345981.750
  21792548.250
 23  3  7  1  0  5.0000000  0 07G02G05G06G11G12G19G20 1.46,19.0,3.90
  18329956.250
  21765882.250
  22881046.250
  20911457.750
  21334868.750
  23301297.250
  20499250.250
 23  3  7  1 30  5.0000000  0 07G02G05G11G12G20G25G29 1.38,19.5,3.90
  23895833.250
  21193331.750
  21519529.750
  22178061.750
  20680635.250
  22193125.750
  23540621.750
 23  3  7  2  0  5.0000000  0 07G02G05G11G13G20G25G29 1.31,18.0,3.90
  23473378.750
  20890184.250
  22196179.250
  18623669.750
  21120480.750
  22770142.250
  22735395.750
 23  3  7  2 30 11.0000000  0 07G05G06G11G12G15G20G29 +1.240,17.0,3.90
  20132330.250
  25268957.750
  22175738.750
  23753229.750
  23636847.250
  21018337.250
  21282231.750
 23  3  7  3  0  6.0000000  0 06G02G05G11G13G25G29 1.33,17.0,3.90
  22325767.750
  20833020.750
  23378885.250
  22405170.250
  18298619.750
  21223108.250
 23  3  7  3 30  8.0000000  0 08G02G05G11G13G15G18G20G29 1.42,17.0,3.90
  21885255.750
  21264526.750
  18142577.750
  21676705.250
  21742682.750
  23632118.250
  23030866.750
  20968395.250
 23  3  7  4  0  6.0000000  0 06G02G05G13G15G18G29 1.51,17.0,3.90
  21531349.250
  21867357.250
  21307084.250
  20872847.750
  22688947.750
  21086617.250
 23  3  7  4 30 11.0000000  0 04G02G13G15G18 +1.600,17.0,3.90
  21975080.250
  22011379.250
  21024609.250
  22455459.750
 23  3  7  5  0 11.0000000  0 06G02G05G13G15G18G29 +1.600,15.5,3.90
  19920988.750
  21988740.750
  20424371.750
  18897203.750
  19653726.250
  21025219.750
 23  3  7  5 30 10.0000000  0 07G02G13G15G18G23G24G29 1.60,14.5,3.90
  20688304.250
  21748736.250
  19748167.750
  19638299.250
  20568507.750
  22177888.250
  22612288.250
 23  3  7  6  0 11.0000000  0 07G02G10G13G15G18G23G27 +1.600,13.5,3.90
  22834447.750
  23761804.250
  18422550.250
  22046022.250
  21024671.750
  21730119.750
  18411604.250
 23  3  7  6 30 11.0000000  0 07G10G15G18G23G24G27G32 +1.600,13.0,3.90
  22612478.250
  22568627.250
  20748288.750
  21024419.250
  21744547.750
  23716184.250
  23882056.750
 23  3  7  7  0 11.0000000  0 05G10G18G23G27G32 +1.600,13.5,3.90
  19143785.750
  18446812.750
  18084658.750
  21024837.750
  20121916.750
 23  3  7  7 30 17.0000000  0 06G10G18G23G24G27G32 +1.000,13.0,3.90
  21120813.750
  21837001.750
  20678404.250
  21434023.250
  18038387.250
  21909091.250
 23  3  7  8  0 15.0000000  0 05G10G18G22G24G32 +1.600,12.5,3.90
  20419883.750
  22672867.250
  22556725.750
  21785627.750
  21095891.750
 23  3  7  8 30 14.0000000  0 06G10G12G18G22G31G32 +1.800,12.0,3.90
  19384367.250
  23466552.250
  23150299.750
  21081009.750
  22661158.750
  19966603.250
 23  3  7  9  0 11.0000000  0 05G10G12G22G23G32 +1.800,12.5,3.90
  19850304.750
  23354534.750
  21027704.750
  21549899.750
  20282447.250
 23  3  7  9 30  6.0000000  0 07G10G22G23G25G28G31G32 1.80,11.5,3.90
  23298325.250
  23817498.750
  19655271.250
  19174454.250
  23393277.750
  23944337.250
  23456324.750
 23  3  7 10  0 11.0000000  0 06G01G10G21G28G31G32 +1.800,12.0,3.90
  23454611.750
  21761269.250
  23802052.750
  20789900.750
  21027394.750
  21480534.750
 23  3  7 10 30 10.0000000  0 08G01G10G21G22G25G28G31G32 1.65,11.0,3.90
  20949042.750
  20241145.750
  21692111.750
  18907611.250
  20314803.250
  18257844.250
  18192552.250
  19369606.750
 23  3  7 11  0  8.0000000  0 06G10G22G26G28G31G32 1.50,10.5,3.90
  20490471.250
  18022917.750
  19576616.750
  23570705.250
  23248257.750
  18930196.750
 23  3  7 11 30  7.0000000  0 06G03G22G26G28G31G32 1.35,10.5,3.90
  23405768.750
  21936784.250
  22348372.250
  21826079.750
  21313618.750
  23310680.750
 23  3  7 12  0 12.0000000  0 05G03G16G26G28G31 +1.200,11.0,3.90
  21894485.750
  23422625.250
  20799646.750
  21666741.250
  21034808.250
 23  3  7 12 30 11.0000000  0 07G16G22G26G28G29G31G32 1.20,10.5,3.90
  23427535.750
  23070262.250
  21676241.250
  23680907.250
  20561807.250
  22990022.750
  19375799.750
 23  3  7 13  0 12.0000000  0 06G03G04G16G22G26G28 +1.200,10.0,3.90
  20282325.250
  21033705.250
  19835109.250
  21102594.250
  19126422.750
  21935427.750
 23  3  7 13 30 11.0000000  0 05G03G04G16G26G31 +1.800,11.0,3.90
  22604808.250
  22044500.250
  21026572.750
  21399074.250
  23967338.750
 23  3  7 14  0 13.0000000  0 06G03G04G16G26G27G31 +1.400,10.5,3.90
  22330298.750
  20316190.750
  19699727.250
  21056916.250
  22495368.750
  23812320.750
 23  3  7 14 30 17.0000000  0 06G03G04G09G16G26G27 +1.600,10.5,3.90
  18508575.250
  21095054.750
  22733855.750
  21018078.750
  23161993.250
  22647527.750
 23  3  7 15  0 10.0000000  0 06G04G07G08G09G16G27 1.80,12.5,3.90
  18934560.750
  21912750.250
  20849245.250
  19854572.750
  19405445.750
  19810546.250
 23  3  7 15 30 14.0000000  0 04G04G08G09G27 +2.000,13.5,3.90
  20869122.750
  21464132.750
  21010045.750
  21084358.250
 23  3  7 16  0 17.0000000  0 04G04G07G09G27 +1.800,14.5,3.90
  21742276.750
  22106105.250
  21136086.250
  21386342.250
 23  3  7 16 30 17.0000000  0 04G07G08G09G27 +1.400,15.5,3.90
  21803914.750
  21127992.750
  21876569.750
  22322397.250
 23  3  7 17  0 15.0000000  0 05G07G08G09G21G27 +1.200,19.5,3.90
  21087103.750
  21128769.750
  22412782.750
  23506954.750
  23036525.250
 23  3  7 17 30 12.0000000  0 07G01G07G08G09G14G21G30 1.50,19.5,3.90
  19936559.750
  22433349.250
  23347156.250
  19058073.250
  18906887.750
  18410654.750
  23859400.250
 23  3  7 18  0 11.0000000  0 04G01G07G08G30 +1.800,18.0,3.90
  23386395.750
  21026394.250
  22809100.750
  21737855.750
 23  3  7 18 30 11.0000000  0 06G01G07G13G14G21G30 +1.320,17.0,3.90
  22104542.250
  21018277.250
  23761252.750
  21830255.750
  22164073.250
  20945068.750
 23  3  7 19  0 11.0000000  0 05G01G07G14G21G30 +1.800,16.5,3.90
  20837314.250
  21026801.250
  20668373.250
  21842419.750
  20171617.250
 23  3  7 19 30  5.0000000  0 06G01G07G14G17G19G30 1.80,18.0,3.90
  21783571.750
  23105200.750
  21425023.750
  21675731.750
  23847606.750
  21556999.250
 23  3  7 20  0 15.0000000  0 06G01G07G14G17G19G30 +1.800,19.0,3.90
  18815262.750
  21026774.250
  23967937.250
  18156262.250
  19668863.250
  19235722.250
 23  3  7 20 30 10.0000000  0 06G06G14G17G19G21G30 1.60,15.5,3.90
  19320463.250
  23003489.750
  23127605.250
  23950521.250
  21502686.750
  18887345.750
 23  3  7 21  0 40.0000000  0 05G01G06G17G24G30 1.40,15.0,3.90
  20536524.250
  22430441.250
  21523568.750
  18605587.250
  18306373.750
 23  3  7 21 30 15.0000000  0 06G03G06G11G14G17G19 +1.200,17.0,3.90
  23547648.250
  21068689.250
  18384792.250
  21560697.750
  21284470.750
  20813173.750
 23  3  7 22  0 12.0000000  0 06G03G06G11G14G17G19 +1.200,16.5,3.90
  24148979.750
  21033014.750
  23716118.750
  22867486.750
  22166159.750
  21159232.250
 23  3  7 22 30 13.0000000  0 04G03G06G14G19 +1.200,16.5,3.90
  18857711.750
  21051437.250
  18112501.250
  21388772.750
 23  3  7 23  0 22.0000000  0 02G06G11 +1.200,15.0,3.90
  20117385.250
  21104173.250
 23  3  7 23 30 11.0000000  0 06G06G11G12G17G19G20 +1.800,14.5,3.90
  21026339.750
  21120582.250
  22057069.250
  23462691.250
  21388802.250
  22678762.250
 23  3  8  0  0 10.0000000  0 07G05G11G12G17G19G20G25 1.78,13.5,3.90
  22395044.750
  19174994.250
  19768022.250
  22484163.750
  20227066.250
  19988651.250
  21464425.750
 23  3  8  0 30  8.0000000  0 06G05G06G11G12G20G25 1.76,12.0,3.90
  18779744.250
  18277966.250
  22818943.750
  23225076.250
  22920822.750
  18370196.750
 23  3  8  1  0  5.0000000  0 07G02G05G06G11G12G20G25 1.75,11.5,3.90
  18672816.750
  22074136.250
  23435539.250
  21391301.250
  21833825.250
  20909961.250
  22363977.750
 23  3  8  1 30  8.0000000  0 06G05G11G12G20G25G29 1.73,12.0,3.90
  21201697.750
  21677587.250
  22385562.250
  20795019.250
  22323000.750
  23491442.250
 23  3  8  2  0  7.0000000  0 07G02G05G11G12G13G20G29 1.71,13.0,3.90
  22023481.250
  19478904.250
  20900606.750
  22043609.750
  23089390.250
  19805178.250
  21235033.750
 23  3  8  2 30 27.0000000  0 01G02 1.69,13.5,3.90
  21254801.750
 23  3  8  3  0  5.0000000  0 07G02G05G13G15G20G25G29 1.67,12.0,3.90
  23154277.250
  21771693.250
  23180718.250
  23605062.750
  23227005.750
  19321414.750
  22058480.750
 23  3  8  3 30  9.0000000  0 07G02G13G15G18G20G23G29 1.65,14.5,3.90
  23196758.250
  22969258.750
  22971686.750
  18873156.750
  18511420.750
  19921001.250
  22327805.750
 23  3  8  4  0  6.0000000  0 06G02G05G15G18G23G29 1.64,15.5,3.90
  21058884.250
  21527880.250
  20347245.250
  22130407.250
  23129203.250
  20699957.250
 23  3  8  4 30 20.0000000  0 07G02G05G13G15G18G23G29 1.62,13.0,3.90
  20182422.250
  21576288.250
  20274572.750
  19209487.750
  20562031.250
  21563717.250
  20565717.750
 23  3  8  5  0 14.0000000  0 07G02G13G15G18G23G27G29 +1.600,14.5,3.90
  22096416.750
  22674258.750
  21076660.750
  21722966.250
  22720578.250
  19951747.750
  23321167.750
 23  3  8  5 30  9.0000000  0 08G02G10G15G18G23G24G27G29 1.50,12.5,3.90
  19388660.750
  21494205.750
  18466950.750
  18233305.750
  19142282.250
  20676390.250
  21997749.250
  21418435.750
 23  3  8  6  0 11.0000000  0 06G02G10G18G23G24G27 +1.400,12.5,3.90
  20289051.250
  21017834.250
  18382209.250
  19041052.250
  20064642.250
  21706063.250
 23  3  8  6 30  5.0000000  0 06G02G10G15G23G24G27 1.53,13.0,3.90
  23813828.250
  22989069.250
  23173863.750
  21465882.750
  22155834.750
  18182201.750
 23  3  8  7  0  7.0000000  0 07G10G15G18G23G24G27G32 1.67,13.0,3.90
  21331729.250
  23256796.750
  20811187.250
  20349923.250
  20959404.750
  23338215.750
  22280415.250
 23  3  8  7 30 11.0000000  0 05G08G10G23G27G32 +1.800,13.0,3.90
  19099858.250
  21379252.250
  21025046.250
  18446738.250
  22150528.750
 23  3  8  8  0  6.0000000  0 06G10G18G22G23G28G32 1.80,12.5,3.90
  23668012.750
  20128421.750
  19750806.250
  18012740.250
  20760703.250
  18337510.250
 23  3  8  8 30 11.0000000  0 04G10G12G23G32 +1.800,12.0,3.90
  19948422.750
  23952843.250
  21025185.250
  20516276.250
 23  3  8  9  0  9.0000000  0 06G10G21G22G23G31G32 1.70,12.0,3.90
  19337900.750
  22503279.250
  20433654.250
  21132507.750
  21180288.250
  19741921.750
 23  3  8  9 30  5.0000000  0 07G10G12G23G25G28G31G32 1.60,11.5,3.90
  18963559.250
  21858017.250
  21398093.750
  20701730.250
  18911514.250
  19437690.250
  19072135.750
 23  3  8 10  0  5.0000000  0 07G10G12G22G23G25G28G32 1.50,12.0,3.90
  22258169.250
  18707156.250
  21810524.750
  19202839.250
  23049319.250
  21148260.250
  21906739.250
 23  3  8 10 30  5.0000000  0 07G01G10G22G25G28G31G32 1.40,12.0,3.90
  22300467.750
  21713054.250
  20232931.750
  21685495.750
  19599728.750
  19501463.750
  20752813.750
 23  3  8 11  0  5.0000000  0 06G10G22G26G28G31G32 1.30,11.5,3.90
  21881596.750
  19256524.750
  20650058.750
  18847884.750
  18493822.250
  20224563.250
 23  3  8 11 30 15.0000000  0 04G22G26G31G32 +1.200,11.5,3.90
  19667362.250
  19925958.250
  19068419.250
  21106029.250
 23  3  8 12  0  9.0000000  0 06G03G22G26G28G31G32 1.60,10.5,3.90
  21688888.250
  21305386.250
  20589180.250
  21627983.750
  20971989.750
  23214189.750
 23  3  8 12 30 10.0000000  0 04G16G22G26G28 +2.000,11.0,3.90
  22640593.250
  22515273.750
  21027510.750
  23163250.250
 23  3  8 13  0 17.0000000  0 05G03G04G16G22G26 +1.200,11.0,3.90
  21744020.750
  22328763.750
  21137256.750
  22625814.250
  20583033.250
 23  3  8 13 30 14.0000000  0 04G16G22G27G31 +1.200,12.5,3.90
  21084791.750
  18018307.750
  18690298.750
  18195239.250
 23  3  8 14  0 10.0000000  0 04G04G16G26G27 +2.000,12.5,3.90
  21576632.750
  21027261.750
  22504608.750
  23677187.750
 23  3  8 14 30 11.0000000  0 07G04G07G09G16G26G27G31 +2.000,11.5,3.90
  19562713.250
  23226810.750
  21110283.250
  19563093.750
  21793395.750
  21026799.250
  18503450.750
 23  3  8 15  0 11.0000000  0 05G04G08G09G16G27 +2.000,11.0,3.90
  20483861.250
  22225659.250
  21298314.750
  21027480.250
  21267423.750
 23  3  8 15 30 11.0000000  0 06G04G07G08G09G16G27 +1.520,12.0,3.90
  20884898.750
  22535197.750
  21298203.250
  20921911.250
  21846162.750
  21018254.750
 23  3  8 16  0  7.0000000  0 06G04G07G08G09G16G27 1.68,13.0,3.90
  19975502.750
  20128079.750
  19051657.750
  19279466.250
  21157262.250
  19555862.750
 23  3  8 16 30 10.0000000  0 06G04G07G08G09G16G27 1.84,14.0,3.90
  21658457.250
  20119380.750
  19526474.750
  20350718.250
  22855094.750
  20822454.250
 23  3  8 17  0 11.0000000  0 04G07G08G09G27 +2.000,15.0,3.90
  20872723.250
  21027085.750
  22375266.250
  23020851.250
 23  3  8 17 30 11.0000000  0 06G07G08G09G21G27G30 +2.000,15.0,3.90
  19693223.750
  20729299.750
  22482959.750
  21605212.250
  23264163.250
  21026367.750
 23  3  8 18  0  6.0000000  0 06G01G07G08G13G21G30 2.00,15.0,3.90
  19617425.250
  23418910.250
  19312035.750
  20986156.750
  18903569.250
  18030284.250
 23  3  8 18 30 15.0000000  0 04G01G14G17G21 +2.000,15.5,3.90
  21026507.250
  20781048.250
  21391164.750
  21216498.750
 23  3  8 19  0 13.0000000  0 05G01G07G14G21G30 +2.000,15.5,3.90
  19931927.750
  20291519.750
  19753866.750
  21063968.250
  19330810.750
 23  3  8 19 30 12.0000000  0 06G13G14G17G19G21G30 +2.000,15.0,3.90
  23807668.250
  21026316.250
  21265761.250
  23346463.750
  23416017.250
  21265761.750
 23  3  8 20  0 18.0000000  0 07G01G07G14G17G19G21G30 +2.000,16.5,3.90
  22082951.750
  18400485.250
  21153603.250
  21331380.250
  22746755.250
  18709152.250
  22243140.250
 23  3  8 20 30 16.0000000  0 04G01G14G17G19 +2.000,14.5,3.90
  22753081.750
  21118031.250
  21229447.250
  21954020.250
 23  3  8 21  0 11.0000000  0 06G01G06G14G17G19G30 +2.000,14.0,3.90
  23415147.750
  21749546.750
  21026757.750
  20989679.250
  21047976.750
  23890375.250
 23  3  8 21 30 10.0000000  0 06G03G06G14G17G19G24 +2.000,13.5,3.90
  23782579.750
  21221249.250
  21899952.250
  21574568.750
  21026395.250
  23775471.250
 23  3  8 22  0 21.0000000  0 04G06G14G17G19 +1.400,13.0,3.90
  19054906.250
  21071987.250
  20296427.250
  19221833.250
 23  3  8 22 30 11.0000000  0 06G06G11G12G14G17G19 1.70,12.0,3.90
  22005983.750
  23773754.750
  19408929.250
  19221295.750
  23864057.250
  22359691.250
 23  3  8 23  0 11.0000000  0 05G11G12G17G19G20 +2.000,11.0,3.90
  19749344.750
  21025840.750
  21121741.750
  19275822.750
  21892004.250
 23  3  8 23 30  9.0000000  0 06G06G11G12G17G19G20 1.73,12.0,3.90
  19043716.750
  19020707.750
  19903261.250
  21499584.750
  19399495.750
  20481765.250
 23  3  9  0  0  8.0000000  0 06G06G11G12G19G20G25 1.47,12.5,3.90
  22795367.750
  21953929.250
  22509302.250
  23108652.750
  22668170.250
  18143592.750
 23  3  9  0 30 14.0000000  0 07G05G11G12G19G20G25G29 +1.200,13.0,3.90
  22826969.250
  21053070.250
  21449829.250
  22936933.750
  21064965.750
  22509238.750
  19431807.250
 23  3  9  1  0  9.0000000  0 08G02G05G09G11G12G20G25G29 1.47,15.0,3.90
  23535396.750
  20909846.750
  23973404.750
  20398399.750
  20865373.250
  19850506.250
  21311335.750
  23456351.250
 23  3  9  1 30  8.0000000  0 07G02G05G11G12G20G25G29 1.73,15.5,3.90
  23582141.250
  20881495.750
  21500669.250
  22261364.750
  20578595.750
  22123378.250
  23109181.250
 23  3  9  2  0 11.0000000  0 05G02G05G11G12G29 +2.000,14.5,3.90
  23525242.750
  21025657.750
  22558841.750
  23772397.250
  22688142.250
 23  3  9  2 30  7.0000000  0 06G02G05G11G13G20G29 2.00,13.5,3.90
  21065354.250
  19055965.250
  21253847.250
  21485815.750
  20091558.750
  19994798.750
 23  3  9  3  0  6.0000000  0 06G02G05G15G18G20G29 2.00,13.5,3.90
  19573613.250
  18305491.750
  19923510.750
  21700783.250
  19813130.250
  18490218.750
 23  3  9  3 30  6.0000000  0 07G02G05G13G15G18G20G29 2.00,14.0,3.90
  18276312.250
  23911119.250
  18035002.250
  23969075.250
  19873864.250
  19747688.750
  23455978.250
 23  3  9  4  0  6.0000000  0 07G02G05G13G15G18G23G29 2.00,12.5,3.90
  21319365.250
  21920684.250
  21140401.750
  20558644.750
  22303488.750
  23298309.750
  21050820.750
 23  3  9  4 30  7.0000000  0 06G02G13G15G18G23G29 2.00,14.0,3.90
  21530522.750
  21677256.250
  20540722.750
  21817101.250
  22818231.250
  22022039.750
 23  3  9  5  0 11.0000000  0 05G02G15G18G23G29 +2.000,12.0,3.90
  21025487.750
  20012526.750
  20547974.250
  21538866.750
  22367470.250
 23  3  9  5 30 10.0000000  0 08G02G10G13G15G18G23G24G29 2.00,12.5,3.90
  19433282.250
  21363227.250
  20645002.750
  18531441.750
  18172512.250
  19057266.750
  20515992.250
  21566526.250
 23  3  9  6  0  6.0000000  0 07G02G10G15G18G23G24G27 2.00,12.5,3.90
  18539016.250
  19070146.250
  23787031.250
  22534927.750
  23144583.750
  18115556.750
  19806082.250
 23  3  9  6 30 11.0000000  0 05G10G18G23G24G27 +2.000,13.0,3.90
  21024754.750
  19450373.250
  19571499.250
  20234077.750
  22309785.250
 23  3  9  7  0  9.0000000  0 07G08G10G18G23G24G27G32 1.80,12.5,3.90
  23408895.750
  20149236.250
  19813685.250
  19248408.750
  19868579.250
  22288989.750
  21069178.250
 23  3  9  7 30  8.0000000  0 06G10G18G23G24G27G32 1.60,13.0,3.90
  19108404.250
  20228877.250
  18844435.250
  19681414.250
  22324558.250
  19863529.250
 23  3  9  8  0 13.0000000  0 05G10G12G18G22G23 +1.400,12.5,3.90
  21049884.250
  19543840.250
  23722046.250
  23065998.750
  21492499.250
 23  3  9  8 30 11.0000000  0 06G10G21G22G23G28G32 +2.200,11.5,3.90
  21028293.250
  18722849.750
  22589914.750
  22206165.250
  22967751.250
  21580052.750
 23  3  9  9  0 10.0000000  0 08G01G10G21G22G23G28G31G32 2.13,11.5,3.90
  23545783.750
  19915862.250
  22996518.250
  20926145.250
  21805355.750
  20791127.750
  21592721.750
  20288726.250
 23  3  9  9 30  6.0000000  0 07G10G21G22G23G28G31G32 2.07,13.0,3.90
  18654459.750
  21130607.750
  18960926.750
  21168749.250
  18454824.750
  18954010.750
  18710094.750
 23  3  9 10  0 11.0000000  0 06G10G21G22G28G31G32 +2.000,14.0,3.90
  22105850.250
  17988068.750
  21522592.250
  20851320.750
  21024143.750
  21677146.750
 23  3  9 10 30  9.0000000  0 07G01G21G25G26G28G31G32 1.82,12.5,3.90
  23305878.750
  18135254.750
  22710831.250
  23622129.750
  20593484.750
  20460057.750
  21785934.250
 23  3  9 11  0 13.0000000  0 07G01G21G22G26G28G31G32 +1.640,12.5,3.90
  23501736.250
  18518703.250
  21018295.750
  22245314.250
  20653308.250
  20265947.750
  22050049.250
 23  3  9 11 30 11.0000000  0 07G03G21G22G26G28G31G32 +2.000,12.5,3.90
  20711394.250
  23586895.250
  19524337.750
  19639166.250
  19518010.750
  18948744.250
  21024647.250
 23  3  9 12  0  9.0000000  0 08G03G04G16G22G26G28G31G32 1.90,12.5,3.90
  23412457.250
  19692992.250
  18712997.750
  23143829.750
  22307653.250
  23515432.250
  22835188.250
  19117098.250
 23  3  9 12 30 12.0000000  0 06G04G16G22G26G29G31 +1.800,13.0,3.90
  21037651.250
  19849720.750
  19956945.750
  18378908.750
  23256696.750
  19906682.750
 23  3  9 13  0 18.0000000  0 07G03G04G09G16G22G26G29 +2.000,13.0,3.90
  20626376.250
  21041249.250
  23972479.250
  19861428.250
  21564652.250
  19459921.750
  18283773.750
 23  3  9 13 30 24.0000000  0 07G03G04G09G16G22G26G28 2.07,12.5,3.90
  20075211.750
  19116524.750
  21700213.750
  18187557.250
  21307178.250
  18854531.750
  22198049.250
 23  3  9 14  0 10.0000000  0 07G03G04G09G16G26G27G31 2.13,12.5,3.90
  20787453.250
  18383072.750
  20474708.750
  23899856.750
  19498238.750
  20401510.250
  22219113.750
 23  3  9 14 30 11.0000000  0 05G04G07G26G27G31 +2.200,13.0,3.90
  19654819.750
  23225763.250
  22048375.250
  21026881.750
  18719684.750
 23  3  9 15  0  7.0000000  0 06G04G07G08G09G16G27 2.20,14.5,3.90
  21723391.750
  18427493.250
  23293179.250
  22434622.750
  22336188.750
  22416963.250
 23  3  9 15 30 14.0000000  0 05G07G08G09G16G27 +2.200,14.5,3.90
  22553789.250
  21321375.250
  21027159.750
  22105267.750
  21146454.250
 23  3  9 16  0  9.0000000  0 06G04G07G08G09G16G27 1.94,15.0,3.90
  20402840.750
  20330709.250
  19303182.750
  19315275.750
  21604518.750
  19918789.750
 23  3  9 16 30 11.0000000  0 07G04G07G08G09G16G27G30 +1.680,15.0,3.90
  22793334.750
  21018045.750
  20514969.750
  21416446.750
  17988786.750
  21914337.750
  23399347.250
 23  3  9 17  0 22.0000000  0 05G07G08G09G21G30 +2.000,16.0,3.90
  19521323.250
  19797107.750
  21211009.750
  21819188.250
  21391232.250
 23  3  9 17 30 13.0000000  0 06G04G07G08G21G27G30 +2.400,17.0,3.90
  18874605.750
  19909621.750
  21068539.750
  21759214.750
  23664503.250
  21147218.750
 23  3  9 18  0 12.0000000  0 07G01G07G08G14G17G21G30 +2.200,17.0,3.90
  21047956.250
  19030513.750
  21027673.750
  20549779.750
  21466080.750
  20452231.750
  19527909.750
 23  3  9 18 30  6.0000000  0 06G01G07G13G14G21G30 2.20,16.5,3.90
  18552361.250
  23816303.750
  20306944.750
  18331810.750
  18866756.250
  23523716.250
 23  3  9 19  0  6.0000000  0 06G07G08G13G17G19G21 2.20,16.0,3.90
  19565981.750
  22591340.250
  21159098.250
  19201999.750
  21786306.750
  20298480.750
 23  3  9 19 30  6.0000000  0 06G07G14G17G19G21G30 2.20,17.0,3.90
  20492941.250
  18430527.750
  18660372.250
  20653321.250
  20973126.750
  18774290.750
 23  3  9 20  0 11.0000000  0 05G01G14G17G19G30 +2.200,17.0,3.90
  22042392.750
  21027089.250
  21198696.250
  22520269.750
  22238155.750
 23  3  9 20 30 11.0000000  0 04G01G14G19G30 +2.200,17.5,3.90
  22764176.250
  21027185.750
  21756332.750
  23158894.750
 23  3  9 21  0 11.0000000  0 06G01G06G14G17G19G30 2.10,16.0,3.90
  20233312.750
  18274547.750
  23741477.250
  23673645.250
  23644335.750
  20714548.250
 23  3  9 21 30 12.0000000  0 05G03G06G11G17G19 +2.000,15.0,3.90
  23199026.250
  20552084.250
  23719997.750
  21042019.750
  20416755.750
 23  3  9 22  0 13.0000000  0 06G03G06G11G14G17G19 +1.800,13.0,3.90
  22999926.250
  19700598.250
  22184504.750
  21885771.750
  21038308.750
  19902370.250
 23  3  9 22 30 15.0000000  0 07G03G06G11G14G17G19G20 +2.400,12.0,3.90
  23100650.250
  19108041.750
  20755906.750
  22474397.250
  21030990.250
  19475604.250
  23354789.250
 23  3  9 23  0 13.0000000  0 06G06G11G12G17G19G20 +1.600,13.0,3.90
  20658473.750
  21404290.750
  22623837.750
  22935811.750
  21052467.250
  23462937.750
 23  3  9 23 30 13.0000000  0 06G06G11G12G17G19G20 +1.600,13.0,3.90
  21052854.750
  20911054.750
  21739652.250
  23527511.750
  21402087.250
  22271706.750
 23  3 10  0  0 19.0000000  0 06G06G09G11G12G17G19 +1.400,13.5,3.90
  21477934.250
  18699312.750
  20528301.250
  21047816.750
  18079939.750
  21790301.750
 23  3 10  0 30 11.0000000  0 06G05G11G12G19G20G25 +2.200,13.0,3.90
  21025961.250
  19428420.750
  19820779.250
  21411056.750
  19356002.250
  20799928.250
 23  3 10  1  0 11.0000000  0 04G02G05G11G12 +2.200,12.0,3.90
  23677972.250
  21025983.750
  20681683.750
  21177742.250
 23  3 10  1 30 12.0000000  0 06G02G05G11G12G25G29 +2.400,11.5,3.90
  22162156.750
  19470988.250
  20231330.750
  21049256.250
  20835871.750
  21630245.750
 23  3 10  2  0 11.0000000  0 05G02G05G11G20G25 +2.200,10.5,3.90
  22965074.750
  20515634.250
  22153187.250
  21026615.750
  22754809.250
 23  3 10  2 30 11.0000000  0 05G02G05G11G20G29 +2.200,10.5,3.90
  21838226.750
  19919004.250
  22189287.250
  21026565.750
  20748460.750
 23  3 10  3  0  6.0000000  0 07G02G05G11G15G18G20G29 1.90,10.0,3.90
  18114218.750
  22959450.250
  19653721.250
  18366630.250
  20175044.750
  18520197.250
  23044869.750
 23  3 10  3 30 15.0000000  0 06G02G05G15G18G20G29 +1.600,11.5,3.90
  21412800.250
  21188748.750
  21032431.250
  22930159.250
  23051570.250
  20658270.750
 23  3 10  4  0 11.0000000  0 05G02G05G13G18G20 +2.200,11.0,3.90
  21025697.250
  21761072.250
  20877726.750
  21918663.250
  23806157.750
 23  3 10  4 30  6.0000000  0 06G02G05G13G15G18G29 2.07,12.0,3.90
  23911389.750
  19536801.250
  18122843.250
  22907745.250
  18102787.250
  18523168.750
 23  3 10  5  0  7.0000000  0 07G02G05G13G15G18G24G29 1.93,13.0,3.90
  22622532.750
  18971151.750
  23349500.750
  21618668.250
  22041001.750
  18975273.750
  18084867.250
 23  3 10  5 30 12.0000000  0 07G02G10G13G15G18G23G29 +1.800,13.0,3.90
  22402067.250
  18156130.250
  23688216.750
  21520804.750
  21036112.250
  21893499.250
  18640243.750
 23  3 10  6  0 11.0000000  0 05G10G18G23G24G27 +2.200,13.5,3.90
  23441873.250
  21025482.250
  21579814.750
  22491156.250
  18237963.750
 23  3 10  6 30  9.0000000  0 07G02G10G15G18G23G24G27 2.20,13.5,3.90
  22702497.250
  21425709.250
  22085828.250
  20002841.750
  20041669.250
  20682995.750
  22809332.250
 23  3 10  7  0 12.0000000  0 06G10G15G18G22G24G32 +2.200,11.5,3.90
  21170644.250
  23568169.250
  21025697.750
  23971896.750
  20988905.250
  22063900.250
 23  3 10  7 30 12.0000000  0 07G10G18G22G23G24G27G32 +2.200,11.0,3.90
  21213139.750
  22546090.250
  23588718.750
  21043705.750
  21928111.250
  18593067.750
  21952943.250
 23  3 10  8  0 11.0000000  0 06G08G10G18G27G28G32 +2.200,10.5,3.90
  22775786.750
  18145504.250
  21025575.250
  22670400.750
  20962812.250
  18788214.250
 23  3 10  8 30  9.0000000  0 07G10G12G18G23G24G31G32 2.20,12.0,3.90
  18088636.750
  21935212.750
  22422821.750
  19366045.750
  21151147.750
  20926286.750
  18623073.750
 23  3 10  9  0 11.0000000  0 04G10G22G23G32 +2.200,9.5,3.90
  20685746.750
  21607951.750
  22668544.750
  21024710.250
 23  3 10  9 30  9.0000000  0 08G10G12G21G22G23G28G31G32 2.20,9.0,3.90
  18427079.250
  21189535.250
  20820137.750
  18621198.750
  21018959.250
  18079550.750
  18549713.750
  18426110.250
 23  3 10 10  0 11.0000000  0 05G10G12G22G28G32 +2.200,10.0,3.90
  22418276.250
  18763581.750
  21699934.250
  21024251.250
  21911409.250
 23  3 10 10 30 12.0000000  0 06G01G10G21G22G28G32 +1.600,9.5,3.90
  23169720.750
  22820254.250
  18035884.250
  21031471.750
  20443652.750
  21671718.250
 23  3 10 11  0 11.0000000  0 06G01G03G22G28G31G32 +1.840,9.5,3.90
  18314682.250
  23862284.750
  21758834.250
  21437878.750
  21018293.250
  22851819.250
 23  3 10 11 30 11.0000000  0 06G03G22G26G28G31G32 +1.880,10.0,3.90
  22096928.250
  21045316.750
  21017946.750
  21091182.750
  20493714.250
  22607960.250
 23  3 10 12  0 17.0000000  0 06G03G16G22G26G31G32 2.14,10.0,3.90
  20008062.750
  21177839.750
  19854128.750
  18898563.750
  19569874.250
  21884967.250
 23  3 10 12 30 11.0000000  0 06G03G04G22G26G28G31 +2.400,9.5,3.90
  19630046.250
  21027007.750
  20158144.750
  18494617.250
  20873597.750
  20118552.750
 23  3 10 13  0 13.0000000  0 06G03G04G16G22G26G31 +1.800,9.0,3.90
  20806598.750
  21051302.750
  19888238.250
  21796764.750
  19634642.750
  21905014.250
 23  3 10 13 30 13.0000000  0 04G04G16G22G26 +2.200,8.5,3.90
  21141388.750
  20260563.250
  23550627.750
  21060782.250
 23  3 10 14  0 17.0000000  0 07G03G04G09G16G22G27G31 +1.600,9.5,3.90
  23651844.250
  21048227.750
  23057291.250
  20644524.250
  19063849.250
  22981034.250
  19056560.750
 23  3 10 14 30 12.0000000  0 07G04G07G08G16G26G27G31 +2.400,10.5,3.90
  21026704.250
  18505741.250
  23645398.750
  21186259.250
  23578512.250
  22306289.250
  20209804.750
 23  3 10 15  0  7.0000000  0 06G04G07G08G09G16G27 2.50,11.0,3.90
  21203394.250
  23757803.750
  22595855.750
  21808424.250
  21883927.750
  21806230.750
 23  3 10 15 30 16.0000000  0 05G04G07G08G09G27 +2.600,13.0,3.90
  19830075.750
  21095380.250
  19869413.250
  19657240.250
  19800553.250
 23  3 10 16  0 15.0000000  0 05G04G07G08G16G27 +2.200,14.0,3.90
  21357948.250
  21058070.250
  20082197.750
  22575061.750
  20810678.250
 23  3 10 16 30 17.0000000  0 07G07G08G09G14G16G27G30 +2.200,15.0,3.90
  21543269.750
  21132336.250
  22111330.250
  18768030.750
  18741651.250
  22634986.250
  23856009.250
 23  3 10 17  0 11.0000000  0 05G07G08G09G27G30 +2.400,15.0,3.90
  21026241.250
  21410926.750
  22883381.250
  23570137.250
  22815079.250
 23  3 10 17 30 11.0000000  0 05G07G08G09G21G30 +2.400,16.0,3.90
  21026236.750
  22301117.750
  18145551.250
  22811811.750
  22164077.250
 23  3 10 18  0  8.0000000  0 06G01G07G08G14G21G30 2.40,14.5,3.90
  18369852.250
  22521365.750
  18619883.750
  23914779.750
  23885590.250
  22909836.750
 23  3 10 18 30 11.0000000  0 06G01G07G08G14G17G30 +2.400,14.0,3.90
  21025983.750
  20477009.750
  23190359.750
  20825800.750
  21362486.750
  20070855.750
 23  3 10 19  0 11.0000000  0 04G07G17G21G30 +2.400,15.0,3.90
  22187575.750
  21617454.750
  22879441.750
  21026243.250
 23  3 10 19 30 12.0000000  0 04G01G07G14G17 +1.800,17.5,3.90
  21339129.750
  23068579.750
  20812526.750
  21033319.250
 23  3 10 20  0 30.0000000  0 06G01G13G14G19G21G30 +2.000,18.0,3.90
  22241918.250
  18804813.250
  21127832.250
  22509788.750
  19002271.250
  22475201.750
 23  3 10 20 30 12.0000000  0 06G01G03G06G17G19G30 +2.400,19.0,3.90
  22249194.250
  23752197.250
  22150169.250
  20489176.750
  21025794.250
  22663425.750
 23  3 10 21  0 11.0000000  0 04G06G14G17G19 +2.400,17.0,3.90
  21025446.750
  20690655.250
  20588788.250
  20473034.250
 23  3 10 21 30 25.0000000  0 05G03G06G11G14G24 +1.800,17.0,3.90
  22947921.750
  20211086.250
  23296310.750
  21275829.250
  22874270.250
 23  3 10 22  0 10.0000000  0 07G03G06G11G14G17G19G24 2.10,17.0,3.90
  23877246.750
  20486904.750
  22868296.750
  22840702.750
  21917622.750
  20721008.250
  23551012.750
 23  3 10 22 30 12.0000000  0 06G03G06G11G12G17G19 +2.400,16.5,3.90
  18737943.250
  20647739.750
  22178023.250
  23714786.250
  22629076.250
  21026253.750
 23  3 10 23  0 12.0000000  0 04G06G12G17G19 +1.800,13.0,3.90
  21033705.750
  22820661.750
  23343145.750
  21424711.250
 23  3 10 23 30 11.0000000  0 04G06G11G19G20 +2.400,13.0,3.90
  21282736.750
  21025886.250
  21625697.250
  22286980.250
 23  3 11  0  0 11.0000000  0 05G06G12G19G20G25 +2.400,11.0,3.90
  21584429.250
  21025666.250
  21897526.250
  21051535.750
  22514293.750
 23  3 11  0 30 12.0000000  0 05G05G06G11G12G25 +2.400,11.0,3.90
  22445196.250
  22743681.750
  21025846.250
  21418293.750
  22315318.750
 23  3 11  1  0 13.0000000  0 07G05G06G09G11G19G20G25 +1.960,11.0,3.90
  20389774.250
  22466537.250
  23749249.750
  20209255.750
  22996685.250
  19540096.750
  21018248.250
 23  3 11  1 30 10.0000000  0 07G05G06G11G12G20G25G29 2.01,10.0,3.90
  22759651.250
  20333027.250
  23652858.750
  18532960.250
  22661661.750
  18248275.250
  18852255.750
 23  3 11  2  0 10.0000000  0 08G02G05G11G12G13G15G20G25 2.06,10.5,3.90
  22618435.750
  20224275.250
  21960972.250
  23315802.750
  23443987.750
  18315213.250
  20822639.750
  22578325.750
 23  3 11  2 30  6.0000000  0 06G02G05G11G13G20G29 2.10,10.0,3.90
  18777412.250
  22945197.250
  19285083.750
  19059809.750
  18123112.250
  23669452.750
 23  3 11  3  0 10.0000000  0 06G02G05G13G15G18G29 2.15,10.5,3.90
  21866884.250
  20838772.250
  21757568.750
  22022034.250
  23858763.750
  20825908.250
 23  3 11  3 30 20.0000000  0 05G02G05G15G18G29 +2.200,10.0,3.90
  21874260.250
  21786419.250
  21421129.750
  23310849.750
  21186144.750
 23  3 11  4  0 11.0000000  0 07G02G13G15G18G20G23G29 +2.400,9.0,3.90
  21024677.750
  20912051.250
  20178361.250
  21826824.250
  23947244.250
  22816976.750
  20952471.750
 23  3 11  4 30  8.0000000  0 06G02G13G15G18G23G29 2.40,10.0,3.90
  20078131.250
  20350230.250
  19064244.250
  20163590.750
  21163471.750
  20804536.750
 23  3 11  5  0 12.0000000  0 05G02G10G15G18G23 +2.400,10.5,3.90
  22016517.250
  18842911.750
  21024671.250
  21326400.250
  22298671.250
 23  3 11  5 30  6.0000000  0 06G02G13G15G18G23G27 2.50,9.0,3.90
  22916739.750
  18278150.750
  22056294.750
  21449929.750
  22277636.250
  19033913.250
 23  3 11  6  0 10.0000000  0 06G02G10G15G18G23G24 +2.600,7.5,3.90
  21736930.750
  21850454.750
  21028216.250
  19551517.250
  20048044.250
  20909130.750
 23  3 11  6 30 11.0000000  0 07G02G10G18G23G24G27G32 +2.600,7.0,3.90
  23797361.250
  22290971.750
  21027910.750
  20979413.750
  21604037.750
  23780894.750
  23395021.250
 23  3 11  7  0 10.0000000  0 06G08G10G18G23G24G32 2.34,7.5,3.90
  19655430.750
  22267327.750
  22312117.250
  21532603.250
  22188781.250
  23135805.250
 23  3 11  7 30 11.0000000  0 07G08G10G18G22G23G24G27 +2.080,8.0,3.90
  19084503.250
  21093938.250
  22635532.750
  23409418.250
  21018279.250
  21952386.750
  18630599.750
 23  3 11  8  0 12.0000000  0 07G10G21G22G23G27G28G32 +2.000,8.5,3.90
  19141198.750
  23268149.750
  21033797.250
  19784097.750
  23817596.250
  21821332.250
  19772115.750
 23  3 11  8 30 11.0000000  0 06G10G18G22G23G28G32 +2.600,7.5,3.90
  19648511.250
  18170443.750
  21067462.750
  21027131.250
  21298424.750
  20163251.250
 23  3 11  9  0  7.0000000  0 06G01G10G21G22G31G32 2.38,6.0,3.90
  22372186.750
  19055286.750
  21969296.750
  19888178.250
  20399036.250
  19358290.750
 23  3 11  9 30 11.0000000  0 07G10G21G22G23G25G31G32 +2.160,7.0,3.90
  21078963.250
  23389156.250
  21157510.750
  23745328.750
  22414400.750
  21024012.750
  21018379.250
 23  3 11 10  0  6.0000000  0 07G01G10G21G22G28G31G32 2.31,6.0,3.90
  18287114.250
  23144064.250
  18867377.750
  22290727.250
  21614632.250
  21718901.250
  22558382.250
 23  3 11 10 30 10.0000000  0 07G01G10G22G25G26G28G31 2.45,7.0,3.90
  20127693.750
  19889694.750
  23943375.750
  19571708.750
  20035881.750
  23382803.250
  23178322.250
 23  3 11 11  0 12.0000000  0 05G03G22G26G31G32 +2.600,9.0,3.90
  21024469.250
  19071288.250
  19980543.750
  18344159.250
  20226673.750
 23  3 11 11 30  6.0000000  0 06G03G22G26G28G31G32 2.40,10.0,3.90
  19185279.750
  18264142.750
  18099881.250
  18361255.250
  23731640.250
  19887725.250
 23  3 11 12  0 11.0000000  0 07G03G04G22G26G28G31G32 +2.200,9.0,3.90
  20601995.750
  22712621.250
  20553147.250
  19488276.750
  21018460.750
  20289629.750
  22641343.250
 23  3 11 12 30 12.0000000  0 07G03G16G22G26G28G29G31 +2.600,8.5,3.90
  21025035.750
  21066694.250
  21631213.250
  19885593.250
  22376616.750
  18759417.250
  21599921.250
 23  3 11 13  0 12.0000000  0 05G04G16G22G26G31 +2.600,8.5,3.90
  22269367.250
  21128045.250
  23242300.750
  21024999.750
  23338494.250
 23  3 11 13 30 12.0000000  0 06G03G04G16G26G27G31 +2.600,10.5,3.90
  23196039.750
  21851139.750
  21024450.750
  21960596.750
  18280682.250
  18575923.750
 23  3 11 14  0 11.0000000  0 04G04G09G16G27 +2.600,11.0,3.90
  21354347.250
  23282350.750
  21024606.250
  23203480.750
 23  3 11 14 30  6.0000000  0 06G04G08G09G16G26G27 2.67,10.0,3.90
  19548127.750
  22014238.250
  20806719.750
  19784973.750
  22248809.750
  20737490.250
 23  3 11 15  0  6.0000000  0 06G04G07G08G09G16G27 2.73,10.5,3.90
  19088733.250
  21493611.250
  20302148.750
  19587907.250
  19834674.750
  19602322.250
 23  3 11 15 30 11.0000000  0 06G04G07G08G09G16G27 +2.800,12.0,3.90
  19935555.750
  21009902.250
  19794586.750
  19663026.750
  21028404.750
  19830587.250
 23  3 11 16  0 11.0000000  0 07G04G07G08G09G16G27G30 +2.800,13.5,3.90
  21991326.250
  21470245.250
  20549837.750
  21027907.750
  23220336.250
  21386573.250
  24133208.250
 23  3 11 16 30 22.0000000  0 06G04G07G08G09G16G30 +2.400,13.0,3.90
  22714157.750
  20465520.250
  20152278.250
  21206574.750
  23884096.750
  22709108.750
 23  3 11 17  0 11.0000000  0 06G04G07G08G09G27G30 +2.800,13.0,3.90
  18926502.250
  21027269.750
  21530648.750
  23061570.750
  23768113.750
  22731927.750
 23  3 11 17 30 10.0000000  0 07G07G08G09G13G21G27G30 2.80,16.0,3.90
  23296857.750
  18695017.750
  20573924.750
  21412036.250
  19026479.750
  21401185.750
  18340887.750
 23  3 11 18  0 10.0000000  0 06G01G07G08G17G21G30 2.80,14.5,3.90
  19961660.750
  18292336.750
  20487671.750
  20374250.250
  19603294.750
  18573144.250
 23  3 11 18 30 11.0000000  0 05G01G08G17G21G30 +2.800,14.5,3.90
  20708970.750
  23112723.750
  21027021.750
  21285924.250
  19821809.250
 23  3 11 19  0 10.0000000  0 07G01G07G13G14G17G19G30 2.80,19.0,3.90
  22869350.750
  23707324.750
  19076577.250
  22633325.750
  22941717.750
  19370649.250
  22454563.750
 23  3 11 19 30 11.0000000  0 04G01G17G19G30 +2.800,17.0,3.90
  21406827.250
  21027306.250
  22834683.250
  21386018.250
 23  3 11 20  0 12.0000000  0 04G01G17G19G30 +2.000,17.0,3.90
  20946756.250
  19902173.250
  21030536.750
  21210283.250
 23  3 11 20 30 11.0000000  0 04G01G14G17G19 +2.800,17.0,3.90
  22465497.750
  20519247.750
  20583494.750
  21027049.250
 23  3 11 21  0 17.0000000  0 05G01G06G14G17G19 +2.600,15.0,3.90
  23936951.250
  21391510.250
  21254605.750
  21115505.250
  20913062.750
 23  3 11 21 30 11.0000000  0 05G03G14G17G19G24 +2.800,13.0,3.90
  22607226.250
  21027841.250
  20534386.250
  19762035.750
  22503064.750
 23  3 11 22  0  5.0000000  0 07G03G06G11G12G17G19G24 2.80,12.5,3.90
  23592106.250
  20111032.750
  22388022.750
  18168886.750
  21629053.750
  20374165.750
  23231809.750
 23  3 11 22 30 17.0000000  0 06G06G11G17G19G20G24 +2.800,12.5,3.90
  19619340.750
  21026718.750
  21656602.750
  20006583.750
  23500966.750
  23158521.250
 23  3 11 23  0  9.0000000  0 06G06G11G12G17G19G20 2.80,13.5,3.90
  23583588.250
  18090595.750
  19197898.750
  19926233.750
  23970556.250
  19974578.750
 23  3 11 23 30 14.0000000  0 07G06G09G11G12G17G19G20 +2.800,11.0,3.90
  21027294.750
  19132317.250
  20655029.750
  21383358.750
  23534257.250
  21364202.750
  21814072.750
 23  3 12  0  0 14.0000000  0 07G05G06G09G11G12G19G20 2.56,10.0,3.90
  21112304.750
  19733864.750
  22639256.250
  18584952.250
  19047740.250
  20049135.750
  19002663.250
 23  3 12  0 30 11.0000000  0 07G05G06G09G11G12G19G20 +2.320,9.0,3.90
  21017878.250
  21573661.750
  23480490.750
  19773819.250
  20171131.750
  21955029.250
  19539305.250
 23  3 12  1  0  9.0000000  0 08G02G05G09G11G12G20G25G29 2.56,10.0,3.90
  22694444.750
  20003169.750
  23508477.250
  19979275.750
  20545037.750
  19256149.750
  20744965.750
  22441808.250
 23  3 12  1 30 11.0000000  0 05G02G11G12G20G29 +2.800,10.0,3.90
  22659598.750
  21026591.250
  21964463.250
  20005662.250
  22015324.250
 23  3 12  2  0  6.0000000  0 06G02G05G11G13G20G29 2.67,13.5,3.90
  18573348.750
  22235138.250
  18069129.750
  19320656.750
  22917219.250
  23605962.250
 23  3 12  2 30  6.0000000  0 06G05G11G13G15G20G29 2.53,13.0,3.90
  21308356.250
  23706860.750
  23255863.750
  23835921.750
  22546608.250
  21925489.750
 23  3 12  3  0  6.0000000  0 06G02G05G13G18G20G29 2.40,11.0,3.90
