     2.00           OBSERVATION DATA    G(GPS)              RINEX VERSION / TYPE
goGPS-java                              17-Apr-24 13:45:09  PGM / RUN BY / DATE
                                                            MARKER NAME
                                                            MARKER NUMBER
                    Lotek Wireless Inc.                     OBSERVER / AGENCY
7                                                           REC # / TYPE / VERS
                                                            ANT # / TYPE
    73993.0000 -5057250.0000  3872763.0000                  APPROX POSITION XYZ
        0.0000        0.0000        0.0000                  ANTENNA: DELTA H / E / N
     2     0                                                WAVELENGTH FACT L1/2
     1    C1                                                # / TYPES OF OBSERV
  2023     3     4    13    49   31.0000000     UTC         TIME OF FIRST OBS
                                                            END OF HEADER
 23  3  4 14  0  9.0000000  0 07G03G07G09G22G26G27G31 0.60,17.0,3.95
  20065478.250
  22921087.750
  21084032.250
  21346252.750
  18815841.250
  21041460.750
  21592920.750
 23  3  4 14 30 13.0000000  0 06G04G08G09G16G26G27 17.00000,19.0,3.95
  21371124.750
  18827884.750
  23270994.250
  21067240.750
  22921656.750
  23188131.750
 23  3  4 15  0 13.0000000  0 06G04G07G09G16G26G27 +1.000,16.0,3.95
  23714497.750
  21065406.750
  18944129.250
  23960824.750
  20460582.750
  18872925.250
 23  3  4 15 30 13.0000000  0 05G08G09G16G26G27 +0.200,12.5,3.95
  21462217.750
  20773546.750
  21052721.250
  23955977.250
  20792395.250
 23  3  4 16  0  5.0000000  0 06G04G07G08G09G16G27 0.40,8.5,3.95
  23212106.750
  18225448.250
  23010454.250
  22902633.250
  18280973.750
  23076094.750
 23  3  4 16 30  6.0000000  0 07G04G07G08G09G16G21G27 0.60,10.5,3.95
  19877654.250
  19277645.750
  18376858.250
  18878855.750
  21063818.250
  22252594.250
  19244051.250
 23  3  4 17  0 10.0000000  0 05G04G08G09G27G30 +0.800,20.0,3.95
  22561033.750
  19950552.250
  21024930.250
  21577966.250
  22470303.250
 23  3  4 17 30  5.0000000  0 06G07G08G09G16G27G30 0.84,24.0,3.95
  21759975.750
  22303254.250
  23851056.750
  20659218.250
  18564954.250
  23452168.750
 23  3  4 18  0  5.0000000  0 06G01G07G08G14G21G30 0.88,22.0,3.95
  23892423.750
  21036530.250
  22473566.750
  23118618.250
  22753557.250
  22060110.250
 23  3  4 18 30  6.0000000  0 07G01G07G09G13G17G21G30 0.92,20.0,3.95
  22224659.250
  20596219.250
  18918075.750
  23720252.750
  22616963.750
  21900729.250
  20850498.750
 23  3  4 19  0  6.0000000  0 06G01G07G13G17G19G21 0.96,20.5,3.95
  20763549.250
  20428952.250
  22614594.750
  21055639.750
  17999362.750
  21374592.750
 23  3  4 19 30 11.0000000  0 04G01G07G14G21 +1.000,21.0,3.95
  21026098.250
  21906747.750
  20773126.750
  22556975.750
 23  3  4 20  0  8.0000000  0 06G01G07G13G14G17G19 0.85,21.0,3.95
  23172635.750
  19056723.250
  19636996.750
  22557071.250
  22760327.250
  18565339.750
 23  3  4 20 30  6.0000000  0 07G01G03G06G17G19G21G30 0.70,23.0,3.95
  19194226.750
  22045692.750
  20844192.750
  18115812.750
  19230165.250
  22016471.250
  19468619.750
 23  3  4 21  0  5.0000000  0 06G01G03G06G14G19G30 0.55,26.5,3.95
  19439957.250
  20663894.250
  18977682.250
  23467104.750
  23944181.250
  19879852.250
 23  3  4 21 30 14.0000000  0 07G01G03G06G11G14G19G30 +0.400,29.0,3.95
  24148695.250
  23768188.250
  21533646.750
  19035672.250
  21450126.250
  21067419.750
  18647808.750
 23  3  4 22  0 13.0000000  0 05G03G11G14G19G24 +0.400,29.0,3.95
  21049612.750
  21163143.250
  19499983.750
  18189353.750
  20924820.250
 23  3  4 22 30 12.0000000  0 07G03G11G12G14G17G19G24 0.67,26.5,3.95
  21500521.750
  20200447.750
  21991408.250
  20552206.250
  19537282.750
  18251415.750
  21116697.750
 23  3  4 23  0  9.0000000  0 06G06G11G14G17G19G24 0.93,24.5,3.95
  22973379.750
  18336547.750
  20676813.750
  19042628.750
  23359332.750
  20529437.750
 23  3  4 23 30 12.0000000  0 05G06G12G17G19G24 +1.200,24.0,3.95
  18661467.750
  20221559.250
  21026612.750
  19042447.750
  22596280.750
 23  3  5  0  0 11.0000000  0 04G06G12G20G25 +1.400,13.5,3.95
  20321094.750
  20637677.750
  21028840.250
  22519315.750
 23  3  5  0 30  5.0000000  0 06G06G11G12G19G20G25 1.42,9.5,3.95
  21302638.750
  20130727.750
  20591458.250
  21612433.250
  20510988.750
  21963314.750
 23  3  5  1  0  8.0000000  0 07G05G06G11G12G19G20G25 1.44,10.5,3.95
  23649714.750
  18260328.250
  22441266.250
  22843002.750
  18646599.750
  22180555.750
  23615661.750
 23  3  5  1 30  5.0000000  0 06G05G06G11G12G19G20 1.46,15.0,3.95
  18215055.250
  20560669.750
  18229061.750
  18802746.750
  21134875.750
  23485402.250
 23  3  5  2  0  6.0000000  0 06G05G06G11G12G20G29 1.48,12.5,3.95
  23299815.750
  21094544.250
  18365427.250
  19313679.750
  23332802.250
  19303991.250
 23  3  5  2 30  5.0000000  0 07G02G11G12G13G15G20G29 1.50,11.5,3.95
  22457887.750
  22023062.750
  23458788.750
  23200788.750
  18032116.750
  20874271.250
  21506189.250
 23  3  5  3  0  5.0000000  0 07G02G05G13G15G18G20G29 1.52,11.0,3.95
  18710389.250
  23009741.750
  18925082.750
  19487943.250
  21087183.250
  18294732.250
  23608079.250
 23  3  5  3 30  5.0000000  0 08G02G05G11G13G15G20G25G29 1.54,10.0,3.95
  20782202.750
  19910598.750
  22721673.750
  20640960.750
  20828110.750
  21600762.250
  23798262.250
  19790349.250
 23  3  5  4  0  7.0000000  0 07G02G05G11G13G15G23G29 1.56,9.5,3.95
  22748161.750
  22820378.250
  19882251.250
  22508628.750
  22217802.250
  19092979.250
  22151074.750
 23  3  5  4 30  5.0000000  0 06G02G05G11G13G15G18 1.58,9.0,3.95
  18546059.750
  19563653.250
  22806914.250
  18489257.250
  23652789.750
  19210862.250
 23  3  5  5  0 11.0000000  0 07G02G10G13G15G23G24G29 +1.600,8.5,3.95
  21027819.250
  18721784.250
  21387673.250
  20004542.250
  21968691.250
  18295498.250
  21897526.750
 23  3  5  5 30  9.0000000  0 07G10G13G15G18G23G24G29 1.60,8.0,3.95
  18747721.250
  23048941.750
  21170395.750
  21302404.250
  22263967.750
  18049034.750
  23854287.750
 23  3  5  6  0  5.0000000  0 06G02G10G15G18G23G24 1.60,7.5,3.95
  23806416.250
  19112699.750
  22966731.250
  22189884.250
  22972309.750
  18209714.250
 23  3  5  6 30 11.0000000  0 07G02G10G15G18G23G24G27 +1.600,7.5,3.95
  23340044.250
  23146265.250
  22645817.750
  21025878.250
  21433889.250
  22243393.250
  18095496.250
 23  3  5  7  0  6.0000000  0 06G02G10G18G23G24G27 1.53,6.5,3.95
  21096613.750
  19265517.250
  18233640.750
  18057887.250
  18674031.750
  20902592.750
 23  3  5  7 30  6.0000000  0 06G02G10G18G23G24G27 1.46,6.0,3.95
  22544739.750
  19003777.750
  19324128.250
  18388567.250
  19079258.250
  21611392.750
 23  3  5  8  0  8.0000000  0 06G08G10G22G23G24G27 1.39,5.5,3.95
  22709455.750
  18600144.750
  20860569.250
  18656300.750
  19656780.750
  22340236.750
 23  3  5  8 30 11.0000000  0 06G10G22G23G24G31G32 +1.320,5.0,3.95
  21018063.750
  22843042.750
  21798816.250
  23249575.750
  18590321.750
  21623362.750
 23  3  5  9  0  5.0000000  0 07G10G22G23G25G28G31G32 1.42,4.5,3.95
  23451130.250
  18784679.250
  18964437.250
  20575088.750
  18927580.750
  19785149.250
  23927019.750
 23  3  5  9 30  5.0000000  0 06G10G22G23G25G28G32 1.51,4.5,3.95
  22846875.250
  23554764.750
  19038937.250
  18996625.250
  23237182.250
  23085605.250
 23  3  5 10  0  7.0000000  0 08G10G21G22G23G25G28G31G32 1.61,4.0,3.95
  22283521.250
  18477406.750
  22198826.750
  19041442.250
  23450538.750
  21595876.750
  21894612.750
  22129468.250
 23  3  5 10 30  5.0000000  0 07G10G21G22G25G28G31G32 1.71,3.5,3.95
  21699239.250
  23295579.750
  20645344.750
  21983897.750
  19977942.250
  19979486.250
  20993713.750
 23  3  5 11  0  8.0000000  0 08G10G21G22G25G26G28G31G32 1.81,3.5,3.95
  19735890.250
  20745359.750
  23565851.750
  19306640.250
  19463264.750
  23047395.250
  22788446.750
  18360698.250
 23  3  5 11 30  5.0000000  0 07G01G03G22G26G28G31G32 1.90,3.0,3.95
  20016828.750
  19045579.750
  23293646.250
  18024425.250
  23080920.750
  22624736.250
  18551754.250
 23  3  5 12  0 11.0000000  0 04G22G28G31G32 +2.000,3.0,3.95
  21442274.250
  21608705.250
  21024570.750
  23173018.250
 23  3  5 12 30 11.0000000  0 04G22G28G31G32 +2.200,2.5,3.95
  21153801.250
  21676989.250
  21027475.750
  23347056.750
 23  3  5 13  0 11.0000000  0 04G03G22G26G31 +2.200,3.0,3.95
  20214049.750
  20914804.250
  19074217.250
  21026635.250
 23  3  5 13 30 11.0000000  0 07G03G04G16G22G26G27G31 +2.200,4.5,3.95
  19701710.750
  19510868.250
  18438358.750
  20794676.250
  18511424.250
  22328835.250
  21025801.250
 23  3  5 13 40 56.0000000  0 00 0.00,6.0,3.95,1,66964,-5051728,3880255,4,2.6
 23  3  5 14 30  5.0000000  0 07G03G04G08G09G16G26G27 -1.12,9.5,3.95
  19231041.750
  22188595.250
  19533044.250
  18015887.750
  21951724.250
  23897221.750
  23928373.250
 23  3  5 15  0 16.0000000  0 05G07G08G09G26G27 -2.800,12.0,3.95
  21461886.250
  20479508.250
  19356462.750
  21117965.250
  19292857.750
 23  3  5 15 30  5.0000000  0 06G07G08G09G16G26G27 -1.55,16.0,3.95
  18833059.750
  23608620.750
  22995750.750
  23435987.750
  20378324.750
  23029934.750
 23  3  5 16  0  5.0000000  0 06G04G07G08G16G27G30 -0.30,18.5,3.95
  22110934.750
  22911775.750
  21726237.250
  23210354.250
  21900168.750
  19846881.750
 23  3  5 16 30 11.0000000  0 06G04G07G08G09G16G27 +0.960,19.0,3.95
  22100048.750
  21263624.750
  20432192.750
  21018328.750
  23293594.250
  21410289.750
 23  3  5 17  0  9.0000000  0 07G04G08G09G14G21G27G30 1.03,18.0,3.95
  21483030.750
  18735983.250
  19886021.250
  22016002.750
  21463510.250
  20454730.750
  21077913.750
 23  3  5 17 30  5.0000000  0 06G07G08G09G14G21G30 1.10,21.0,3.95
  18530224.750
  19194634.750
  20806328.250
  21158439.250
  20637404.250
  20131728.250
 23  3  5 18  0  5.0000000  0 07G01G08G13G14G17G21G30 1.17,25.0,3.95
  20521691.750
  19367295.750
  21759049.250
  19792155.250
  20936597.250
  19478993.250
  18734253.250
 23  3  5 18 30  5.0000000  0 07G01G07G09G13G14G21G30 1.24,28.5,3.95
  18617523.750
  23162579.250
  21588630.750
  20160044.250
  18258204.250
  18416684.250
  23306647.250
 23  3  5 19  0  5.0000000  0 06G01G13G17G19G21G30 1.32,31.0,3.95
  22411961.750
  18324024.250
  22686942.750
  19565747.750
  23152443.750
  21608213.750
 23  3  5 19 30  5.0000000  0 06G01G07G17G19G21G30 1.39,33.0,3.95
  19939132.750
  20972636.250
  19938653.250
  22284938.250
  21582703.250
  19600789.750
 23  3  5 20  0  9.0000000  0 07G01G07G13G14G17G21G30 1.46,35.0,3.95
  21519030.250
  23520261.750
  18013342.750
  20833632.250
  21031668.750
  23901163.250
  21560804.250
 23  3  5 20 30  6.0000000  0 06G01G14G17G19G24G30 1.53,35.5,3.95
  20408354.750
  19085173.750
  19227123.750
  20246205.250
  23594542.250
  20716534.750
 23  3  5 21  0 12.0000000  0 06G01G03G17G19G24G30 +1.600,35.5,3.95
  22753640.750
  23743495.250
  20712846.250
  21042565.750
  24054880.250
  23212294.250
 23  3  5 21 30 11.0000000  0 07G01G06G11G14G17G19G30 +1.240,35.0,3.95
  18003384.250
  21106298.250
  24548869.250
  21211581.250
  21018219.250
  20709145.750
  18502281.750
 23  3  5 22  0 12.0000000  0 04G11G17G19G24 +1.600,29.0,3.95
  23004659.750
  21042663.750
  20171431.250
  22913807.250
 23  3  5 22 30 11.0000000  0 06G03G06G14G17G19G24 +1.800,26.5,3.95
  18644331.250
  21026824.750
  23762680.250
  22666011.250
  21322667.250
  24220479.750
 23  3  5 23  0 11.0000000  0 05G06G12G17G19G20 +1.800,24.5,3.95
  21026817.750
  23703942.750
  23142208.750
  21418193.750
  18641275.250
 23  3  5 23 30  8.0000000  0 07G06G11G12G17G19G20G24 1.80,23.5,3.95
  18214168.750
  18549521.750
  19598996.750
  20604905.750
  18589591.750
  20300014.250
  22195203.250
 23  3  6  0  0 11.0000000  0 05G11G12G17G19G20 +1.800,23.5,3.95
  20182363.250
  20860381.250
  23249085.250
  21026270.750
  21197030.250
 23  3  6  0 30 15.0000000  0 02G11G19 1.60,23.5,3.95
  19517131.250
  21103280.250
 23  3  6  1  0 17.0000000  0 05G02G11G12G19G20 +1.400,23.0,3.95
  24261519.750
  20718923.750
  21127748.250
  23015056.250
  20374869.250
 23  3  6  1 30  5.0000000  0 08G02G05G06G11G12G19G20G29 1.55,16.0,3.95
  20246754.750
  23546556.750
  20116295.250
  23721870.750
  18338451.750
  20716763.250
  22929212.750
  19950651.750
 23  3  6  2  0  5.0000000  0 07G02G05G11G12G20G25G29 1.70,10.0,3.95
  22793729.750
  20177701.250
  21364834.250
  22373339.750
  20311361.250
  21936781.250
  22108036.250
 23  3  6  2 30  9.0000000  0 07G02G05G11G12G13G25G29 1.85,13.5,3.95
  22428288.250
  20192423.750
  22153786.750
  23661819.750
  23091765.750
  22813066.250
  21441004.750
 23  3  6  3  0 11.0000000  0 06G02G05G11G12G20G29 +2.000,14.5,3.95
  20121813.250
  18529832.250
  21027583.250
  23015013.750
  19873348.250
  19020092.250
 23  3  6  3 30  5.0000000  0 06G13G15G18G20G25G29 1.93,15.0,3.95
  19898677.750
  20027319.750
  21887240.250
  21053811.750
  23277227.750
  19115376.250
 23  3  6  4  0  5.0000000  0 08G02G05G11G13G18G20G23G29 1.86,12.5,3.95
  21557806.250
  21760191.250
  18844955.250
  21324655.250
  22795694.750
  23739111.250
  23812398.750
  21037259.750
 23  3  6  4 30 10.0000000  0 07G05G13G15G16G18G23G29 1.78,13.5,3.95
  20131271.750
  18975196.250
  18067283.250
  23525125.250
  19558603.250
  20565536.750
  19151721.750
 23  3  6  5  0  6.0000000  0 06G02G05G10G13G15G29 1.71,14.0,3.95
  22762956.250
  18729189.250
  20327217.250
  23189036.250
  21736933.750
  23751122.250
 23  3  6  5 30 11.0000000  0 07G02G10G13G18G23G24G29 +1.640,14.5,3.95
  20042597.250
  22476880.750
  21018512.250
  19090656.750
  20037537.250
  21736608.750
  21862693.250
 23  3  6  6  0  6.0000000  0 06G02G13G15G18G23G24 1.73,14.5,3.95
  19535980.250
  21041573.250
  18716460.750
  23815800.750
  18564155.750
  19726149.750
 23  3  6  6 30  5.0000000  0 07G02G10G15G18G23G24G32 1.83,14.5,3.95
  18313760.250
  23909276.250
  23629407.250
  21914067.750
  22256327.750
  23022938.750
  19239591.250
 23  3  6  7  0  6.0000000  0 06G10G15G18G23G24G32 1.92,14.5,3.95
  21233064.750
  22689476.250
  20369462.250
  20098398.750
  20707290.250
  22252114.750
 23  3  6  7 30 10.0000000  0 08G08G10G18G22G23G24G27G32 2.02,14.0,3.95
  22199519.250
  18647931.250
  19169988.250
  21274513.250
  18118912.750
  18839316.250
  21409067.750
  19461231.750
 23  3  6  8  0  6.0000000  0 06G10G22G23G24G27G32 2.11,14.0,3.95
  18101661.750
  20305282.250
  18251470.250
  19306934.250
  22002612.250
  18791967.750
 23  3  6  8 30  6.0000000  0 06G10G12G24G25G31G32 2.21,13.5,3.95
  19507175.750
  23676511.750
  21900087.750
  23388424.750
  22941273.250
  20102139.250
 23  3  6  9  0  5.0000000  0 08G10G12G22G23G24G28G31G32 2.30,13.0,3.95
  23101455.750
  20691022.750
  18360910.750
  18711337.750
  20689073.250
  18432376.250
  19279574.250
  23555453.750
 23  3  6  9 30 11.0000000  0 04G10G12G23G25 +2.400,12.5,3.95
  21027813.250
  24053586.250
  23303198.750
  23032361.250
 23  3  6 10  0  5.0000000  0 07G01G10G12G23G25G31G32 2.28,12.0,3.95
  20462895.250
  18635119.750
  21181046.750
  21454438.750
  19672497.250
  18076537.750
  18415837.750
 23  3  6 10 30  5.0000000  0 08G01G10G21G22G25G28G31G32 2.16,11.5,3.95
  23325934.250
  22504886.750
  18030438.250
  21308044.750
  22677655.250
  20649171.250
  20619141.250
  21712923.750
 23  3  6 11  0  5.0000000  0 07G01G03G22G25G28G31G32 2.04,11.0,3.95
  20363478.250
  20774708.750
  18066179.250
  19873567.750
  23577584.250
  23288348.250
  18915286.250
 23  3  6 11 30  5.0000000  0 08G01G03G22G25G26G28G31G32 1.92,10.5,3.95
  23502937.250
  22307602.250
  20701355.250
  23203652.750
  21274732.250
  20538246.250
  20054721.250
  22016442.250
 23  3  6 12  0 12.0000000  0 04G04G26G28G31 +1.800,10.0,3.95
  23897917.750
  20353094.750
  21032610.250
  20424965.750
 23  3  6 12 30  5.0000000  0 07G03G16G22G28G29G31G32 2.20,9.5,3.95
  19641952.250
  20424798.750
  19823918.750
  20387889.250
  23405646.750
  19717964.250
  22071869.750
 23  3  6 13  0 11.0000000  0 05G03G26G28G29G31 +2.600,10.0,3.95
  19460042.250
  18310879.250
  21027846.750
  23149125.250
  20339133.750
 23  3  6 13 30  8.0000000  0 07G03G04G16G22G26G29G31 2.60,9.0,3.95
  23971551.250
  23595188.250
  22551329.750
  19103973.750
  22769773.750
  21539271.750
  19317203.750
 23  3  6 14  0 11.0000000  0 04G03G07G26G31 +2.600,10.0,3.95
  18622470.750
  21025968.250
  23352638.750
  20124114.250
 23  3  6 14 30 12.0000000  0 05G04G09G16G26G27 +2.600,12.5,3.95
  19132387.250
  20863424.750
  18976383.250
  21026224.750
  20776748.750
 23  3  6 15  0  5.0000000  0 06G04G07G08G09G16G26 2.65,15.5,3.95
  20973180.750
  18087094.250
  23059639.250
  21998273.750
  21369724.250
  18000294.750
 23  3  6 15 30  5.0000000  0 07G04G07G08G09G16G26G27 2.70,17.0,3.95
  19937084.250
  21952549.750
  20723377.250
  20186436.750
  20791541.750
  23762578.250
  20241051.250
 23  3  6 16  0  6.0000000  0 07G04G07G08G09G16G27G30 2.75,20.5,3.95
  19646923.250
  20234575.750
  19079253.750
  19139542.250
  20777538.750
  19363234.750
  23127363.750
 23  3  6 16 30 11.0000000  0 05G04G08G09G16G27 +2.800,22.0,3.95
  22188086.250
  20360350.750
  21027644.750
  23386687.250
  21446970.250
 23  3  6 17  0 12.0000000  0 07G07G09G14G16G21G27G30 2.80,23.0,3.95
  23851219.250
  19002183.250
  20899513.750
  21736027.750
  20337331.750
  19602756.750
  19952772.750
 23  3  6 17 30  5.0000000  0 07G01G04G08G09G21G27G30 2.80,23.0,3.95
  20463039.250
  21206589.750
  23603724.250
  19264326.250
  18857730.250
  20009995.250
  18336869.750
 23  3  6 18  0  6.0000000  0 06G07G08G09G14G21G30 2.80,26.0,3.95
  22174097.250
  23842553.250
  19805670.250
  18048104.750
  23771675.750
  22990667.250
 23  3  6 18 30 11.0000000  0 05G01G07G08G21G30 +2.800,26.0,3.95
  21093014.250
  19828421.250
  22243031.750
  21026031.250
  19864396.250
 23  3  6 19  0  5.0000000  0 07G01G13G14G17G19G21G30 2.80,22.5,3.95
  21575720.750
  23530381.750
  21396904.250
  21822605.750
  18632539.750
  22445700.750
  20837101.250
 23  3  6 19 30 11.0000000  0 06G01G07G14G17G21G30 +2.800,25.0,3.95
  21305557.250
  22492969.750
  20982261.250
  21248041.750
  23065587.250
  21024953.250
 23  3  6 20  0  6.0000000  0 06G01G06G15G17G21G30 2.84,29.5,3.95
  20031617.250
  23069699.750
  18155226.750
  19459296.750
  22496094.750
  20115084.750
 23  3  6 20 30  5.0000000  0 08G01G03G06G14G17G19G21G30 2.88,34.0,3.95
  18514496.750
  20930185.250
  19600032.250
  23086680.250
  23217449.750
  18142603.750
  21435692.250
  18848913.250
 23  3  6 21  0  8.0000000  0 07G03G13G14G17G19G24G30 2.92,35.0,3.95
  23180491.750
  18827362.750
  20234720.750
  20244385.750
  20482192.750
  23456664.750
  22881134.250
 23  3  6 21 30  9.0000000  0 07G01G06G11G14G17G19G24 2.96,34.5,3.95
  20555944.250
  23376405.750
  20761127.250
  23676072.750
  23438128.250
  23046120.250
  19818427.750
 23  3  6 22  0 11.0000000  0 05G06G11G14G17G19 +3.000,34.5,3.95
  21025682.250
  23805147.750
  22689260.250
  22046201.250
  21103011.750
 23  3  6 22 30  6.0000000  0 06G03G11G12G14G17G24 3.00,34.5,3.95
  20336507.750
  18635737.250
  20338945.250
  19538822.250
  18349513.750
  19877927.750
 23  3  6 23  0  6.0000000  0 06G06G11G12G17G19G20 3.00,32.0,3.95
  19930372.250
  21048174.250
  22426118.750
  22096346.750
  20325944.750
  23359038.250
 23  3  6 23 30 11.0000000  0 05G11G12G17G19G20 +3.000,29.0,3.95
  19360047.250
  20345233.750
  21570556.750
  19520286.250
  21023834.250
 23  3  7  0  0 10.0000000  0 07G05G06G11G12G17G19G20 +3.000,26.5,3.95
  23497034.750
  20731938.750
  20101278.250
  20731840.750
  23302634.750
  21058038.750
  21024151.750
 23  3  7  0 30  5.0000000  0 07G02G05G11G12G17G19G20 2.90,24.5,3.95
  21192720.750
  18972117.750
  22822004.250
  23241526.750
  20876720.250
  18519187.750
  23022355.250
 23  3  7  1  0 13.0000000  0 05G05G06G12G19G20 +2.800,23.0,3.95
  21054575.250
  22176066.750
  20625185.250
  22605660.750
  19789599.750
 23  3  7  1 30  9.0000000  0 06G02G05G06G11G12G25 2.81,21.5,3.95
  18622692.750
  21926507.250
  18713057.750
  22252207.250
  22914168.250
  22920921.250
 23  3  7  2  0  9.0000000  0 06G05G06G11G12G20G29 2.81,20.5,3.95
  20769685.250
  18907829.250
  22078272.750
  23157379.750
  21000847.250
  22603383.750
 23  3  7  2 30  8.0000000  0 07G05G11G12G13G15G20G29 2.82,19.0,3.95
  19845188.750
  21891858.750
  23470876.250
  22594898.750
  23360804.250
  20730524.250
  20989617.750
 23  3  7  3  0  9.0000000  0 07G02G05G11G12G15G20G29 2.82,18.5,3.95
  20619558.250
  19134085.750
  21687930.750
  23732121.250
  21185367.250
  20536482.750
  19519634.250
 23  3  7  3 30  5.0000000  0 06G05G11G13G15G20G29 2.83,17.5,3.95
  18478977.250
  21361840.250
  18900923.250
  18967190.250
  20247148.250
  18183577.250
 23  3  7  4  0 10.0000000  0 07G05G13G15G18G20G23G29 2.83,17.0,3.95
  18023177.750
  23461920.750
  23026596.750
  18831350.250
  20024037.250
  19840118.250
  23239582.750
 23  3  7  4 30 11.0000000  0 06G05G10G13G15G23G29 +2.840,16.0,3.95
  21018469.750
  18129666.750
  19787510.750
  18801406.250
  21224782.250
  20020779.750
 23  3  7  5  0  5.0000000  0 07G02G05G10G13G18G23G29 2.98,15.5,3.95
  20601296.250
  22666102.250
  18019228.250
  21100174.250
  20327089.250
  21329242.750
  21706197.750
 23  3  7  5 30 10.0000000  0 07G02G10G15G18G23G24G29 3.12,14.5,3.95
  19187124.250
  21448448.750
  18241092.750
  18127429.750
  19053625.250
  20680064.250
  21113446.250
 23  3  7  6  0  5.0000000  0 07G02G10G15G18G24G29G32 3.26,14.0,3.95
  23591716.750
  18510062.750
  22793844.750
  21775593.750
  23576406.250
  20185072.250
  20171377.250
 23  3  7  6 30 11.0000000  0 04G02G15G18G24 +3.400,13.0,3.95
  23506840.250
  22843310.750
  21026085.750
  22025431.250
 23  3  7  7  0  9.0000000  0 06G02G15G18G24G27G32 3.43,12.0,3.95
  20497495.250
  19900734.750
  23511705.750
  23752182.750
  20079298.250
  19184111.750
 23  3  7  7 30  5.0000000  0 06G10G18G22G23G24G32 3.47,11.5,3.95
  20669321.750
  21391781.250
  23232536.750
  20229974.750
  20985951.750
  21461796.250
 23  3  7  8  0  5.0000000  0 07G08G18G23G24G27G28G32 3.50,11.0,3.95
  21443103.750
  19393412.250
  23379598.250
  18498520.750
  21188934.250
  20364325.750
  23806215.750
 23  3  7  8 30  5.0000000  0 08G10G12G22G23G24G28G31G32 3.53,11.0,3.95
  19620225.750
  23713759.250
  21315305.250
  20601222.750
  22182736.250
  21855603.750
  22909437.250
  20199267.250
 23  3  7  9  0  8.0000000  0 06G10G23G25G28G31G32 3.57,10.5,3.95
  22262091.250
  23967782.750
  19124850.750
  23435636.250
  18273433.250
  22687721.250
 23  3  7  9 30 11.0000000  0 05G10G22G25G28G32 +3.600,10.5,3.95
  20878542.250
  21383293.250
  22749069.750
  20966421.750
  21026219.750
 23  3  7 10  0  6.0000000  0 07G10G21G22G23G28G31G32 4.72,9.5,3.95
  21762662.250
  23788905.250
  21429232.250
  18651101.750
  20786118.250
  21025343.250
  21473138.750
 23  3  7 10 30  6.0000000  0 06G10G21G25G28G31G32 5.85,9.5,3.95
  18698669.750
  20134405.250
  18765546.250
  22701424.750
  22637329.750
  23814197.750
 23  3  7 11  0 52.0000000  0 00 +7.000,10.0,3.95,1,66960,-5051728,3880260,4,1.2
 23  3  7 12 30  9.0000000  0 06G03G16G22G28G31G32 3.34,7.5,3.95
  18409742.250
  19054915.250
  18689818.250
  19293490.750
  18601723.750
  20993779.250
 23  3  7 13  0 18.0000000  0 02G22G31 2.11,8.0,3.95
  21103917.750
  21221331.250
 23  3  7 13 30  9.0000000  0 06G03G09G22G26G28G31 0.89,7.5,3.95
  21236396.250
  23371038.250
  22407960.250
  20031957.250
  23303916.250
  22601313.250
 23  3  7 14  0  9.0000000  0 07G03G04G07G16G26G27G31 -0.34,8.0,3.95
  21088498.750
  19075516.250
  23255505.250
  18462024.750
  19812608.250
  21270970.750
  22571971.250
 23  3  7 14 30 10.0000000  0 06G03G04G08G09G16G26 -1.57,14.5,3.95
  20763448.750
  23358058.750
  20428733.250
  19004800.750
  23277483.250
  19421008.250
 23  3  7 15  0 12.0000000  0 06G04G07G08G09G16G27 -2.800,18.0,3.95
  20579043.750
  23557392.250
  22495961.250
  21499272.250
  21049249.250
  21456515.750
 23  3  7 15 30  9.0000000  0 06G04G07G08G09G16G27 -1.54,16.5,3.95
  21075189.250
  22910140.750
  21675780.250
  21217505.250
  21984032.750
  21292921.750
 23  3  7 16  0 10.0000000  0 06G04G07G08G09G16G27 -0.27,13.5,3.95
  18021183.750
  18390963.250
  23268497.750
  23413264.750
  19179277.750
  23663290.750
 23  3  7 16 30 17.0000000  0 05G07G08G09G16G30 +1.000,16.0,3.95
  21808776.750
  21133534.750
  21881649.750
  18321886.250
  24305737.750
 23  3  7 17  0 26.0000000  0 05G07G08G09G21G30 +0.800,19.0,3.95
  19967627.750
  20014687.750
  21300121.750
  22385353.250
  21989438.250
 23  3  7 17 30 11.0000000  0 06G07G08G09G17G21G27 +0.640,20.0,3.95
  18394048.250
  19305558.250
  21018679.250
  22334471.250
  20372181.250
  21774464.250
 23  3  7 18  0 12.0000000  0 07G01G07G08G14G17G21G30 +0.680,20.0,3.95
  22678551.250
  20312672.750
  22086219.750
  22064868.250
  23099337.750
  21849519.750
  21017974.750
 23  3  7 18 30  6.0000000  0 06G01G07G13G14G21G30 0.94,19.5,3.95
  20833741.750
  19743284.750
  22476470.250
  20548650.250
  20883824.250
  19665947.750
 23  3  7 19  0 11.0000000  0 05G01G08G14G21G30 +1.200,19.5,3.95
  21026583.750
  18165254.750
  20850240.750
  22025015.250
  20360322.750
 23  3  7 19 30 13.0000000  0 04G01G14G19G30 +1.400,20.0,3.95
  21428962.750
  21065310.750
  23495044.750
  21210497.250
 23  3  7 20  0 11.0000000  0 04G14G17G21G30 +1.400,22.0,3.95
  20843099.250
  21029670.250
  18230745.750
  21816199.250
 23  3  7 20 30 18.0000000  0 06G03G06G13G14G17G30 +0.800,23.5,3.95
  22529938.250
  21139507.750
  22904934.250
  18820298.250
  18941899.750
  20715349.250
 23  3  7 21  0 11.0000000  0 05G01G06G14G19G30 +1.200,24.0,3.95
  23166145.750
  21814466.750
  20889306.250
  21024877.750
  23653720.250
 23  3  7 21 30 11.0000000  0 05G06G14G17G19G30 +1.200,23.5,3.95
  20538357.250
  21025288.750
  20740174.250
  20271677.250
  18486437.250
 23  3  7 22  0 13.0000000  0 06G03G06G11G14G17G19 1.13,22.5,3.95
  23732286.750
  20625596.250
  23314087.250
  22464235.750
  21750793.250
  20743821.250
 23  3  7 22 30  7.0000000  0 06G06G11G12G14G17G19 1.07,21.0,3.95
  19715705.750
  21608447.750
  23268763.750
  22777479.250
  21500206.250
  20047528.250
 23  3  7 23  0 13.0000000  0 05G11G12G17G19G20 +1.000,19.5,3.95
  21660348.750
  22980974.750
  22866088.750
  21056652.250
  23891244.250
 23  3  7 23 30 11.0000000  0 04G06G11G17G20 +1.400,17.5,3.95
  18585677.750
  18686125.250
  21027089.250
  20253756.250
 23  3  8  0  0 10.0000000  0 07G05G06G11G12G17G19G20 1.42,15.5,3.95
  18222855.750
  21716871.250
  20985202.250
  21577194.250
  18302261.250
  22038304.750
  21808714.750
 23  3  8  0 30  9.0000000  0 07G05G06G11G12G17G19G20 1.45,14.0,3.95
  23215392.750
  22697626.750
  21245272.250
  21655617.250
  19399930.250
  23033537.250
  21355910.750
 23  3  8  1  0  9.0000000  0 06G05G06G11G12G19G20 1.47,12.5,3.95
  17997915.750
  19349092.250
  23300438.250
  23752086.250
  19803436.250
  22825190.750
 23  3  8  1 30  7.0000000  0 07G02G05G09G11G12G20G25 1.50,11.0,3.95
  18771636.250
  22070448.750
  20050230.750
  22535097.750
  23254916.250
  21657085.750
  23186592.750
 23  3  8  2  0  7.0000000  0 06G02G05G11G12G20G29 1.52,10.5,3.95
  19041860.250
  22498878.750
  23913778.250
  19074780.750
  22819475.250
  18250902.250
 23  3  8  2 30  5.0000000  0 08G05G11G12G13G15G20G25G29 1.55,10.0,3.95
  18519291.250
  20638683.250
  22298865.750
  21116697.250
  21854516.250
  19475963.750
  21363485.250
  19562464.250
 23  3  8  3  0  5.0000000  0 07G02G05G12G13G23G25G29 1.57,10.0,3.95
  22407269.750
  21026070.750
  19741208.750
  22444807.250
  19792386.250
  18587792.750
  21314713.750
 23  3  8  3 30 11.0000000  0 05G02G13G15G23G29 +1.600,9.5,3.95
  21246054.750
  21026006.750
  21032674.250
  23975275.750
  20383454.250
 23  3  8  4  0 12.0000000  0 04G05G13G15G23 +1.000,9.5,3.95
  21033265.250
  20363580.250
  19859515.250
  22638714.750
 23  3  8  4 30 11.0000000  0 04G02G15G18G29 +1.600,9.0,3.95
  20646038.250
  19676587.750
  21024699.250
  21033889.750
 23  3  8  5  0 11.0000000  0 06G02G10G13G15G18G29 +1.800,9.5,3.95
  19796927.750
  23073074.250
  20366446.250
  18774139.750
  19418813.750
  21028614.250
 23  3  8  5 30 10.0000000  0 07G02G10G15G18G23G24G27 2.89,8.5,3.95
  20083218.250
  22182961.250
  19153154.250
  18920922.250
  19828629.750
  21373622.750
  22678734.750
 23  3  8  6  0 30.0000000  0 00 +4.000,9.0,3.95,1,74590,-5049837,3882520,4,0.8
 23  3  8  8 30 20.0000000  0 06G10G21G23G25G28G32 -2.000,8.5,3.95
  20459833.250
  18231468.750
  21543234.250
  24107190.750
  22552426.250
  21027286.250
 23  3  8  9  0  6.0000000  0 06G10G21G23G25G31G32 -1.98,8.0,3.95
  19836189.250
  22997504.250
  21632700.250
  22563710.750
  21693154.250
  20236826.250
 23  3  8  9 30  6.0000000  0 06G10G23G25G28G31G32 -1.95,8.0,3.95
  21432494.750
  23869998.250
  23170145.250
  21384218.250
  21913220.750
  21533693.250
 23  3  8 10  0  9.0000000  0 06G01G21G22G28G31G32 -1.93,8.0,3.95
  18873212.750
  19285779.750
  22869308.750
  22213447.250
  22422962.250
  22965136.750
 23  3  8 10 30  7.0000000  0 07G01G21G22G26G28G31G32 -1.90,7.5,3.95
  18128821.250
  18918230.250
  22055414.250
  18658979.750
  21425958.750
  21330475.250
  22575903.750
 23  3  8 11  0  8.0000000  0 06G10G21G22G28G31G32 -1.88,7.5,3.95
  19473444.750
  20256351.750
  22830212.750
  22422337.750
  22070453.250
  23800387.750
 23  3  8 11 30 12.0000000  0 07G01G16G21G22G25G31G32 -1.85,7.5,3.95
  23075981.750
  23553417.750
  18111676.250
  20108452.750
  22821974.250
  19507963.750
  21548644.750
 23  3  8 12  0  7.0000000  0 06G03G16G22G26G31G32 -1.83,7.0,3.95
  20049106.750
  21482198.250
  19665648.750
  18958571.750
  19327161.750
  21576581.750
 23  3  8 12 30 16.0000000  0 05G03G16G22G26G32 -1.800,7.0,3.95
  20529708.250
  21024784.250
  20893287.250
  19405402.750
  23253473.750
 23  3  8 13  0 15.0000000  0 05G03G16G26G28G32 -1.800,7.0,3.95
  22189339.750
  21590194.250
  21024755.750
  23912847.250
  19821495.750
 23  3  8 13 30 12.0000000  0 07G03G04G16G22G26G28G31 -1.76,7.0,3.95
  21847903.750
  21086287.250
  20117860.750
  23045564.750
  20625728.250
  23934228.750
  23212002.750
 23  3  8 14 30 14.0000000  0 08G04G07G08G09G16G26G27G31 -1.68,13.0,3.95
  23902517.750
  21570775.750
  20826997.250
  19454317.250
  23902621.250
  20136671.250
  19371628.250
  22842973.250
 23  3  8 15  0  5.0000000  0 06G04G07G08G09G16G27 -1.64,15.0,3.95
  21463546.250
  18313661.250
  23212139.250
  22282487.750
  22005226.750
  22251256.250
 23  3  8 15 30 18.0000000  0 05G04G08G09G16G27 -1.600,14.5,3.95
  20060871.250
  20471873.250
  20096198.750
  21025850.250
  20195202.250
 23  3  8 16  0 19.0000000  0 06G04G07G08G09G16G27 -1.53,12.5,3.95
  21102336.250
  21246670.750
  20172306.250
  20402808.750
  22284274.250
  20680137.750
 23  3  8 16 30 11.0000000  0 07G04G07G08G09G14G16G27 -1.47,10.5,3.95
  22673166.750
  21134654.750
  20542374.750
  21365040.750
  18464334.250
  23869725.250
  21837150.250
 23  3  8 17  0 22.0000000  0 07G07G08G09G16G21G27G30 -1.400,11.5,3.95
  20904871.750
  21064416.750
  22419730.750
  19211242.250
  23273603.250
  23057910.750
  22849456.250
 23  3  8 17 30 10.0000000  0 06G01G07G08G17G21G27 -1.40,11.5,3.95
  19565774.750
  22191422.250
  23224423.750
  19992501.750
  18117623.750
  19760647.250
 23  3  8 18  0 18.0000000  0 07G01G08G09G13G14G21G30 -1.400,13.5,3.95
  22626548.250
  22319993.750
  18346189.250
  23974995.750
  22059406.250
  21913349.750
  21026397.750
 23  3  8 18 30 10.0000000  0 08G01G07G08G13G14G17G21G30 -1.38,15.5,3.95
  19115483.750
  18202655.750
  20768575.250
  20800573.250
  18853685.250
  19473228.250
  19296643.750
  18011657.250
 23  3  8 19  0  5.0000000  0 06G01G07G14G17G21G30 -1.36,16.5,3.95
  22987237.750
  23341198.750
  22797916.250
  23172724.250
  18113112.750
  22377721.250
 23  3  8 19 30  8.0000000  0 06G07G14G17G19G21G30 -1.33,17.5,3.95
  23158613.750
  21273693.250
  21514933.250
  23599308.750
  23661861.750
  21517031.750
 23  3  8 20  0 13.0000000  0 06G01G06G13G19G21G30 -1.31,18.0,3.95
  19533603.250
  22061465.250
  22068597.750
  20199903.750
  22150451.750
  19697411.750
 23  3  8 20 30  6.0000000  0 07G01G03G06G14G17G19G30 -1.29,17.0,3.95
  20578857.250
  22551871.750
  21087155.750
  18952418.750
  19058831.250
  19787893.250
  20960857.250
 23  3  8 21  0  6.0000000  0 06G03G06G14G17G19G30 -1.27,16.0,3.95
  20713669.250
  18734524.750
  18005047.250
  23956519.250
  18020049.750
  20869296.250
 23  3  8 21 30  9.0000000  0 06G03G06G11G14G17G19 -1.24,15.0,3.95
  18941465.250
  22376965.750
  19626587.250
  23057006.750
  22722780.750
  22172853.250
 23  3  8 22  0  9.0000000  0 06G03G11G14G17G19G24 -1.22,13.5,3.95
  23051415.250
  22436261.750
  21862341.250
  21081046.250
  20006282.250
  22785298.250
 23  3  8 22 30 12.0000000  0 04G06G14G17G19 -1.200,12.5,3.95
  20674094.250
  23896504.250
  22534760.750
  21026113.750
 23  3  8 23  0  8.0000000  0 07G06G11G12G14G17G19G24 -1.20,11.5,3.95
  20562238.750
  21435755.750
  22704544.750
  18821754.250
  22809474.250
  20959963.750
  18331162.250
 23  3  8 23 30 13.0000000  0 05G06G12G17G20G25 -1.200,11.0,3.95
  18084698.250
  18937387.750
  20550063.250
  19531124.750
  21024646.250
 23  3  9  0  0 11.0000000  0 06G05G06G09G11G12G17 -1.200,10.0,3.95
  23533447.750
  21314741.250
  18712071.750
  20471490.250
  21024341.750
  23910345.250
 23  3  9  0 30 11.0000000  0 07G05G06G11G12G19G20G25 -1.520,9.0,3.95
  21017977.750
  20778225.250
  19230926.750
  19627987.750
  21124036.250
  19251790.250
  20683477.250
 23  3  9  1  0  9.0000000  0 08G02G05G06G11G12G19G20G29 -1.44,8.5,3.95
  19570761.750
  22952722.250
  18557758.250
  22432640.250
  22901281.250
  19036284.750
  21889746.250
  19488551.750
 23  3  9  1 30  6.0000000  0 06G02G05G06G11G12G25 -1.36,8.5,3.95
  22591572.250
  19901123.750
  23085088.750
  20514301.250
  21276758.250
  21133541.750
 23  3  9  2  0  5.0000000  0 06G05G11G12G13G20G25 -1.28,8.0,3.95
  20964688.750
  22494565.750
  23708347.250
  18469221.250
  21380720.750
  23079056.750
 23  3  9  2 30  5.0000000  0 07G02G05G11G12G15G20G29 -1.20,8.0,3.95
  18296596.250
  22288130.750
  18493237.750
  20210483.250
  19435424.250
  23322235.250
  23223914.750
 23  3  9  3  0  5.0000000  0 07G02G05G11G13G15G20G25 -1.12,8.0,3.95
  19102402.250
  23833055.750
  20489334.750
  19095200.750
  19468884.750
  19345224.250
  21465904.750
 23  3  9  3 30  6.0000000  0 06G05G11G13G15G20G29 -1.04,7.5,3.95
  19562193.250
  22507159.750
  19691928.750
  19631176.750
  21396483.750
  19109084.750
 23  3  9  4  0 10.0000000  0 08G02G05G11G13G15G20G23G29 -0.96,7.5,3.95
  20857114.750
  21460125.750
  18614002.750
  20684160.250
  20102930.250
  23494082.250
  22833056.750
  20593194.250
 23  3  9  4 30  6.0000000  0 07G02G05G10G13G15G18G29 -0.88,7.5,3.95
  21785846.750
  23289949.750
  19925362.750
  21932148.750
  20798024.750
  22065594.750
  22279328.250
 23  3  9  5  0 11.0000000  0 06G02G10G13G18G27G29 -0.800,7.5,3.95
  21025531.750
  24145501.250
  21672501.250
  20540271.250
  18698950.750
  22368888.750
 23  3  9  5 25 32.0000000  0 00 +2.000,7.5,3.95,1,66967,-5051724,3880247,6,1.2
 23  3  9  6 30  6.0000000  0 06G02G10G15G18G23G24 1.16,7.5,3.95
  21760121.750
  20695255.250
  21121725.750
  19128358.750
  19243969.250
  19917921.750
 23  3  9  7  0  5.0000000  0 08G02G10G15G18G23G24G27G32 0.77,7.0,3.95
  23634567.250
  20878621.750
  23041439.750
  20552216.750
  19981304.250
  20606782.750
  23014195.250
  21805246.750
 23  3  9  7 30  5.0000000  0 07G10G18G22G23G24G27G32 0.38,7.0,3.95
  19214737.250
  20344830.250
  21656624.750
  18955473.750
  19791820.250
  22426851.250
  19972816.250
 23  3  9  8  0  5.0000000  0 08G10G12G22G23G24G27G28G32 -0.01,6.5,3.95
  21201954.250
  19711168.750
  23220317.750
  21647693.750
  22883649.750
  19570427.750
  18172989.250
  21855280.750
 23  3  9  8 30 10.0000000  0 07G10G18G21G23G28G31G32 -0.400,6.5,3.95
  21027900.250
  19189768.250
  18712845.250
  22211405.250
  22975324.750
  18026984.750
  21575552.750
 23  3  9  9  0  5.0000000  0 06G10G22G23G28G31G32 -0.37,6.0,3.95
  20451628.750
  21456045.250
  22344551.250
  21332551.750
  22136170.250
  20818356.750
 23  3  9  9 30  8.0000000  0 07G01G10G12G23G25G31G32 -0.34,6.0,3.95
  19111841.250
  22634532.250
  19462729.250
  19157746.750
  18243627.250
  22931818.250
  22681294.250
 23  3  9 10  0  5.0000000  0 07G10G21G22G23G28G31G32 -0.31,6.0,3.95
  23482613.250
  19352463.250
  22890637.750
  20487631.250
  22225054.750
  22400520.750
  23047079.750
 23  3  9 10 30  5.0000000  0 07G10G21G22G25G26G31G32 -0.29,6.0,3.95
  22826329.750
  18108707.250
  21182445.750
  22691343.250
  23616395.750
  20440542.250
  21765907.250
 23  3  9 11  0  5.0000000  0 06G10G21G25G26G31G32 -0.26,6.0,3.95
  19906937.750
  20602479.250
  19168262.250
  18355364.750
  22354144.250
  18145637.250
 23  3  9 11 30  5.0000000  0 06G16G22G26G28G31G32 -0.23,5.5,3.95
  20504679.750
  23280233.750
  23406512.250
  23269259.750
  22700445.250
  18787797.750
 23  3  9 12  0 11.0000000  0 07G03G16G22G26G28G31G32 -0.200,5.5,3.95
  21598330.250
  22910060.250
  21340965.750
  20506308.250
  21707812.750
  21026824.750
  23314936.750
 23  3  9 12 30  9.0000000  0 06G16G22G26G28G31G32 -0.20,5.5,3.95
  23881325.250
  17987620.250
  22403989.250
  18664150.750
  23925381.750
  20400396.250
 23  3  9 13  0 11.0000000  0 06G03G04G16G22G26G31 -0.200,5.5,3.95
  19968332.750
  20383166.750
  19216666.250
  20916223.250
  18806027.250
  21025557.750
 23  3  9 13 30  9.0000000  0 07G03G04G16G22G26G27G31 -0.13,6.0,3.95
  18092716.750
  23136896.250
  22214345.750
  19333724.750
  22868687.250
  19722338.750
  19475785.750
 23  3  9 14  0 11.0000000  0 07G03G04G08G16G22G27G31 -0.07,10.0,3.95
  19253626.750
  22848124.750
  20584625.750
  22369392.250
  20645737.750
  18871821.750
  20690478.750
 23  3  9 14 30 11.0000000  0 05G04G08G09G16G27 +0.000,9.5,3.95
  19574065.750
  22348435.250
  21026347.250
  19653271.250
  20948548.750
 23  3  9 15  0  8.0000000  0 06G04G07G08G09G26G27 -0.10,8.0,3.95
  20892349.250
  23591173.250
  22464130.250
  21602786.750
  18297504.250
  21587057.250
 23  3  9 15 30  5.0000000  0 07G04G07G08G09G16G27G30 -0.20,9.5,3.95
  22841390.750
  18310255.750
  23076470.250
  22776294.750
  23848415.750
  22896267.750
  21358607.750
 23  3  9 16  0  7.0000000  0 08G04G07G08G09G14G16G27G30 -0.30,11.0,3.95
  20307892.250
  20237004.750
  19211023.250
  19520211.750
  23849893.250
  21508586.750
  19824368.750
  23003899.750
 23  3  9 16 30 12.0000000  0 05G07G08G09G27G30 -0.400,11.0,3.95
  18671014.750
  18167994.750
  19069390.750
  19566480.750
  21052319.750
 23  3  9 17  0  8.0000000  0 06G04G08G09G21G27G30 -0.25,11.5,3.95
  21334630.750
  18139037.250
  19549592.250
  20173638.750
  20214973.750
  19745717.250
 23  3  9 17 30  5.0000000  0 08G04G07G08G09G13G21G27G30 -0.10,12.0,3.95
  19744735.250
  20777865.750
  21930202.750
  23733421.750
  19139331.250
  22638258.250
  18526253.750
  22011637.750
 23  3  9 18  0  5.0000000  0 06G01G08G14G17G21G30 0.05,13.5,3.95
  21310425.250
  21267878.250
  20791968.750
  21720693.750
  20706410.750
  19772400.750
 23  3  9 18 30 11.0000000  0 04G01G08G14G21 +0.200,15.5,3.95
  21261657.250
  23169445.750
  21025556.250
  21573410.250
 23  3  9 19  0  5.0000000  0 07G01G07G14G17G19G21G30 0.23,17.0,3.95
  22723026.250
  23244530.250
  22520556.750
  22872735.250
  19463203.750
  23969925.750
  22178206.750
 23  3  9 19 30  8.0000000  0 06G07G13G17G19G21G30 0.27,18.0,3.95
  23239884.750
  18030282.750
  21393876.250
  23387694.750
  23708820.750
  21514554.250
 23  3  9 20  0 10.0000000  0 06G01G13G14G19G21G30 0.30,19.5,3.95
  20579142.250
  23124535.250
  19563572.750
  21055408.250
  23263972.250
  20780221.750
 23  3  9 20 30  8.0000000  0 06G01G03G06G17G19G30 0.33,20.5,3.95
  21217280.250
  22961626.750
  21428113.750
  19577987.250
  20210408.750
  21621128.750
 23  3  9 21  0 10.0000000  0 06G01G03G06G14G17G19 0.37,20.5,3.95
  21678305.250
  21786569.250
  19729825.750
  19199496.250
  19123320.250
  19092814.750
 23  3  9 21 30 11.0000000  0 04G03G14G17G19 +0.400,19.0,3.95
  22801607.250
  21027343.750
  20639271.250
  20011476.750
 23  3  9 22  0  5.0000000  0 07G03G06G11G14G17G19G24 0.10,17.0,3.95
  19911375.750
  22611889.250
  19105816.250
  18803851.250
  23945264.750
  22807666.750
  19611784.250
 23  3  9 22 30 30.0000000  0 07G03G06G11G12G17G19G20 -0.200,15.5,3.95
  23287800.750
  19290159.750
  20931939.750
  22512273.250
  21217045.750
  19658332.250
  23528979.750
 23  3  9 23  0 29.0000000  0 05G06G11G14G17G24 +0.400,14.5,3.95
  21189903.250
  21928210.750
  19576225.750
  23470402.750
  19017749.750
 23  3  9 23 30 14.0000000  0 05G06G11G12G19G20 +0.400,16.0,3.95
  20391642.250
  20249745.750
  21077715.750
  20741615.250
  21611675.250
 23  3 10  0  0 11.0000000  0 06G06G11G17G19G20G25 +0.400,17.0,3.95
  21354777.250
  20408468.750
  23953466.250
  21668153.750
  21023955.250
  22488662.750
 23  3 10  0 30 10.0000000  0 06G02G05G06G11G12G19 0.30,17.5,3.95
  19034590.750
  22641597.250
  22672785.250
  21040854.250
  21433268.750
  23023616.750
 23  3 10  1  0 12.0000000  0 06G05G06G11G12G19G29 +0.200,14.0,3.95
  21389370.750
  23231081.750
  21038550.750
  21536422.250
  23738495.250
  23890282.250
 23  3 10  1 30 11.0000000  0 07G02G05G06G09G11G25G29 +0.600,12.5,3.95
  22952033.250
  20270649.250
  23654391.750
  18561380.750
  21027073.250
  21627826.250
  22419114.250
 23  3 10  2  0 11.0000000  0 06G06G12G13G20G25G29 +0.600,12.0,3.95
  23384926.750
  21715500.750
  22157303.250
  19300360.250
  21026839.750
  20350417.250
 23  3 10  2 30 11.0000000  0 04G02G13G15G20 +0.600,11.5,3.95
  21832320.250
  22199482.750
  22859192.750
  21026253.250
 23  3 10  3  0  5.0000000  0 07G02G05G11G13G15G18G20 0.48,11.0,3.95
  21715061.750
  20567646.750
  23265165.250
  21661998.750
  21982582.250
  23772914.750
  22125159.250
 23  3 10  3 30  5.0000000  0 07G02G05G11G13G15G20G29 0.36,10.5,3.95
  18091541.750
  23859921.750
  20837475.250
  23848211.250
  23720824.750
  19727776.250
  23333845.750
 23  3 10  4  0 10.0000000  0 07G02G05G11G13G15G20G29 +0.240,10.5,3.95
  21161552.250
  21896425.750
  19071164.750
  21018315.250
  20361865.250
  23944257.750
  20993099.250
 23  3 10  4 30  6.0000000  0 06G05G10G13G15G18G29 0.45,10.0,3.95
  18343090.750
  20730171.250
  22925532.250
  21716107.750
  22898084.250
  23328916.250
 23  3 10  5  0  7.0000000  0 07G02G05G10G13G15G18G29 0.66,9.5,3.95
  19024206.750
  21366874.750
  21994430.750
  19745916.250
  18016735.250
  18434405.250
  20483939.750
 23  3 10  5 30  5.0000000  0 06G02G10G13G15G23G24 0.87,9.0,3.95
  21313605.750
  23054833.750
  22588802.750
  20424477.250
  20796133.750
  22199670.250
 23  3 10  6  0  9.0000000  0 07G02G10G15G23G24G27G32 1.07,8.5,3.95
  23754031.250
  18065297.250
  23016355.750
  22201115.250
  23127145.750
  18854209.250
  19567011.250
 23  3 10  6 30  8.0000000  0 06G15G18G23G24G27G32 1.28,8.0,3.95
  19499312.750
  23417456.250
  23449027.750
  18104502.750
  20214874.250
  19985100.750
 23  3 10  7  0  6.0000000  0 06G02G10G18G23G24G32 1.49,8.0,3.95
  22436250.250
  19444925.250
  19308007.250
  18630532.250
  19270865.750
  20344197.750
 23  3 10  7 30  9.0000000  0 06G08G10G22G24G27G32 1.70,7.5,3.95
  23916099.750
  20029420.750
  22409142.250
  20748355.750
  23401466.750
  20771387.250
 23  3 10  8  0  5.0000000  0 06G10G18G22G23G24G28 1.91,7.0,3.95
  20448746.750
  23335047.750
  22404724.250
  20995010.250
  22294535.250
  23279328.750
 23  3 10  8 30  5.0000000  0 07G10G12G22G23G25G31G32 2.12,6.5,3.95
  20927317.750
  18786392.750
  22415695.750
  22209687.250
  18347898.750
  23774104.250
  21457273.750
 23  3 10  9  0 10.0000000  0 06G10G22G23G25G31G32 2.33,6.5,3.95
  21603016.750
  22516897.250
  23591030.750
  18066761.250
  23115446.750
  21934789.250
 23  3 10  9 30  5.0000000  0 07G10G12G21G23G25G31G32 2.53,6.0,3.95
  22220934.750
  18984270.250
  18604862.250
  18820180.250
  23692825.250
  22344077.250
  22211968.250
 23  3 10 10  0  8.0000000  0 07G01G10G21G22G25G31G32 2.74,6.0,3.95
  18375349.750
  23116217.250
  18903889.250
  22386531.250
  23659795.250
  21856455.750
  22601197.250
 23  3 10 10 30  8.0000000  0 07G01G10G22G25G26G28G32 2.95,5.5,3.95
  18433336.750
  18100550.750
  22296719.750
  23862837.250
  18568372.250
  21710595.750
  22940894.250
 23  3 10 11  0  9.0000000  0 06G10G22G26G28G31G32 3.16,5.5,3.95
  18588096.750
  21625661.750
  22706110.250
  21303472.250
  20884431.750
  22723381.250
 23  3 10 11 30  5.0000000  0 07G01G03G22G26G28G31G32 3.37,5.5,3.95
  19201926.250
  23124748.250
  22079946.250
  22062176.250
  22121208.250
  21523901.750
  23646124.750
 23  3 10 12  0  7.0000000  0 06G03G16G22G28G31G32 3.58,5.0,3.95
  20448134.250
  21638174.750
  20300848.750
  20714326.250
  20009143.750
  22333616.750
 23  3 10 12 30 30.0000000  0 02G16G26 3.79,5.5,3.95
  21055364.750
  19734834.250
 23  3 10 13  0 47.0000000  0 00 +4.000,5.5,3.95,1,66954,-5051722,3880227,6,2.0
 23  3 10 14  0 15.0000000  0 07G03G07G08G09G26G27G31 -2.600,11.5,3.95
  21024903.750
  22463090.250
  22044986.750
  20436668.750
  19727471.750
  20361733.750
  22426251.750
 23  3 10 14 30 17.0000000  0 05G04G08G16G26G27 +1.000,16.0,3.95
  19843751.250
  22461148.250
  20004670.750
  22398272.250
  21123048.750
 23  3 10 15  0 11.0000000  0 05G04G07G08G16G27 +1.600,15.0,3.95
  19636409.750
  22187808.250
  21026639.750
  20317861.750
  20238302.750
 23  3 10 15 30 11.0000000  0 04G04G08G09G27 +1.600,17.5,3.95
  20980591.750
  21026677.750
  20802290.750
  20951996.250
 23  3 10 16  0 11.0000000  0 05G04G07G09G27G30 +1.600,18.0,3.95
  21578728.250
  21269036.750
  20694119.750
  21026986.250
  23980985.250
 23  3 10 16 30  5.0000000  0 06G04G08G09G16G21G27 1.60,18.0,3.95
  21750557.750
  19328645.250
  20303188.750
  22926117.750
  22424441.250
  20822987.750
 23  3 10 17  0 11.0000000  0 04G08G09G21G27 +1.600,20.0,3.95
  19550714.250
  21026505.250
  21411720.750
  21707491.250
 23  3 10 17 30 12.0000000  0 06G01G07G08G17G21G30 +1.400,22.0,3.95
  22829770.250
  19767383.750
  21040666.750
  23256103.750
  21560514.250
  20897115.250
 23  3 10 18  0 11.0000000  0 06G01G08G13G17G21G30 +1.600,25.0,3.95
  21507425.250
  21749423.250
  22939842.750
  21915332.750
  21024854.250
  20037808.250
 23  3 10 18 30  7.0000000  0 06G01G08G14G17G21G30 1.70,29.0,3.95
  23180512.250
  19335267.750
  22964968.750
  23509721.250
  23620284.750
  22214402.750
 23  3 10 19  0 11.0000000  0 05G01G07G17G19G21 +1.800,33.0,3.95
  19655053.250
  20343987.750
  19763966.250
  22269851.750
  21028171.250
 23  3 10 19 30 11.0000000  0 05G01G07G17G19G21 +1.800,35.5,3.95
  21027239.250
  22763827.250
  20716109.750
  22616882.750
  23201567.250
 23  3 10 20  0  5.0000000  0 06G01G13G14G17G21G30 1.80,36.5,3.95
  20542712.250
  23095082.250
  19437590.250
  19599161.250
  23290220.750
  20778672.750
 23  3 10 20 30 11.0000000  0 04G03G06G14G17 +1.800,37.0,3.95
  22629126.750
  21025568.750
  19278456.750
  19353891.750
 23  3 10 21  0 12.0000000  0 05G01G03G14G17G19 +1.800,36.0,3.95
  23602732.250
  23493438.250
  21025604.250
  20915003.250
  20796729.250
 23  3 10 21 30 12.0000000  0 05G03G06G11G17G19 +1.200,35.5,3.95
  21032139.750
  18299573.750
  21390589.250
  18915727.750
  18212662.250
 23  3 10 22  0 11.0000000  0 05G03G06G11G17G19 +1.800,34.0,3.95
  18188592.750
  20794005.250
  23176631.750
  22225337.250
  21024200.750
 23  3 10 22 30 10.0000000  0 06G06G12G14G17G19G24 +2.000,17.5,3.95
  23510315.250
  20581726.750
  21027780.250
  19495836.750
  23888675.750
  20994672.250
 23  3 10 23  0 17.0000000  0 04G06G11G17G19 +1.800,14.0,3.95
  20741702.750
  21362786.250
  23052966.250
  21133088.250
 23  3 10 23 30 11.0000000  0 05G06G09G12G19G20 +2.000,16.0,3.95
  21026576.250
  19306153.750
  21547019.750
  21370292.750
  22032224.750
 23  3 11  0  0 11.0000000  0 04G06G11G19G20 +2.000,17.0,3.95
  21557206.750
  20508701.750
  21871156.750
  21025393.750
 23  3 11  0 30 37.0000000  0 07G05G09G11G12G19G20G29 +2.000,13.5,3.95
  22417787.750
  24756918.250
  21015019.250
  21407833.250
  23108502.750
  20852212.750
  19024983.250
 23  3 11  1  0 13.0000000  0 06G05G11G12G19G20G25 +2.000,10.0,3.95
  21205353.250
  21024682.250
  21553836.250
  23812459.750
  20355612.750
  21833551.750
 23  3 11  1 30 14.0000000  0 05G05G11G20G25G29 +2.000,10.0,3.95
  21177139.750
  22070538.250
  21079013.250
  22657893.250
  23253432.250
 23  3 11  2  0 28.0000000  0 04G11G12G15G20 +2.160,10.5,3.95
  21850762.250
  23213344.750
  24189032.250
  20708988.250
 23  3 11  2 30 11.0000000  0 06G11G12G13G15G20G25 +2.200,10.0,3.95
  21250466.250
  23105699.750
  21026284.750
  21646188.250
  20083530.750
  22054004.750
 23  3 11  3  0  6.0000000  0 07G02G05G11G13G15G20G29 2.25,9.5,3.95
  20885424.750
  19859335.250
  22599369.250
  20790885.250
  21056020.250
  21463455.750
  19847286.750
 23  3 11  3 30  7.0000000  0 07G02G05G11G13G15G20G29 2.30,9.0,3.95
  20343713.250
  20251007.750
  23251571.250
  20100787.750
  19904318.250
  22141967.750
  19655922.750
 23  3 11  4  0  9.0000000  0 06G02G05G13G15G23G29 2.35,8.5,3.95
  21770393.250
  22635352.250
  21661734.250
  20929769.750
  23559850.750
  21701173.250
 23  3 11  4 30 11.0000000  0 06G02G05G13G15G18G23 +2.400,7.5,3.95
  20951623.750
  22687464.250
  21223749.750
  19937956.250
  21027162.250
  22027597.750
 23  3 11  5  0  5.0000000  0 08G02G05G10G13G15G18G23G29 2.40,6.5,3.95
  23853898.750
  20285129.750
  20673454.750
  18656120.250
  22857544.250
  23158167.750
  18132410.750
  19434162.750
 23  3 11  5 30  5.0000000  0 07G02G13G15G18G23G27G29 2.40,5.5,3.95
  18512068.750
  19860046.750
  23639755.750
  23033138.250
  23855790.750
  20607323.250
  20840492.750
 23  3 11  6  0  9.0000000  0 06G02G15G18G23G24G27 2.40,5.0,3.95
  18935194.250
  18216506.250
  22738878.250
  23228611.750
  18107477.250
  19882865.250
 23  3 11  6 30 11.0000000  0 06G02G10G18G23G24G32 +2.400,4.0,3.95
  21025383.250
  19500571.750
  18250211.250
  18193592.750
  18827341.250
  20612257.250
 23  3 11  7  0 11.0000000  0 06G10G18G23G24G27G32 +2.040,3.5,3.95
  21018111.250
  21077723.750
  20289717.250
  20950106.250
  23435523.750
  21891299.750
 23  3 11  7 30  6.0000000  0 07G10G22G23G24G27G28G32 2.19,3.0,3.95
  19080998.250
  21400297.750
  19010329.750
  19942453.250
  22609624.250
  22723062.750
  19808246.250
 23  3 11  8  0  6.0000000  0 06G10G12G18G23G28G32 2.34,2.5,3.95
  22574680.250
  20931428.250
  19674046.250
  23222459.250
  19270798.750
  23203869.250
 23  3 11  8 30  7.0000000  0 06G10G21G23G24G28G32 2.50,2.0,3.95
  19872632.250
  23384080.250
  21256391.750
  23095068.250
  21529475.250
  20382512.750
 23  3 11  9  0  7.0000000  0 07G10G21G22G23G25G28G32 2.65,1.5,3.95
  22994514.750
  19898991.750
  23817679.250
  19077078.250
  19323960.750
  23574973.250
  23289605.750
 23  3 11  9 30 11.0000000  0 06G10G12G22G25G28G32 +2.800,1.0,3.95
  21096963.750
  23790668.250
  21162621.750
  22431665.250
  20596916.750
  21026749.250
 23  3 11 10  0 11.0000000  0 06G10G21G22G26G31G32 +2.800,0.5,3.95
  21026403.750
  22727912.750
  20155721.250
  23431547.750
  19588738.750
  20429032.750
 23  3 11 10 30  5.0000000  0 07G03G10G21G22G25G31G32 2.90,0.5,3.95
  21037982.250
  19918370.750
  21037156.750
  23960881.750
  19592112.750
  23198542.250
  18668791.750
 23  3 11 11  0 11.0000000  0 07G01G10G21G22G26G28G32 +3.000,0.0,3.95
  20526687.250
  21028282.250
  21562861.250
  23904710.250
  18828168.750
  23628995.750
  19069676.250
 23  3 11 11 30  9.0000000  0 06G01G16G22G28G31G32 3.00,0.5,3.95
  19201579.250
  18762759.250
  21995659.750
  22089977.750
  21463850.250
  23625487.750
 23  3 11 12  0  9.0000000  0 06G03G16G22G26G28G31 3.00,0.5,3.95
  18701846.750
  19763086.250
  18663850.750
  23595787.750
  19123558.750
  18393881.250
 23  3 11 12 30 12.0000000  0 04G16G22G28G31 +3.000,0.5,3.95
  20458795.750
  21024691.750
  21763757.250
  20985794.750
 23  3 11 13  0 11.0000000  0 05G16G22G26G28G31 +3.200,0.5,3.95
  21134452.250
  23253663.250
  21027617.750
  18136128.750
  23341742.250
 23  3 11 13 20 52.0000000  0 00 +5.000,1.5,3.95,1,66964,-5051717,3880239,4,1.0
 23  3 11 13 30 11.0000000  0 04G03G16G26G31 -1.800,1.5,3.95
  19648261.250
  23477458.750
  18412185.750
  21026909.250
 23  3 11 14  0 18.0000000  0 06G03G04G16G26G27G31 -1.600,1.5,3.95
  22069998.750
  19271326.750
  18946462.750
  20761474.250
  21133432.250
  23440588.750
 23  3 11 14 30 11.0000000  0 06G04G07G09G16G26G27 -1.800,2.5,3.95
  19770624.250
  23143541.250
  21024283.750
  20005784.750
  22468541.750
  20964048.250
 23  3 11 15  0 10.0000000  0 07G04G07G08G09G16G26G27 -1.96,6.0,3.95
  23013395.250
  19422042.750
  18231603.750
  23512424.250
  23761595.250
  20641622.250
  23529042.750
 23  3 11 15 30 11.0000000  0 06G07G08G09G16G27G30 -2.120,7.5,3.95
  22367532.250
  21152780.250
  21018234.250
  22384424.250
  21188216.750
  25337501.750
 23  3 11 16  0 10.0000000  0 06G04G07G08G09G16G27 -1.95,8.0,3.95
  21954536.250
  21437498.750
  20516920.750
  20992363.750
  23183028.750
  21350810.250
 23  3 11 16 30 11.0000000  0 07G04G07G08G09G14G21G27 -1.77,9.0,3.95
  22395588.250
  20160765.750
  19841779.750
  20891382.250
  23328563.250
  22773090.250
  21438875.750
 23  3 11 17  0 11.0000000  0 04G08G09G14G27 -1.600,11.0,3.95
  18814285.750
  20348301.250
  21024595.250
  21048269.250
 23  3 11 17 30 10.0000000  0 07G01G07G09G14G17G21G30 -1.53,12.0,3.95
  23970386.750
  21060631.750
  18339834.250
  23155087.250
  18401134.750
  22794145.750
  22093839.250
 23  3 11 18  0 10.0000000  0 06G01G07G08G14G21G30 -1.47,12.5,3.95
  20178251.250
  18500570.750
  20688629.750
  19755339.750
  19813856.750
  18774419.250
 23  3 11 18 30 14.0000000  0 04G01G13G17G19 -1.400,13.0,3.95
  23838418.250
  19679055.250
  18152988.250
  21078998.250
 23  3 11 19  0  6.0000000  0 06G01G07G14G19G21G30 -1.52,14.0,3.95
  20011707.750
  20848746.750
  19766105.750
  22507177.750
  21500466.750
  19591584.750
 23  3 11 19 30  8.0000000  0 06G01G07G17G19G21G30 -1.64,16.0,3.95
  18246863.250
  20098565.750
  23859993.750
  19675011.750
  20512212.750
  18226698.250
 23  3 11 20  0  6.0000000  0 06G01G06G14G17G19G30 -1.76,17.0,3.95
  21537426.250
  23268812.750
  20339330.250
  20492988.750
  21624960.250
  21806407.750
 23  3 11 20 30  6.0000000  0 07G01G03G06G14G17G19G30 -1.88,17.5,3.95
  21243112.750
  22538181.250
  20867402.250
  19305611.750
  19363620.250
  19809419.250
  21683684.250
 23  3 11 21  0 14.0000000  0 07G01G03G06G14G17G19G30 -2.000,17.5,3.95
  23740246.250
  23422263.750
  21209892.750
  21069305.750
  20922262.250
  20719800.250
  18244932.250
 23  3 11 21 30  8.0000000  0 06G03G06G11G14G17G19 -1.60,17.0,3.95
  21408328.750
  18591712.750
  21602904.750
  19832246.250
  19330683.250
  18556852.750
 23  3 11 22  0 11.0000000  0 05G06G14G17G19G24 -1.200,16.0,3.95
  20767195.750
  23297462.750
  22287071.750
  21027155.750
  23880348.250
 23  3 11 22 30 20.0000000  0 06G03G06G11G17G19G20 -1.800,16.0,3.95
  18851441.250
  20665255.250
  22073313.250
  22703112.250
  21052626.750
  18553293.750
 23  3 11 23  0 11.0000000  0 06G06G11G12G17G19G20 -1.200,15.0,3.95
  18636715.750
  19140075.250
  20246780.250
  20976284.250
  19024293.250
  21025894.250
 23  3 11 23 30 14.0000000  0 04G06G11G12G19 -1.200,15.0,3.95
  20668370.250
  20297572.250
  21026048.250
  21006265.250
 23  3 12  0  0 11.0000000  0 06G02G06G11G12G19G20 -1.640,15.0,3.95
  19251600.750
  21743251.250
  20596693.250
  21059932.250
  22059430.750
  21018134.250
 23  3 12  0 30 10.0000000  0 07G02G05G06G11G12G19G29 -1.42,15.0,3.95
  18413028.250
  21935747.750
  22482569.750
  20681325.750
  21079334.750
  22870895.250
  18526412.250
 23  3 12  1  0 11.0000000  0 07G02G05G06G11G12G25G29 -1.200,15.5,3.95
  21422034.250
  18738335.750
  21024858.250
  18702666.750
  19277968.750
  19472326.750
  21164053.750
 23  3 12  1 30  9.0000000  0 06G02G05G06G12G20G25 -1.10,15.5,3.95
  19678149.750
  23023232.750
  20767046.250
  18988495.750
  23017398.250
  18629306.750
 23  3 12  2  0 10.0000000  0 06G02G11G12G13G20G25 -1.000,15.0,3.95
  20266804.750
  19763509.250
  21203009.250
  21027386.250
  18614987.750
  20408762.250
 23  3 12  2 30 10.0000000  0 08G02G05G11G12G13G15G20G29 -1.00,14.5,3.95
  21035652.750
  19307763.750
  21706515.250
  23637665.750
  21264750.750
  21848431.250
  20542653.250
  19924304.250
 23  3 12  3  0  6.0000000  0 06G05G13G15G18G20G25 -1.00,13.5,3.95
  21426228.750
  22200064.250
  22413720.750
  18263949.750
  23069389.750
  19287665.750
 23  3 12  3 30 11.0000000  0 07G02G05G11G13G15G20G23 -1.000,13.0,3.95
  20989021.750
  21026302.750
  18054333.750
  20744161.750
  20482353.750
  22939041.750
  23360068.250
 23  3 12  4  0 10.0000000  0 06G02G05G13G18G23G29 -1.10,12.0,3.95
  19003875.250
  19991327.750
  18930643.750
  19711921.750
  20708462.750
  19040921.250
 23  3 12  4 30 15.0000000  0 01G15 -1.200,11.5,3.95
  21065100.250
 23  3 12  5  0  9.0000000  0 06G02G13G15G23G24G29 -1.00,10.5,3.95
  19097535.750
  19968736.250
  18113161.250
  19258650.250
  21064975.250
  20794595.250
 23  3 12  5 30 11.0000000  0 05G02G13G15G18G29 -0.800,10.0,3.95
  21027507.750
  22442229.750
